     3.03           O                   M                   RINEX VERSION / TYPE
Android_Rinex                           2024-06-10 11:48:14 PGM / RUN BY / DATE
                                                            MARKER NAME
SMARTPHONE                                                  MARKER TYPE
                                                            OBSERVER / AGENCY
                                                            REC # / TYPE / VERS
                                                            ANT # / TYPE
        0.0000        0.0000        0.0000                  APPROX POSITION XYZ
        0.0000        0.0000        0.0000                  ANTENNA: DELTA H/E/N
G    4 C1C L1C D1C S1C                                      SYS / # / OBS TYPES
R    4 C1C L1C D1C S1C                                      SYS / # / OBS TYPES
J    4 C1C L1C D1C S1C                                      SYS / # / OBS TYPES
C    4 C1C L1C D1C S1C                                      SYS / # / OBS TYPES
E    8 C1B L1B D1B S1B C1C L1C D1C S1C                      SYS / # / OBS TYPES
  2023    09    07    19    33    45.0002880                TIME OF FIRST OBS
  2023    09    07    19    51    51.9992880                TIME OF LAST OBS
  8 R10 -47 R02 -47 R01 -47 R24 -47 R23 -47 R17 -47 R08 -47   8 R10 -47 R02 -47 R01 -47 R24 -47 R23 -47 R17 -47 R08 -47 GLONASS SLOT / FRQ #
    R11 -47 GLONASS SLOT / FRQ #
                                                            GLONASS COD/PHS/BIS#
                                                            END OF HEADER
> 2023 09 07 19 33 45.0002878  0 18
G02  23439115.927 5   -700981.31309      3327.994          35.163  
G08  22517332.064 4     75119.99309      -425.408          37.910  
G10  21157822.734 4     93986.97809      -475.851          40.378  
G18  24721997.110 5    617723.84309     -2976.242          31.212  
G21  22565861.870 3   -579855.04209      2740.452          44.237  
G23  23253738.651 5    389600.63709     -1878.270          34.203  
G28  23663918.304 4   -807186.12609      3844.190          36.990  
G32  20558680.309 5   -153392.64909       814.511          30.840  
R02  20741272.809 5   -497528.67509      2348.026          37.144  
R01  19702158.883 7         0.00000      -898.778          28.944  
R24  19252879.399 6         0.00000      -311.505          26.966  
R23  21985273.006 6    710304.66909     -3489.786          32.490  
R17  21092147.810 5   -776577.75609      3671.920          41.624  
R08  23140749.888 6    602679.75109     -2897.174          35.565  
C27         0.000 0         0.00000         0.000           0.000  
C30         0.000 0         0.00000         0.000           0.000  
C32         0.000 0         0.00000         0.000           0.000  
C33         0.000 0         0.00000         0.000           0.000  
> 2023 09 07 19 33 46.0002878  0 19
G02  23438493.565 5   -704309.17709      3327.409          36.356  
G08  22517417.500 4     75545.61709      -426.462          38.285  
G10  21157918.972 4     94463.12709      -476.649          40.116  
G18  24722568.203 5    620700.39709     -2977.487          31.083  
G21  22565344.122 3   -582595.33809      2739.731          45.727  
G23  23254086.417 5    391479.19009     -1879.090          34.101  
G28  23663184.104 4   -811030.26709      3843.966          38.620  
G32  20558507.325 6         0.00000       814.510          30.336  
R02  20740836.013 6   -499876.33009      2347.157          36.251  
R01  19702292.272 7    178465.07109      -897.517          29.476  
R24  19252932.465 6         0.00000      -312.330          26.949  
R23  21985933.147 6    713794.18509     -3490.189          33.034  
R17  21091445.997 5   -780249.40709      3671.006          43.095  
R08  23141305.101 6    605576.72709     -2897.245          35.927  
C27         0.000 0         0.00000         0.000           0.000  
C28         0.000 0         0.00000         0.000           0.000  
C30         0.000 0         0.00000         0.000           0.000  
C32         0.000 0         0.00000         0.000           0.000  
C33         0.000 0         0.00000         0.000           0.000  
> 2023 09 07 19 33 47.0002878  0 19
G02  23437871.482 5   -707636.79709      3327.455          36.382  
G08  22517503.844 4     75971.82009      -426.675          38.067  
G10  21158002.314 4     94939.57309      -476.811          39.962  
G18  24723124.028 5    623676.99209     -2977.028          31.741  
G21  22564823.983 3   -585335.27209      2739.682          45.605  
G23  23254446.467 5    393357.89509     -1879.160          34.058  
G28  23662445.419 4   -814874.27409      3844.110          38.438  
G32  20558360.133 5   -155019.30309       812.540          33.623  
R02  20740377.334 6   -502223.38809      2346.509          36.554  
R01  19702483.544 7         0.00000      -899.683          28.112  
R24  19252981.623 6         0.00000      -308.894          27.286  
R23  21986584.302 6    717284.17209     -3490.251          32.147  
R17  21090747.168 5   -783920.49609      3670.757          43.323  
R08  23141855.830 6    608473.79709     -2897.087          35.829  
C27         0.000 0         0.00000         0.000           0.000  
C28         0.000 0         0.00000         0.000           0.000  
C30         0.000 0         0.00000         0.000           0.000  
C32         0.000 0         0.00000         0.000           0.000  
C33         0.000 0         0.00000         0.000           0.000  
> 2023 09 07 19 33 48.0002878  0 19
G02  23437231.425 5   -710964.35209      3327.504          35.737  
G08  22517576.088 4     76398.57809      -426.798          38.561  
G10  21158092.549 4     95416.01909      -476.289          38.432  
G18  24723709.221 5    626653.76309     -2976.438          31.286  
G21  22564297.545 3   -588075.10509      2739.914          44.828  
G23  23254798.421 5    395236.46809     -1878.382          33.155  
G28  23661713.330 4   -818718.28209      3844.102          38.132  
G32  20558196.450 5   -155831.86109       812.663          35.069  
R02  20739940.834 5   -504570.20609      2346.581          36.941  
R01  19702653.230 6         0.00000      -897.782          30.945  
R24  19253016.418 6         0.00000      -309.034          26.963  
R23  21987240.535 7         0.00000     -3490.431          30.407  
R17  21090048.653 5   -787591.30209      3670.967          42.400  
R08  23142409.246 6    611370.69209     -2897.062          35.303  
C27         0.000 0         0.00000         0.000           0.000  
C28         0.000 0         0.00000         0.000           0.000  
C30         0.000 0         0.00000         0.000           0.000  
C32         0.000 0         0.00000         0.000           0.000  
C33         0.000 0         0.00000         0.000           0.000  
> 2023 09 07 19 33 49.0002878  0 19
G02  23436600.966 4   -714291.67109      3327.360          36.997  
G08  22517653.445 4     76825.92909      -427.923          37.635  
G10  21158186.676 4     95892.70809      -476.875          38.653  
G18  24724257.245 6         0.00000     -2976.249          28.760  
G21  22563782.799 3   -590814.65809      2739.458          45.714  
G23  23255176.165 5    397115.36109     -1878.872          34.128  
G28  23660988.134 4   -822562.12209      3843.957          38.286  
G32  20558046.552 5   -156644.01009       811.637          32.698  
R02  20739503.724 6   -506916.54409      2346.188          36.409  
R01  19702826.214 6    181158.63409      -898.459          31.752  
R24  19253088.348 6         0.00000      -314.595          26.968  
R23  21987921.669 6    724265.05709     -3490.834          31.545  
R17  21089355.234 5   -791261.39209      3669.930          42.601  
R08  23142947.655 6    614267.54609     -2896.859          36.245  
C27         0.000 0         0.00000         0.000           0.000  
C28         0.000 0         0.00000         0.000           0.000  
C30         0.000 0         0.00000         0.000           0.000  
C32         0.000 0         0.00000         0.000           0.000  
C33         0.000 0         0.00000         0.000           0.000  
> 2023 09 07 19 33 50.0002878  0 19
G02  23435961.817 4   -717618.91009      3327.355          37.175  
G08  22517743.086 4     77253.79309      -428.140          39.374  
G10  21158277.818 4     96369.65709      -477.270          39.913  
G18  24724816.647 6         0.00000     -2975.920          28.191  
G21  22563261.159 3   -593553.93109      2739.105          45.993  
G23  23255519.132 5    398994.21209     -1879.018          33.812  
G28  23660252.729 4   -826405.86509      3843.623          38.777  
G32  20557899.046 5   -157455.50209       811.354          33.414  
R02  20739060.034 6   -509262.33909      2345.449          36.404  
R01  19702991.991 6         0.00000      -898.811          31.415  
R24  19253165.408 7     46356.06309      -313.872          28.863  
R23  21988568.025 6    727756.12609     -3491.328          32.060  
R17  21088657.627 5   -794931.13009      3669.456          42.086  
R08  23143489.101 6    617164.39309     -2896.609          35.824  
C27         0.000 0         0.00000         0.000           0.000  
C28         0.000 0         0.00000         0.000           0.000  
C30         0.000 0         0.00000         0.000           0.000  
C32         0.000 0         0.00000         0.000           0.000  
C33         0.000 0         0.00000         0.000           0.000  
> 2023 09 07 19 33 51.0002878  0 19
G02  23435324.745 5   -720946.18809      3327.250          36.315  
G08  22517818.628 4     77682.03409      -428.527          39.250  
G10  21158366.849 4     96846.52509      -476.978          40.001  
G18  24725392.853 6         0.00000     -2978.375          28.605  
G21  22562742.818 3   -596293.19909      2739.101          44.711  
G23  23255879.182 5    400873.04109     -1879.044          33.419  
G28  23659520.937 4   -830249.83709      3843.855          38.368  
G32  20557744.960 5   -158266.74709       811.103          33.599  
R02  20738599.261 6   -511607.94709      2345.399          36.126  
R01  19703192.860 7    182956.03809      -898.969          29.642  
R24  19253218.771 7     46669.86209      -313.978          28.702  
R23  21989273.136 6    731247.25409     -3491.319          31.460  
R17  21087970.489 5   -798600.41409      3669.103          40.189  
R08  23144051.207 6    620061.01109     -2896.529          35.250  
C27         0.000 0         0.00000         0.000           0.000  
C28         0.000 0         0.00000         0.000           0.000  
C30         0.000 0         0.00000         0.000           0.000  
C32         0.000 0         0.00000         0.000           0.000  
C33         0.000 0         0.00000         0.000           0.000  
> 2023 09 07 19 33 52.0002878  0 19
G02  23434691.284 5   -724273.29109      3326.926          36.132  
G08  22517904.972 4     78110.86009      -429.143          39.342  
G10  21158463.994 4     97323.60409      -477.249          41.249  
G18  24725964.557 6    638561.74609     -2977.276          29.095  
G21  22562214.286 3   -599032.26709      2738.801          45.270  
G23  23256237.435 5    402751.91609     -1879.163          34.170  
G28  23658789.755 4   -834093.63909      3843.497          39.180  
G32  20557593.266 5   -159077.46809       810.360          33.593  
R02  20738162.762 6   -513953.08909      2344.732          36.581  
R01  19703313.982 7    183855.21009      -899.346          30.214  
R24  19253264.944 7         0.00000      -313.516          28.184  
R23  21989913.193 6    734738.76809     -3491.766          33.060  
R17  21087257.596 5   -802269.28609      3668.461          41.366  
R08  23144589.337 6    622957.52409     -2896.510          35.297  
C27         0.000 0         0.00000         0.000           0.000  
C28         0.000 0         0.00000         0.000           0.000  
C30         0.000 0         0.00000         0.000           0.000  
C32         0.000 0         0.00000         0.000           0.000  
C33         0.000 0         0.00000         0.000           0.000  
> 2023 09 07 19 33 53.0002878  0 19
G02  23434065.624 5   -727599.96909      3326.385          35.960  
G08  22517988.611 4     78540.40809      -430.043          38.892  
G10  21158551.821 4     97801.06009      -477.645          41.069  
G18  24726512.581 6    641539.32609     -2978.011          29.322  
G21  22561690.256 3   -601770.86309      2738.330          44.979  
G23  23256602.285 5    404631.06109     -1879.349          33.029  
G28  23658051.053 4   -837937.20109      3843.090          39.057  
G32  20557442.164 5   -159887.38109       809.240          34.311  
R02  20737712.180 6   -516297.63309      2344.126          36.664  
R01  19703501.049 6    184755.04609      -900.508          30.917  
R24  19253338.986 7     47300.45209      -316.825          29.573  
R23  21990600.313 6    738230.81409     -3492.286          31.331  
R17  21086565.974 5   -805937.47009      3667.808          41.842  
R08  23145143.346 6    625854.20509     -2896.800          34.834  
C27         0.000 0         0.00000         0.000           0.000  
C28         0.000 0         0.00000         0.000           0.000  
C30         0.000 0         0.00000         0.000           0.000  
C32         0.000 0         0.00000         0.000           0.000  
C33         0.000 0         0.00000         0.000           0.000  
> 2023 09 07 19 33 54.0002878  0 19
G02  23433424.957 5   -730926.46909      3326.303          35.675  
G08  22518064.764 4     78970.71809      -431.094          38.790  
G10  21158644.465 4     98278.86009      -478.146          41.237  
G18  24727100.775 6    644517.26809     -2978.285          29.311  
G21  22561173.415 3   -604509.08409      2737.798          44.911  
G23  23256956.035 5    406510.44909     -1879.625          32.590  
G28  23657333.657 4   -841780.51109      3842.932          38.842  
G32  20557279.074 5   -160696.72009       808.555          34.453  
R02  20737265.785 5   -518641.55009      2343.462          36.790  
R01  19703668.920 7    185655.32209      -901.076          30.458  
R24  19253442.413 7     47617.06909      -317.214          29.834  
R23  21991225.676 6    741723.39809     -3493.264          30.942  
R17  21085874.038 5   -809605.00309      3666.925          41.584  
R08  23145699.171 6    628751.00009     -2897.037          33.915  
C27         0.000 0         0.00000         0.000           0.000  
C28         0.000 0         0.00000         0.000           0.000  
C30         0.000 0         0.00000         0.000           0.000  
C32         0.000 0         0.00000         0.000           0.000  
C33         0.000 0         0.00000         0.000           0.000  
> 2023 09 07 19 33 55.0002878  0 19
G02  23432801.391 5   -734252.25009      3325.806          36.111  
G08  22518146.902 4     79402.04509      -431.493          39.257  
G10  21158736.794 4     98757.28109      -478.179          39.763  
G18  24727650.894 6         0.00000     -2981.015          28.751  
G21  22560655.074 3   -607246.57309      2737.469          44.216  
G23  23257306.191 5    408390.40809     -1879.677          31.023  
G28  23656598.270 4   -845623.30909      3842.991          37.931  
G32  20557127.380 5   -161505.02109       808.454          34.814  
R02  20736826.895 5   -520984.53009      2342.857          36.743  
R01  19703832.917 7    186556.50709      -901.500          29.423  
R24  19253467.594 7         0.00000      -321.628          29.909  
R23  21991900.511 7         0.00000     -3494.474          30.385  
R17  21085154.845 5   -813271.53709      3666.173          41.382  
R08  23146235.486 6    631648.19009     -2897.069          32.515  
C27         0.000 0         0.00000         0.000           0.000  
C28         0.000 0         0.00000         0.000           0.000  
C30         0.000 0         0.00000         0.000           0.000  
C32         0.000 0         0.00000         0.000           0.000  
C33         0.000 0         0.00000         0.000           0.000  
> 2023 09 07 19 33 56.0002878  0 19
G02  23432161.945 4   -737577.26009      3323.794          36.626  
G08  22518236.230 4     79834.60809      -434.013          40.916  
G10  21158835.422 4     99235.85709      -479.405          39.658  
G18  24728228.286 6         0.00000     -2978.220          28.261  
G21  22560128.636 3   -609983.19409      2735.170          45.207  
G23  23257665.334 5    410270.11109     -1879.503          30.998  
G28  23655870.369 4   -849466.37509      3842.465          37.334  
G32  20556964.604 5   -162312.72809       806.964          35.330  
R02  20736388.895 5   -523326.51609      2340.568          37.587  
R01  19703974.124 6    187458.18209      -902.893          31.600  
R24  19253528.757 7     48254.18509      -320.361          30.137  
R23  21992567.860 6    748710.19909     -3494.250          32.345  
R17  21084471.319 5   -816936.98009      3663.902          41.810  
R08  23146801.187 6    634545.10709     -2897.937          36.348  
C27         0.000 0         0.00000         0.000           0.000  
C28         0.000 0         0.00000         0.000           0.000  
C30         0.000 0         0.00000         0.000           0.000  
C32         0.000 0         0.00000         0.000           0.000  
C33         0.000 0         0.00000         0.000           0.000  
> 2023 09 07 19 33 57.0002878  0 19
G02  23431535.081 4   -740900.41609      3322.395          38.310  
G08  22518315.087 4     80269.32309      -435.666          40.517  
G10  21158919.969 4     99714.72109      -478.854          39.402  
G18  24728799.694 6         0.00000     -2976.121          29.464  
G21  22559604.292 3   -612718.12709      2734.273          44.934  
G23  23258019.993 5         0.00000     -1881.476          31.068  
G28  23655132.573 4   -853309.49509      3842.845          36.586  
G32  20556813.799 5   -163119.35509       806.167          35.699  
R02  20735939.499 5   -525666.56909      2339.146          37.738  
R01  19704211.848 6    188360.98309      -903.241          31.274  
R24  19253605.799 6     48574.83109      -321.128          31.567  
R23  21993249.884 6    752204.00709     -3493.618          33.280  
R17  21083771.304 5   -820600.54709      3662.871          42.948  
R08  23147342.911 5    637441.89209     -2896.044          37.291  
C27         0.000 0         0.00000         0.000           0.000  
C28         0.000 0         0.00000         0.000           0.000  
C30         0.000 0         0.00000         0.000           0.000  
C32         0.000 0         0.00000         0.000           0.000  
C33         0.000 0         0.00000         0.000           0.000  
> 2023 09 07 19 33 58.0002878  0 20
G02  23430904.901 4   -744222.29609      3321.205          39.423  
G08  22518397.819 4     80706.22409      -437.706          41.313  
G10  21159013.205 4    100193.14109      -477.455          39.967  
G18  24729351.906 6         0.00000     -2978.042          29.888  
G21  22559091.656 3   -615451.68109      2733.016          44.642  
G23  23258373.150 5         0.00000     -1876.614          32.896  
G28  23654407.377 5   -857152.43209      3842.886          35.594  
G32  20556663.605 5   -163925.17909       805.467          35.363  
R02  20735480.820 5   -528004.64809      2337.480          38.603  
R01  19704376.439 6    189264.26409      -903.160          31.306  
R24  19253639.670 6         0.00000      -323.437          31.469  
R23  21993925.015 6    755698.20309     -3494.898          32.236  
R17  21083067.100 5   -824262.83809      3662.267          43.927  
R08  23147923.323 5    640337.61609     -2894.937          38.344  
C27         0.000 0         0.00000         0.000           0.000  
C28         0.000 0         0.00000         0.000           0.000  
C30         0.000 0         0.00000         0.000           0.000  
C32         0.000 0         0.00000         0.000           0.000  
C33         0.000 0         0.00000         0.000           0.000  
E13  25798730.792 5         0.00000     -1890.106          29.185           0.000 0         0.00000         0.000           0.000  
> 2023 09 07 19 33 59.0002878  0 19
G02  23430263.658 4   -747542.48309      3318.388          36.927  
G08  22518485.070 3     81145.11209      -439.685          42.605  
G10  21159099.252 4    100671.15009      -478.166          37.813  
G18  24729923.313 6         0.00000     -2980.114          28.265  
G21  22558565.812 4   -618184.10609      2731.380          38.685  
G23  23258729.902 5         0.00000     -1875.598          32.341  
G28  23653678.883 5   -860995.72109      3841.607          33.033  
G32  20556511.911 5   -164730.39909       804.977          35.741  
R02  20735044.024 5   -530341.15209      2336.022          38.221  
R01  19704532.322 6    190168.05209      -904.586          31.006  
R24  19253729.609 6     49219.21709      -322.959          31.564  
R23  21994574.966 7         0.00000     -3492.570          28.822  
R17  21082378.463 5   -827923.67909      3660.047          44.944  
R08  23148475.535 6         0.00000     -2894.504          35.218  
C27         0.000 0         0.00000         0.000           0.000  
C28         0.000 0         0.00000         0.000           0.000  
C30         0.000 0         0.00000         0.000           0.000  
C32         0.000 0         0.00000         0.000           0.000  
E13  25799079.151 5         0.00000     -1888.952          29.270           0.000 0         0.00000         0.000           0.000  
> 2023 09 07 19 34 00.0002878  0 20
G02  23429622.101 5         0.00000      3319.630          32.715  
G08  22518568.709 4     81583.17209      -436.129          40.163  
G10  21159199.085 5    101150.62309      -478.779          34.868  
G18  24730483.936 6    662381.22709     -2979.585          29.947  
G21  22558051.676 4   -620916.68709      2734.442          40.135  
G23  23259116.634 6         0.00000     -1877.414          29.121  
G28  23652974.069 6         0.00000      3843.451          30.211  
G32  20556358.715 4   -165535.22409       804.421          38.384  
R02  20734596.722 5   -532678.49609      2339.030          40.779  
R01  19704694.818 7         0.00000      -906.091          30.424  
R24  19253771.280 7     49542.74209      -323.454          30.666  
R23  21995259.399 6         0.00000     -3492.865          26.264  
R17  21081679.040 5   -831584.38809      3661.760          42.112  
R08  23149026.264 6    646128.74009     -2896.556          34.731  
C27         0.000 0         0.00000         0.000           0.000  
C28         0.000 0         0.00000         0.000           0.000  
C30         0.000 0         0.00000         0.000           0.000  
C32         0.000 0         0.00000         0.000           0.000  
C33         0.000 0         0.00000         0.000           0.000  
E13  25799433.512 5         0.00000     -1891.878          29.332           0.000 0         0.00000         0.000           0.000  
> 2023 09 07 19 34 01.0002878  0 20
G02  23428978.450 6         0.00000      3326.484          30.359  
G08  22518647.845 4     82019.00509      -436.151          41.606  
G10  21159271.032 6         0.00000      -482.435          30.266  
G18  24731059.532 6    665361.81209     -2980.624          29.101  
G21  22557523.737 4   -623651.60709      2734.833          40.852  
G23  23259444.611 6         0.00000     -1880.254          27.156  
G28  23652241.980 6         0.00000      3841.630          26.964  
G32  20556201.332 4   -166339.23209       803.468          40.550  
R02  20734162.927 5   -535017.62009      2338.936          42.705  
R01  19704846.216 6         0.00000      -908.204          31.199  
R24  19253855.826 6     49867.02109      -325.190          31.610  
R23  21995922.839 6         0.00000     -3493.780          22.254  
R17  21080978.728 5   -835246.76609      3662.013          39.839  
R08  23149570.083 6    649026.77709     -2897.898          33.024  
C27         0.000 0         0.00000         0.000           0.000  
C28         0.000 0         0.00000         0.000           0.000  
C30         0.000 0         0.00000         0.000           0.000  
C32         0.000 0         0.00000         0.000           0.000  
C33         0.000 0         0.00000         0.000           0.000  
E13  25799814.555 5         0.00000     -1894.956          29.419           0.000 0         0.00000         0.000           0.000  
> 2023 09 07 19 34 02.0002878  0 19
G02  23428364.760 5   -757511.75109      3325.017          31.616  
G08  22518735.096 4     82454.99309      -435.320          41.762  
G10  21159385.244 6         0.00000      -483.081          27.030  
G18  24731614.745 5    668343.01509     -2983.160          31.236  
G21  22557011.102 4   -626386.76409      2736.035          41.339  
G23  23259811.554 6         0.00000     -1881.002          28.277  
G28  23651480.801 6   -872515.64009      3839.804          28.033  
G32  20556058.624 4   -167142.78509       802.954          41.258  
R02  20733704.842 5   -537356.56109      2339.107          42.357  
R01  19705073.156 6    192881.90509      -904.482          31.067  
R24  19253917.582 6     50192.05009      -325.475          31.113  
R17  21080285.606 5   -838909.07109      3663.085          40.363  
R08  23150128.298 7         0.00000     -2895.638          30.223  
C27         0.000 0         0.00000         0.000           0.000  
C28         0.000 0         0.00000         0.000           0.000  
C30         0.000 0         0.00000         0.000           0.000  
C32         0.000 0         0.00000         0.000           0.000  
C33         0.000 0         0.00000         0.000           0.000  
E13  25800152.409 4         0.00000     -1893.321          32.543           0.000 0         0.00000         0.000           0.000  
> 2023 09 07 19 34 03.0002878  0 20
G02  23427745.696 5   -760839.72609      3330.425          31.777  
G08  22518818.142 4     82889.37009      -433.351          41.628  
G10  21159464.695 6         0.00000      -482.486          28.907  
G18  24732197.548 5         0.00000     -2988.016          31.252  
G21  22556483.460 4   -629125.34809      2740.602          41.521  
G23  23260163.211 6         0.00000     -1885.089          28.613  
G28  23650761.608 6   -876351.88109      3833.373          28.698  
G32  20555897.035 4   -167945.29609       801.745          40.614  
R02  20733248.571 5   -539696.45909      2340.244          41.035  
R01  19705215.253 6    193785.49009      -903.068          32.488  
R24  19253946.061 6     50518.59409      -327.493          33.142  
R23  21997252.109 6         0.00000     -3497.136          23.255  
R17  21079584.997 5   -842574.56509      3667.265          39.804  
R08  23150651.438 6    654822.01809     -2897.277          33.570  
C27         0.000 0         0.00000         0.000           0.000  
C28         0.000 0         0.00000         0.000           0.000  
C30         0.000 0         0.00000         0.000           0.000  
C32         0.000 0         0.00000         0.000           0.000  
C33         0.000 0         0.00000         0.000           0.000  
E13  25800521.760 4         0.00000     -1898.949          33.723           0.000 0         0.00000         0.000           0.000  
> 2023 09 07 19 34 04.0002878  0 19
G02  23427105.936 5   -764173.90009      3338.000          30.941  
G08  22518895.185 4     83321.70109      -431.594          40.453  
G10  21159560.933 5    103066.90809      -480.310          31.403  
G18  24732747.963 5    674321.98609     -2995.484          31.518  
G21  22555957.929 3   -631869.04409      2746.296          42.351  
G23  23260519.963 6         0.00000     -1884.154          28.056  
G28  23650038.506 6   -880181.24009      3824.950          30.094  
G32  20555750.139 4   -168746.45809       800.159          40.390  
R02  20732824.967 5   -542037.26009      2340.608          40.353  
R01  19705383.142 6    194686.78409      -900.144          36.045  
R24  19254041.409 6     50847.06209      -329.463          34.159  
R23  21997921.552 7    776679.99709     -3513.009          29.375  
R17  21078891.577 5   -846245.05109      3672.960          41.399  
R08  23151221.938 6         0.00000     -2896.843          32.234  
C27         0.000 0         0.00000         0.000           0.000  
C30         0.000 0         0.00000         0.000           0.000  
C32         0.000 0         0.00000         0.000           0.000  
C33         0.000 0         0.00000         0.000           0.000  
E13  25800887.796 4         0.00000     -1901.905          34.468           0.000 0         0.00000         0.000           0.000  
> 2023 09 07 19 34 05.0002878  0 19
G02  23426474.884 5         0.00000      3342.771          30.851  
G08  22518973.135 4     83753.52809      -431.948          37.375  
G10  21159665.564 6    103545.96309      -477.007          30.499  
G18  24733355.649 6         0.00000     -2984.781          26.798  
G21  22555441.682 4   -634616.80209      2749.528          39.560  
G23  23260893.799 5         0.00000     -1884.229          31.326  
G28  23649307.621 6         0.00000      3822.417          26.801  
G32  20555587.346 4   -169546.32709       799.477          40.810  
R02  20732365.974 5   -544377.54209      2339.440          40.423  
R01  19705566.613 6    195585.24609      -896.834          36.167  
R24  19254079.468 6     51177.67109      -331.882          34.344  
R23  21998608.671 6         0.00000     -3522.663          26.084  
R17  21078183.465 5   -849920.25509      3677.062          41.316  
R08  23151783.451 6         0.00000     -2890.380          32.836  
C27         0.000 0         0.00000         0.000           0.000  
C30         0.000 0         0.00000         0.000           0.000  
C32         0.000 0         0.00000         0.000           0.000  
C33         0.000 0         0.00000         0.000           0.000  
E13  25801246.049 4         0.00000     -1903.664          31.742           0.000 0         0.00000         0.000           0.000  
> 2023 09 07 19 34 06.0002878  0 20
G02  23425821.635 5   -770854.40209      3342.295          34.873  
G08  22519050.474 5     84187.64609      -436.019          34.683  
G10  21159735.400 4    104021.23509      -474.055          39.026  
G18  24733885.682 6         0.00000     -2987.339          25.468  
G21  22554915.837 4   -637367.47609      2750.629          41.843  
G23  23261243.065 5    429078.08809     -1881.432          36.027  
G28  23648570.122 6         0.00000      3813.045          27.966  
G32  20555444.341 4   -170344.96409       797.949          40.330  
R02  20731915.985 5   -546715.17609      2335.611          40.012  
R01  19705714.713 6    196480.58509      -894.622          35.224  
R24  19254154.120 6     51510.64609      -334.045          33.777  
R23  21999223.547 7         0.00000     -3524.759          28.068  
R17  21077496.642 5   -853598.65709      3678.921          42.068  
R08  23152311.372 6         0.00000     -2883.681          33.609  
C27         0.000 0         0.00000         0.000           0.000  
C28         0.000 0         0.00000         0.000           0.000  
C30         0.000 0         0.00000         0.000           0.000  
C32         0.000 0         0.00000         0.000           0.000  
C33         0.000 0         0.00000         0.000           0.000  
E13  25801607.600 4         0.00000     -1906.614          32.431           0.000 0         0.00000         0.000           0.000  
> 2023 09 07 19 34 07.0002878  0 20
G02  23425189.658 4   -774196.04309      3342.345          38.277  
G08  22519143.414 4     84624.47009      -437.034          39.080  
G10  21159824.745 4    104494.79009      -472.881          41.323  
G18  24734487.662 6         0.00000     -3000.537          28.102  
G21  22554390.009 3   -640117.69409      2750.884          42.771  
G23  23261616.011 5         0.00000     -1880.113          33.618  
G28  23647838.923 6         0.00000      3805.908          27.304  
G32  20555294.758 4   -171142.65009       797.958          38.393  
R02  20731484.284 5   -549049.92809      2334.861          40.022  
R01  19705882.584 6    197375.11909      -894.044          35.724  
R24  19254221.879 6     51845.48609      -334.625          35.086  
R23  21999919.968 6    787242.53909     -3523.470          32.459  
R17  21076783.137 5   -857277.25109      3679.363          40.257  
R08  23152866.900 6    666375.01309     -2880.613          35.511  
C27         0.000 0         0.00000         0.000           0.000  
C28         0.000 0         0.00000         0.000           0.000  
C30         0.000 0         0.00000         0.000           0.000  
C32         0.000 0         0.00000         0.000           0.000  
C33         0.000 0         0.00000         0.000           0.000  
E13  25801968.558 4         0.00000     -1910.963          34.200           0.000 0         0.00000         0.000           0.000  
> 2023 09 07 19 34 08.0002878  0 20
G02  23424564.295 4   -777540.39909      3345.856          38.470  
G08  22519227.943 4     85061.36309      -436.658          38.675  
G10  21159923.670 4    104967.66609      -473.537          39.843  
G18  24735047.674 6         0.00000     -3011.073          30.463  
G21  22553869.277 3   -642870.06409      2753.625          42.893  
G23  23261947.583 6         0.00000     -1876.347          30.462  
G28  23647127.827 6         0.00000      3802.246          23.177  
G32  20555136.467 4   -171939.19909       795.449          39.247  
R02  20731041.188 5   -551384.27809      2334.130          40.459  
R01  19706048.990 6    198268.61109      -893.719          35.533  
R24  19254283.636 6     52182.00009      -337.947          33.492  
R23  22000599.898 6    790770.11209     -3531.207          32.335  
R17  21076089.421 5   -860957.83709      3681.722          41.025  
R08  23153408.014 6    669255.00609     -2880.307          34.306  
C27         0.000 0         0.00000         0.000           0.000  
C28         0.000 0         0.00000         0.000           0.000  
C30         0.000 0         0.00000         0.000           0.000  
C32         0.000 0         0.00000         0.000           0.000  
C33         0.000 0         0.00000         0.000           0.000  
E13  25802334.908 4         0.00000     -1917.627          34.153           0.000 0         0.00000         0.000           0.000  
> 2023 09 07 19 34 09.0002878  0 20
G02  23423920.347 4   -780890.04009      3351.780          37.789  
G08  22519305.003 4     85494.64709      -431.341          36.736  
G10  21160008.217 4    105442.59409      -476.080          40.605  
G18  24735636.166 6         0.00000     -3012.727          26.909  
G21  22553345.230 3   -645626.93109      2759.122          42.643  
G23  23262316.917 5    434724.18909     -1888.966          33.380  
G28  23646378.637 6         0.00000      3802.131          25.499  
G32  20554987.163 4   -172734.05309       794.329          41.480  
R02  20730590.309 5   -553721.05009      2338.105          40.761  
R01  19706238.150 6    199161.44909      -892.411          34.853  
R24  19254353.175 6     52520.30609      -338.738          32.510  
R23  22001263.041 6         0.00000     -3534.438          31.500  
R17  21075387.312 5   -864642.54409      3686.983          39.412  
R08  23153967.136 5    672136.64609     -2883.179          37.482  
C27         0.000 0         0.00000         0.000           0.000  
C28         0.000 0         0.00000         0.000           0.000  
C30         0.000 0         0.00000         0.000           0.000  
C32         0.000 0         0.00000         0.000           0.000  
C33         0.000 0         0.00000         0.000           0.000  
E13  25802699.146 4         0.00000     -1924.220          33.355           0.000 0         0.00000         0.000           0.000  
> 2023 09 07 19 34 10.0002878  0 20
G02  23423277.882 5   -784243.10909      3353.574          35.897  
G08  22519379.952 5         0.00000      -427.409          32.467  
G10  21160097.265 4    105919.53109      -477.641          37.852  
G18  24736187.488 6         0.00000     -3017.678          27.575  
G21  22552820.903 3   -648386.96309      2760.588          42.761  
G23  23262680.265 5    436614.33609     -1891.642          34.916  
G28  23645672.636 6         0.00000      3802.756          24.862  
G32  20554834.264 4   -173528.07209       793.986          41.192  
R02  20730145.119 5   -556060.60509      2340.575          39.835  
R01  19706396.144 6    200054.42409      -893.259          33.035  
R24  19254409.853 6     52859.35009      -338.844          32.127  
R23  22001948.364 6         0.00000     -3539.327          27.165  
R17  21074691.188 5   -868329.65009      3687.581          40.199  
R08  23154499.874 6         0.00000     -2889.778          36.577  
C27         0.000 0         0.00000         0.000           0.000  
C28         0.000 0         0.00000         0.000           0.000  
C30         0.000 0         0.00000         0.000           0.000  
C32         0.000 0         0.00000         0.000           0.000  
C33         0.000 0         0.00000         0.000           0.000  
E13  25803077.781 5         0.00000     -1926.507          30.747           0.000 0         0.00000         0.000           0.000  
> 2023 09 07 19 34 11.0002878  0 20
G02  23422645.329 5   -787597.62509      3354.754          35.636  
G08  22519475.876 5     86353.09409      -428.542          31.332  
G10  21160192.596 4    106397.77209      -478.850          38.120  
G18  24736762.786 6         0.00000     -3021.716          26.641  
G21  22552297.449 4   -651148.11509      2761.105          41.789  
G23  23263035.831 5    438507.14809     -1893.409          34.533  
G28  23644964.524 6         0.00000      3801.602          27.249  
G32  20554686.478 4   -174321.59209       793.015          41.515  
R02  20729701.413 5   -558401.44909      2340.569          39.502  
R01  19706577.522 6    200947.91309      -893.919          34.815  
R24  19254444.021 6     53199.12609      -340.434          33.874  
R23  22002580.620 6         0.00000     -3534.078          23.818  
R17  21073992.080 5   -872017.15209      3687.429          42.333  
R08  23155063.778 5    677907.29209     -2886.433          37.717  
C27         0.000 0         0.00000         0.000           0.000  
C28         0.000 0         0.00000         0.000           0.000  
C30         0.000 0         0.00000         0.000           0.000  
C32         0.000 0         0.00000         0.000           0.000  
C33         0.000 0         0.00000         0.000           0.000  
E13  25803433.347 5         0.00000     -1928.222          30.508           0.000 0         0.00000         0.000           0.000  
> 2023 09 07 19 34 12.0002878  0 20
G02  23422009.164 5   -790952.34309      3353.937          33.816  
G08  22519551.732 5     86781.34609      -428.373          33.478  
G10  21160275.938 5    106876.69509      -478.861          35.815  
G18  24737345.275 6         0.00000     -3023.587          22.468  
G21  22551765.933 4   -653909.58309      2761.742          39.239  
G23  23263398.568 5    440400.96609     -1894.004          34.969  
G28  23644227.932 6         0.00000      3799.562          25.191  
G32  20554534.487 4   -175114.63509       792.838          41.239  
R02  20729261.929 5   -560742.69709      2341.101          40.180  
R01  19706735.499 6    201841.92509      -894.243          35.569  
R24  19254535.163 6     53539.55309      -340.863          34.167  
R23  22003241.373 6         0.00000     -3534.869          21.574  
R17  21073280.355 5   -875704.38809      3686.915          41.949  
R08  23155617.194 6         0.00000     -2885.790          35.623  
C27         0.000 0         0.00000         0.000           0.000  
C28         0.000 0         0.00000         0.000           0.000  
C30         0.000 0         0.00000         0.000           0.000  
C32         0.000 0         0.00000         0.000           0.000  
C33         0.000 0         0.00000         0.000           0.000  
E13  25803809.887 5         0.00000     -1930.920          30.233           0.000 0         0.00000         0.000           0.000  
> 2023 09 07 19 34 13.0002878  0 19
G02  23421370.312 5         0.00000      3355.645          32.531  
G08  22519636.260 5     87209.74509      -428.366          35.054  
G10  21160368.878 5    107356.36609      -479.554          32.665  
G21  22551244.294 4   -656670.80509      2761.327          39.021  
G23  23263761.620 5    442295.76609     -1895.393          34.714  
G28  23643503.033 6         0.00000      3797.323          25.630  
G32  20554387.277 4   -175907.07009       792.380          41.693  
R02  20728816.128 5   -563083.85609      2341.171          40.334  
R01  19706916.283 6    202736.52909      -894.765          35.533  
R24  19254601.107 6     53880.69809      -341.302          34.717  
R23  22003926.084 6         0.00000     -3536.456          22.079  
R17  21072589.344 5   -879391.19209      3686.869          42.267  
R08  23156162.217 6    683682.28309     -2887.915          34.368  
C27         0.000 0         0.00000         0.000           0.000  
C28         0.000 0         0.00000         0.000           0.000  
C30         0.000 0         0.00000         0.000           0.000  
C32         0.000 0         0.00000         0.000           0.000  
C33         0.000 0         0.00000         0.000           0.000  
E13  25804177.424 5         0.00000     -1931.225          28.179           0.000 0         0.00000         0.000           0.000  
> 2023 09 07 19 34 14.0002878  0 21
G02  23420730.552 5         0.00000      3355.154          31.855  
G08  22519721.714 5     87638.57509      -429.005          36.090  
G10  21160477.401 6         0.00000      -479.507          30.279  
G18  24738497.984 7         0.00000     -3024.235          20.788  
G21  22550713.650 4   -659431.70609      2760.567          39.132  
G23  23264126.173 5    444190.89209     -1895.310          34.644  
G27  22758847.266 5         0.00000     -2343.671          32.454  
G28  23642803.611 6         0.00000      3794.868          24.217  
G32  20554233.785 3   -176698.95309       791.837          42.300  
R02  20728361.341 5   -565424.71609      2340.956          40.646  
R01  19707078.169 6    203631.73709      -895.454          35.851  
R24  19254670.664 6     54222.84209      -342.041          34.552  
R23  22004611.721 6         0.00000     -3537.240          23.162  
R17  21071874.042 5   -883077.23109      3685.686          42.329  
R08  23156698.252 6    686570.44509     -2887.915          34.342  
C27         0.000 0         0.00000         0.000           0.000  
C28         0.000 0         0.00000         0.000           0.000  
C30         0.000 0         0.00000         0.000           0.000  
C32         0.000 0         0.00000         0.000           0.000  
C33         0.000 0         0.00000         0.000           0.000  
E13  25804532.990 6         0.00000     -1925.483          27.068           0.000 0         0.00000         0.000           0.000  
> 2023 09 07 19 34 15.0002878  0 20
G02  23420091.699 5         0.00000      3350.790          32.532  
G08  22519796.052 5     88069.28809      -431.960          35.835  
G10  21160568.229 6         0.00000      -477.272          29.362  
G18  24739077.488 6         0.00000     -3022.993          21.104  
G21  22550193.511 4   -662189.89209      2755.912          39.731  
G23  23264488.317 5    446085.19309     -1894.469          33.073  
G27  22759284.969 5         0.00000     -2344.409          31.887  
G28  23642072.115 6         0.00000      3797.926          22.111  
G32  20554077.588 3   -177490.72709       791.640          42.415  
R02  20727926.045 5   -567764.43409      2338.795          40.164  
R01  19707264.048 6    204528.53909      -897.833          35.742  
R24  19254735.125 6     54565.26109      -342.489          34.229  
R23  22005300.935 6         0.00000     -3537.463          22.487  
R17  21071184.811 5   -886760.21809      3680.619          42.006  
R08  23157246.259 6         0.00000     -2889.119          33.654  
C27         0.000 0         0.00000         0.000           0.000  
C28         0.000 0         0.00000         0.000           0.000  
C30         0.000 0         0.00000         0.000           0.000  
C32         0.000 0         0.00000         0.000           0.000  
C33         0.000 0         0.00000         0.000           0.000  
> 2023 09 07 19 34 16.0002878  0 21
G02  23419456.127 5   -804359.81909      3344.208          34.216  
G08  22519878.504 5     88503.64409      -436.218          34.205  
G10  21160638.676 5    108797.72909      -480.239          33.679  
G18  24739639.594 6         0.00000     -3018.838          23.024  
G21  22549663.478 4   -664943.50409      2751.666          40.562  
G23  23264849.868 5    447976.75109     -1888.909          34.482  
G27  22759739.146 5     90936.36809     -2343.301          33.944  
G28  23641323.832 6         0.00000      3802.517          24.303  
G32  20553929.191 3   -178282.39309       791.449          42.864  
R02  20727471.868 5   -570101.44309      2335.141          40.100  
R01  19707433.420 6    205427.38909      -899.370          35.933  
R24  19254791.175 6     54908.12509      -343.103          34.883  
R23  22005971.285 6         0.00000     -3537.970          22.629  
R17  21070481.497 5   -890438.46009      3676.006          41.851  
R08  23157815.869 6    692348.31709     -2887.820          35.487  
C27         0.000 0         0.00000         0.000           0.000  
C28         0.000 0         0.00000         0.000           0.000  
C30         0.000 0         0.00000         0.000           0.000  
C32         0.000 0         0.00000         0.000           0.000  
C33         0.000 0         0.00000         0.000           0.000  
E13  25805269.877 5         0.00000     -1922.890          30.070           0.000 0         0.00000         0.000           0.000  
> 2023 09 07 19 34 17.0002878  0 21
G02  23418822.667 5         0.00000      3338.171          33.926  
G08  22519975.039 5         0.00000      -443.351          32.194  
G10  21160736.118 4    109276.64609      -477.471          36.543  
G18  24740211.892 5         0.00000     -3011.191          30.945  
G21  22549141.542 4   -667692.41909      2745.653          41.917  
G23  23265206.027 5    449863.56309     -1882.598          35.540  
G27  22760181.649 5         0.00000     -2343.211          33.053  
G28  23640570.454 6         0.00000      3804.878          25.175  
G32  20553780.794 4   -179073.69309       790.480          41.440  
R02  20727032.664 5   -572433.99409      2328.574          40.249  
R01  19707588.710 6    206327.40209      -900.517          34.760  
R24  19254876.926 6     55252.33009      -345.271          33.516  
R23  22006638.913 6         0.00000     -3533.781          25.484  
R17  21069779.685 5   -894112.18209      3670.956          41.537  
R08  23158355.500 6         0.00000     -2887.021          35.012  
C27         0.000 0         0.00000         0.000           0.000  
C28         0.000 0         0.00000         0.000           0.000  
C30         0.000 0         0.00000         0.000           0.000  
C32         0.000 0         0.00000         0.000           0.000  
C33         0.000 0         0.00000         0.000           0.000  
E13  25805641.916 5         0.00000     -1917.355          31.116           0.000 0         0.00000         0.000           0.000  
> 2023 09 07 19 34 18.0002878  0 21
G02  23418187.706 5   -811037.24809      3332.045          35.095  
G08  22520054.472 5     89391.00809      -449.395          35.954  
G10  21160829.947 4    109752.70309      -475.992          39.162  
G18  24740786.894 6         0.00000     -2999.163          30.360  
G21  22548626.203 4   -670435.86509      2741.864          41.186  
G23  23265552.274 5         0.00000     -1876.033          31.745  
G27  22760639.124 6         0.00000     -2346.596          29.999  
G28  23639883.038 6         0.00000      3815.000          29.244  
G32  20553636.900 4   -179864.46109       790.344          38.377  
R02  20726599.462 5   -574760.34509      2324.750          40.097  
R01  19707776.387 6    207228.25909      -901.567          35.286  
R24  19254911.093 6     55597.77209      -346.309          32.702  
R23  22007303.556 7         0.00000     -3529.650          30.009  
R17  21069088.970 5   -897781.34109      3667.329          41.103  
R08  23158906.822 6         0.00000     -2879.981          34.177  
C27         0.000 0         0.00000         0.000           0.000  
C28         0.000 0         0.00000         0.000           0.000  
C30         0.000 0         0.00000         0.000           0.000  
C32         0.000 0         0.00000         0.000           0.000  
C33         0.000 0         0.00000         0.000           0.000  
E13  25806003.764 5         0.00000     -1912.164          31.161           0.000 0         0.00000         0.000           0.000  
> 2023 09 07 19 34 19.0002878  0 20
G02  23417543.758 5         0.00000      3329.659          32.774  
G08  22520133.627 4     89838.94509      -447.382          40.126  
G10  21160915.994 4    110229.84509      -478.772          40.333  
G18  24741355.911 6         0.00000     -2999.184          29.426  
G21  22548108.158 4   -673177.54509      2740.518          40.761  
G23  23265904.245 6         0.00000     -1880.184          29.464  
G27  22761067.527 6         0.00000     -2348.186          30.632  
G28  23639145.242 5   -937264.20109      3819.158          33.624  
G32  20553471.123 4   -180654.96209       790.350          37.292  
R02  20726137.188 5   -577086.45009      2326.662          41.855  
R01  19707933.177 5    208130.55709      -903.907          36.997  
R24  19255002.829 6         0.00000      -346.927          31.000  
R23  22007983.783 7         0.00000     -3524.483          29.893  
R17  21068383.266 5   -901448.20209      3665.188          45.049  
R08  23159451.548 5    700998.59809     -2885.619          38.662  
C27         0.000 0         0.00000         0.000           0.000  
C28         0.000 0         0.00000         0.000           0.000  
C30         0.000 0         0.00000         0.000           0.000  
C32         0.000 0         0.00000         0.000           0.000  
C33         0.000 0         0.00000         0.000           0.000  
> 2023 09 07 19 34 20.0002878  0 21
G02  23416913.893 5   -817701.48809      3328.361          34.862  
G08  22520226.863 4     90286.23609      -447.280          38.792  
G10  21161012.826 4    110710.01709      -482.034          40.350  
G18  24741930.005 5    722469.71609     -2996.753          31.612  
G21  22547580.516 4   -675916.74909      2737.556          41.750  
G23  23266262.795 6         0.00000     -1886.889          28.853  
G27  22761523.221 6         0.00000     -2343.927          29.266  
G28  23638433.832 5   -941086.12009      3824.133          32.336  
G32  20553330.806 4   -181445.57209       790.354          37.918  
R02  20725706.395 5   -579414.10509      2328.123          41.210  
R01  19708112.757 5    209035.88909      -907.242          37.490  
R24  19255079.575 6         0.00000      -342.751          30.911  
R23  22008628.045 6         0.00000     -3508.286          26.983  
R17  21067690.736 5   -905111.41309      3660.979          44.440  
R08  23160003.463 5    703886.21909     -2889.675          39.596  
C27         0.000 0         0.00000         0.000           0.000  
C28         0.000 0         0.00000         0.000           0.000  
C30         0.000 0         0.00000         0.000           0.000  
C32         0.000 0         0.00000         0.000           0.000  
C33         0.000 0         0.00000         0.000           0.000  
E13  25806728.367 5         0.00000     -1909.657          29.256           0.000 0         0.00000         0.000           0.000  
> 2023 09 07 19 34 21.0002878  0 20
G02  23416279.839 4   -821028.57709      3325.251          40.470  
G08  22520310.799 4     90733.51009      -447.884          37.391  
G10  21161105.155 4    111193.02009      -484.402          40.814  
G18  24742511.604 6         0.00000     -2991.529          28.633  
G21  22547062.785 3   -678652.37009      2733.864          43.525  
G23  23266641.430 6         0.00000     -1887.307          26.865  
G27  22761973.507 5    102665.30709     -2339.728          32.857  
G28  23637708.042 6         0.00000      3833.497          29.404  
G32  20553183.910 4   -182236.25109       790.493          38.941  
R02  20725255.795 5   -581742.47709      2328.441          40.535  
R01  19708289.929 5    209944.63309      -910.245          37.414  
R24  19255081.686 7         0.00000      -342.869          29.006  
R23  22009313.071 7         0.00000     -3510.442          29.855  
R17  21066986.830 5   -908770.02409      3656.476          41.980  
C27         0.000 0         0.00000         0.000           0.000  
C28         0.000 0         0.00000         0.000           0.000  
C30         0.000 0         0.00000         0.000           0.000  
C32         0.000 0         0.00000         0.000           0.000  
C33         0.000 0         0.00000         0.000           0.000  
E13  25807084.508 4         0.00000     -1905.202          33.966           0.000 0         0.00000         0.000           0.000  
> 2023 09 07 19 34 22.0002878  0 21
G02  23415652.067 4   -824352.07709      3321.897          42.019  
G08  22520390.249 4     91182.16709      -448.978          38.741  
G10  21161198.688 4    111677.99709      -485.790          41.027  
G18  24743077.916 6         0.00000     -2987.058          28.554  
G21  22546540.849 3   -681384.71009      2730.950          43.375  
G23  23266996.385 6         0.00000     -1881.777          27.803  
G27  22762416.603 5    105004.17709     -2337.506          34.132  
G28  23636984.050 6         0.00000      3834.692          29.947  
G32  20553037.921 5   -183026.41309       790.084          35.894  
R02  20724810.605 5   -584070.26209      2327.525          40.280  
R01  19708440.420 6    210856.24709      -912.519          34.399  
R24  19255165.325 6         0.00000      -347.243          26.373  
R23  22010004.082 6         0.00000     -3510.758          30.832  
R17  21066296.708 5   -912424.74909      3653.433          37.813  
R08  23161138.181 7         0.00000     -2898.646          30.605  
C27         0.000 0         0.00000         0.000           0.000  
C28         0.000 0         0.00000         0.000           0.000  
C30         0.000 0         0.00000         0.000           0.000  
C32         0.000 0         0.00000         0.000           0.000  
C33         0.000 0         0.00000         0.000           0.000  
E13  25807454.453 4         0.00000     -1902.972          33.482           0.000 0         0.00000         0.000           0.000  
> 2023 09 07 19 34 23.0002878  0 21
G02  23415014.716 3   -827672.23009      3319.268          42.944  
G08  22520480.781 4     91631.77509      -449.875          38.313  
G10  21161282.641 4    112164.12309      -486.568          38.675  
G18  24743648.712 5    731443.19609     -2986.261          30.766  
G21  22546022.508 3   -684114.05309      2728.427          43.086  
G23  23267362.124 6         0.00000     -1881.448          27.362  
G27  22762864.183 5    107340.79809     -2336.316          34.858  
G28  23636260.652 6         0.00000      3835.202          30.266  
G32  20552882.928 5   -183817.06209       790.763          35.914  
R02  20724367.213 5   -586397.94109      2326.996          41.571  
R01  19708640.975 6         0.00000      -915.884          31.214  
R24  19255234.568 6         0.00000      -348.007          25.721  
R23  22010634.541 6         0.00000     -3509.274          27.338  
R17  21065588.893 5   -916075.81909      3650.277          38.266  
R08  23161665.806 7         0.00000     -2897.423          29.310  
C27         0.000 0         0.00000         0.000           0.000  
C28         0.000 0         0.00000         0.000           0.000  
C30         0.000 0         0.00000         0.000           0.000  
C32         0.000 0         0.00000         0.000           0.000  
C33         0.000 0         0.00000         0.000           0.000  
E13  25807812.112 4         0.00000     -1899.139          33.691           0.000 0         0.00000         0.000           0.000  
> 2023 09 07 19 34 24.0002878  0 21
G02  23414388.148 3   -830991.16709      3318.206          43.557  
G08  22520560.232 4     92082.30109      -450.987          37.981  
G10  21161380.676 4    112650.79809      -487.099          38.229  
G18  24744183.247 5    734429.91009     -2985.499          31.477  
G21  22545502.055 3   -686842.26609      2727.480          43.160  
G23  23267710.779 5    463049.79309     -1885.771          33.163  
G27  22763294.087 5    109677.15909     -2336.278          34.061  
G28  23635513.555 6         0.00000      3838.453          30.107  
G32  20552727.028 5   -184607.14509       789.747          36.428  
R02  20723925.321 5   -588725.14609      2326.844          41.214  
R01  19708806.473 6    212685.09609      -915.534          32.001  
R24  19255305.922 6         0.00000      -347.388          27.303  
R23  22011417.009 6         0.00000     -3505.572          26.338  
R17  21064920.654 5   -919725.29009      3648.623          38.588  
R08  23162204.529 7         0.00000     -2896.549          28.656  
C27         0.000 0         0.00000         0.000           0.000  
C28         0.000 0         0.00000         0.000           0.000  
C30         0.000 0         0.00000         0.000           0.000  
C32         0.000 0         0.00000         0.000           0.000  
C33         0.000 0         0.00000         0.000           0.000  
E13  25808174.553 4         0.00000     -1898.769          32.586           0.000 0         0.00000         0.000           0.000  
> 2023 09 07 19 34 25.0002878  0 21
G02  23413751.686 3   -834309.50109      3318.393          42.969  
G08  22520642.964 5     92533.33909      -451.616          36.472  
G10  21161472.709 4    113137.74609      -487.096          37.453  
G18  24744800.810 5    737416.02309     -2986.038          32.927  
G21  22544987.012 3   -689569.85009      2727.530          43.300  
G23  23268061.546 5    464935.28009     -1885.621          34.035  
G27  22763765.958 5    112013.38509     -2336.561          33.815  
G28  23634799.754 5   -960256.83909      3836.385          31.847  
G32  20552582.837 5   -185396.94909       789.213          36.478  
R02  20723486.727 5   -591051.97209      2326.752          41.520  
R01  19708982.145 7    213600.44609      -915.527          30.465  
R24  19255360.192 6         0.00000      -345.936          27.998  
R23  22012106.537 6         0.00000     -3504.995          23.160  
R17  21064232.033 5   -923373.89309      3648.299          38.840  
R08  23162715.681 7         0.00000     -2899.629          28.143  
C27         0.000 0         0.00000         0.000           0.000  
C28         0.000 0         0.00000         0.000           0.000  
C30         0.000 0         0.00000         0.000           0.000  
C32         0.000 0         0.00000         0.000           0.000  
C33         0.000 0         0.00000         0.000           0.000  
E13  25808531.916 4         0.00000     -1899.053          32.672           0.000 0         0.00000         0.000           0.000  
> 2023 09 07 19 34 26.0002878  0 21
G02  23413124.211 3   -837628.51709      3320.444          42.387  
G08  22520728.417 5     92984.85809      -451.306          36.041  
G10  21161568.039 4    113624.58509      -486.182          38.271  
G18  24745341.348 5    740403.17009     -2989.092          33.047  
G21  22544464.483 3   -692297.89209      2729.243          43.132  
G23  23268423.690 5    466821.07809     -1886.696          34.113  
G27  22764203.366 5    114350.37409     -2337.875          33.370  
G28  23634046.673 5         0.00000      3836.421          30.698  
G32  20552427.233 5   -186186.10709       788.513          35.771  
R02  20723046.929 5   -593378.35009      2326.016          41.538  
R01  19709144.030 7         0.00000      -916.978          29.747  
R24  19255446.536 7         0.00000      -347.738          28.354  
R23  22012686.338 6         0.00000     -3507.354          25.948  
R17  21063525.422 5   -927022.80809      3650.076          39.020  
R08  23163314.066 6    721281.96709     -2896.894          32.347  
C27         0.000 0         0.00000         0.000           0.000  
C28         0.000 0         0.00000         0.000           0.000  
C30         0.000 0         0.00000         0.000           0.000  
C32         0.000 0         0.00000         0.000           0.000  
C33         0.000 0         0.00000         0.000           0.000  
E13  25808897.952 4         0.00000     -1899.289          32.353           0.000 0         0.00000         0.000           0.000  
> 2023 09 07 19 34 27.0002878  0 21
G02  23412490.158 4   -840950.59409      3323.622          41.816  
G08  22520817.448 5     93435.89609      -451.056          35.951  
G10  21161654.976 4    114110.67109      -486.167          37.937  
G18  24745916.351 5         0.00000     -2991.136          31.898  
G21  22543945.845 3   -695028.56109      2731.868          42.704  
G23  23268777.755 5         0.00000     -1885.106          32.361  
G27  22764635.660 5         0.00000     -2336.932          32.266  
G28  23633329.870 6         0.00000      3827.194          30.234  
G32  20552283.042 5   -186974.37709       787.856          35.588  
R02  20722600.535 5   -595704.59409      2326.182          41.616  
R01  19709281.643 7         0.00000      -914.480          29.764  
R24  19255543.960 6         0.00000      -350.006          25.280  
R23  22013372.254 6         0.00000     -3511.810          26.152  
R17  21062823.312 5   -930674.31309      3652.631          38.806  
R08  23163854.901 6    724177.53409     -2894.568          32.594  
C27         0.000 0         0.00000         0.000           0.000  
C28         0.000 0         0.00000         0.000           0.000  
C30         0.000 0         0.00000         0.000           0.000  
C32         0.000 0         0.00000         0.000           0.000  
C33         0.000 0         0.00000         0.000           0.000  
E13  25809264.005 5         0.00000     -1900.878          30.693           0.000 0         0.00000         0.000           0.000  
> 2023 09 07 19 34 28.0002878  0 22
G02  23411860.885 4   -844275.06709      3325.882          42.008  
G08  22520901.087 5     93886.78909      -449.120          35.468  
G10  21161737.725 4    114596.43809      -484.250          36.856  
G18  24746491.946 6         0.00000     -2995.334          28.814  
G21  22543420.611 4   -697761.26009      2734.404          39.722  
G23  23269137.491 5         0.00000     -1888.418          31.004  
G27  22765063.766 6         0.00000     -2343.230          29.860  
G28  23632592.092 6         0.00000      3827.431          29.726  
G32  20552133.145 5   -187761.37509       788.886          35.379  
R02  20722151.751 5   -598030.42309      2327.279          40.424  
R01  19709496.594 7         0.00000      -910.208          29.209  
R24  19255600.324 6         0.00000      -351.088          25.737  
R23  22014035.990 6         0.00000     -3516.820          26.780  
R17  21062127.188 5   -934327.81709      3654.824          37.634  
R08  23164387.324 6         0.00000     -2891.352          32.500  
C27         0.000 0         0.00000         0.000           0.000  
C28         0.000 0         0.00000         0.000           0.000  
C30         0.000 0         0.00000         0.000           0.000  
C32         0.000 0         0.00000         0.000           0.000  
C33         0.000 0         0.00000         0.000           0.000  
E07  23505967.850 3     70219.78209      -330.307          37.968           0.000 0         0.00000         0.000           0.000  
E13  25809622.258 4         0.00000     -1904.893          31.785           0.000 0         0.00000         0.000           0.000  
> 2023 09 07 19 34 29.0002878  0 22
G02  23411229.536 4   -847599.93109      3324.163          37.771  
G08  22521000.327 5     94337.31309      -451.334          34.253  
G10  21161839.355 4    115082.21309      -486.621          37.243  
G18  24747025.870 6         0.00000     -2994.760          25.653  
G21  22542908.255 4   -700494.33809      2732.251          41.063  
G23  23269496.355 6         0.00000     -1889.466          28.128  
G27  22765520.054 6         0.00000     -2339.564          27.116  
G28  23631862.691 5         0.00000      3830.471          32.637  
G32  20551971.259 4   -188548.62409       786.657          39.968  
R02  20721722.144 5   -600356.98309      2326.496          40.246  
R01  19709680.066 6    217255.79309      -914.291          32.989  
R24  19255667.770 7         0.00000      -351.624          29.929  
R23  22014668.857 7    864753.85309     -3515.598          30.511  
R17  21061430.471 5   -937981.37409      3653.146          39.699  
R08  23164970.109 6         0.00000     -2894.549          34.871  
C27         0.000 0         0.00000         0.000           0.000  
C28         0.000 0         0.00000         0.000           0.000  
C30         0.000 0         0.00000         0.000           0.000  
C32         0.000 0         0.00000         0.000           0.000  
C33         0.000 0         0.00000         0.000           0.000  
E07  23506024.808 4         0.00000      -331.028          35.866           0.000 0         0.00000         0.000           0.000  
E13  25809990.406 4         0.00000     -1906.262          33.805           0.000 0         0.00000         0.000           0.000  
> 2023 09 07 19 34 30.0002878  0 21
G02  23410603.859 5         0.00000      3322.272          33.108  
G08  22521097.158 6         0.00000      -453.112          29.895  
G10  21161935.279 4    115568.33509      -486.975          40.671  
G18  24747617.974 6         0.00000     -2993.785          28.601  
G21  22542386.022 4   -703227.10509      2732.143          40.861  
G27  22765975.732 5         0.00000     -2336.633          34.303  
G28  23631136.290 5   -979412.44409      3829.735          33.835  
G32  20551821.955 5         0.00000       787.706          36.372  
R02  20721268.263 5   -602683.31809      2326.226          39.581  
R01  19709848.548 5    218169.18209      -914.381          39.407  
R24  19255718.131 6     59766.67809      -351.570          32.353  
R23  22015320.605 6         0.00000     -3514.423          31.288  
R17  21060748.132 5   -941634.28009      3651.935          41.247  
R08  23165501.957 6         0.00000     -2897.867          35.528  
C27         0.000 0         0.00000         0.000           0.000  
C28         0.000 0         0.00000         0.000           0.000  
C30         0.000 0         0.00000         0.000           0.000  
C32         0.000 0         0.00000         0.000           0.000  
C33         0.000 0         0.00000         0.000           0.000  
E07  23506087.158 4     70883.03209      -332.594          37.067           0.000 0         0.00000         0.000           0.000  
E13  25810350.456 4         0.00000     -1906.318          32.804           0.000 0         0.00000         0.000           0.000  
> 2023 09 07 19 34 31.0002878  0 22
G02  23409950.610 5   -854249.18909      3326.326          32.373  
G08  22521160.118 5     95238.19709      -448.682          31.868  
G10  21162024.031 4    116055.37109      -487.707          38.238  
G18  24748205.557 6         0.00000     -2991.861          29.890  
G21  22541870.979 4   -705960.47309      2734.198          37.276  
G23  23270220.941 5    476263.17209     -1891.030          32.650  
G27  22766421.515 5         0.00000     -2340.241          34.935  
G28  23630401.793 5         0.00000      3830.696          30.907  
G32  20551695.441 5         0.00000       788.952          31.275  
R02  20720837.452 5   -605010.49409      2328.240          38.660  
R01  19710029.925 5    219083.15609      -914.684          39.334  
R24  19255774.809 6     60118.36909      -352.008          34.027  
R23  22016038.612 7         0.00000     -3515.881          29.820  
R17  21060054.416 5   -945287.10409      3653.213          41.282  
R08  23166070.066 6         0.00000     -2897.011          35.322  
C27         0.000 0         0.00000         0.000           0.000  
C28         0.000 0         0.00000         0.000           0.000  
C30         0.000 0         0.00000         0.000           0.000  
C32         0.000 0         0.00000         0.000           0.000  
C33         0.000 0         0.00000         0.000           0.000  
E07  23506150.118 4     71215.58709      -333.226          36.213           0.000 0         0.00000         0.000           0.000  
E13  25810711.100 5         0.00000     -1911.953          30.310           0.000 0         0.00000         0.000           0.000  
> 2023 09 07 19 34 32.0002878  0 22
G02  23409348.630 6         0.00000      3320.001          28.378  
G08  22521250.353 5     95686.88109      -448.405          35.666  
G10  21162125.661 5    116544.09209      -489.008          36.315  
G18  24748768.275 6         0.00000     -2994.461          27.338  
G21  22541339.445 5   -708693.98409      2732.902          35.439  
G23  23270573.505 6         0.00000     -1890.583          29.510  
G27  22766868.206 5    128382.31309     -2337.078          36.502  
G28  23629677.208 5         0.00000      3829.088          30.787  
G32  20551516.175 6         0.00000       790.469          28.505  
R02  20720383.276 5   -607338.93709      2328.730          39.004  
R01  19710192.404 5    219998.26309      -916.152          37.039  
R24  19255852.149 6     60470.53709      -352.088          32.687  
R23  22016644.780 6         0.00000     -3516.799          26.570  
R17  21059346.007 5   -948939.39909      3650.876          39.812  
R08  23166599.192 6    738657.12309     -2899.590          34.792  
C27         0.000 0         0.00000         0.000           0.000  
C28         0.000 0         0.00000         0.000           0.000  
C30         0.000 0         0.00000         0.000           0.000  
C32         0.000 0         0.00000         0.000           0.000  
C33         0.000 0         0.00000         0.000           0.000  
E07  23506214.282 3         0.00000      -334.374          37.383           0.000 0         0.00000         0.000           0.000  
E13  25811069.353 5         0.00000     -1913.448          28.494           0.000 0         0.00000         0.000           0.000  
> 2023 09 07 19 34 33.0002878  0 22
G02  23408696.585 6         0.00000      3319.793          28.165  
G08  22521332.788 4     96136.35809      -450.903          39.605  
G10  21162211.097 5         0.00000      -487.042          32.563  
G18  24749341.776 6         0.00000     -2996.246          26.773  
G21  22540830.998 5   -711425.37209      2729.808          36.466  
G23  23270950.045 5         0.00000     -1894.935          32.133  
G27  22767305.613 4    130718.38909     -2336.769          37.503  
G28  23628950.808 5         0.00000      3829.788          31.501  
G32  20551372.577 6         0.00000       786.220          27.387  
R02  20719949.777 5   -609667.11709      2327.223          38.559  
R01  19710399.259 6    220915.73209      -917.903          35.931  
R24  19255907.309 6     60823.52509      -352.725          30.877  
R23  22017359.192 7         0.00000     -3517.357          28.017  
R17  21058659.184 5   -952588.95609      3648.104          41.669  
R08  23167167.301 6    741559.00009     -2902.827          36.625  
C27         0.000 0         0.00000         0.000           0.000  
C28         0.000 0         0.00000         0.000           0.000  
C30         0.000 0         0.00000         0.000           0.000  
C32         0.000 0         0.00000         0.000           0.000  
C33         0.000 0         0.00000         0.000           0.000  
E07  23506275.428 4         0.00000      -330.614          33.978           0.000 0         0.00000         0.000           0.000  
E13  25811432.998 4         0.00000     -1908.373          32.941           0.000 0         0.00000         0.000           0.000  
> 2023 09 07 19 34 34.0002878  0 22
G02  23408060.123 5         0.00000      3322.728          33.791  
G08  22521423.337 4     96587.92109      -451.449          41.162  
G10  21162300.128 4    117524.87709      -492.140          37.919  
G18  24749896.100 6         0.00000     -2992.214          25.587  
G21  22540303.967 4   -714154.55209      2729.137          40.289  
G23  23271302.906 5         0.00000     -1892.448          32.925  
G27  22767755.305 5         0.00000     -2336.996          34.545  
G28  23628212.419 5   -994733.98709      3833.717          34.141  
G32  20551218.178 6         0.00000       783.899          26.303  
R02  20719507.275 5   -611993.72609      2326.814          39.797  
R01  19710542.264 6    221834.58709      -918.672          33.814  
R24  19255996.636 7         0.00000      -353.529          29.626  
R23  22018016.036 6         0.00000     -3515.051          27.688  
R17  21057965.468 5   -956236.09409      3647.018          44.612  
R08  23167725.219 5    744460.84709     -2902.295          39.031  
C27         0.000 0         0.00000         0.000           0.000  
C28         0.000 0         0.00000         0.000           0.000  
C30         0.000 0         0.00000         0.000           0.000  
C32         0.000 0         0.00000         0.000           0.000  
C33         0.000 0         0.00000         0.000           0.000  
E07  23506330.885 5         0.00000      -327.802          30.851           0.000 0         0.00000         0.000           0.000  
E13  25811814.634 5         0.00000     -1906.474          29.798           0.000 0         0.00000         0.000           0.000  
> 2023 09 07 19 34 35.0002878  0 21
G02  23407437.761 5   -867528.09509      3326.533          35.213  
G08  22521511.478 4     97035.92709      -446.248          37.082  
G10  21162403.556 4    118018.19809      -495.252          39.665  
G18  24750471.695 6         0.00000     -2990.261          27.484  
G21  22539787.423 3   -716886.46509      2734.328          44.141  
G23  23271662.643 5    483835.39109     -1900.634          32.722  
G27  22768204.090 5         0.00000     -2334.133          33.547  
G28  23627484.222 5   -998564.84009      3827.948          34.774  
G32  20551087.772 5         0.00000       784.247          33.401  
R02  20719052.801 5   -614323.34009      2331.872          38.548  
R01  19710740.725 6    222753.62609      -919.054          32.001  
R24  19256041.012 7         0.00000      -352.067          28.638  
R23  22018704.360 6         0.00000     -3515.301          27.161  
R17  21057263.359 5   -959885.10509      3650.918          44.672  
R08  23168269.038 5    747366.30109     -2909.625          37.349  
C27         0.000 0         0.00000         0.000           0.000  
C28         0.000 0         0.00000         0.000           0.000  
C30         0.000 0         0.00000         0.000           0.000  
C32         0.000 0         0.00000         0.000           0.000  
C33         0.000 0         0.00000         0.000           0.000  
E07  23506410.336 5         0.00000      -338.953          28.801           0.000 0         0.00000         0.000           0.000  
> 2023 09 07 19 34 36.0002878  0 21
G02  23406795.907 5         0.00000      3331.155          32.546  
G08  22521604.104 5         0.00000      -433.740          32.839  
G10  21162500.701 5    118514.33109      -497.612          35.778  
G18  24751026.001 6         0.00000     -3002.440          29.537  
G21  22539262.485 3   -719623.15209      2737.935          42.262  
G23  23272025.991 5         0.00000     -1906.766          31.070  
G27  22768636.087 5    137719.34709     -2328.697          36.456  
G28  23626739.534 5         0.00000      3828.121          31.776  
G32  20550930.668 4   -194050.90309       783.691          36.551  
R02  20718622.898 6   -616657.92909      2336.571          36.379  
R01  19710911.615 7         0.00000      -919.248          30.156  
R24  19256125.262 7         0.00000      -352.967          30.192  
R23  22019352.810 7         0.00000     -3519.842          29.319  
R17  21056564.547 5   -963537.70709      3652.915          41.894  
R08  23168836.537 6         0.00000     -2902.054          32.494  
C27         0.000 0         0.00000         0.000           0.000  
C28         0.000 0         0.00000         0.000           0.000  
C30         0.000 0         0.00000         0.000           0.000  
C32         0.000 0         0.00000         0.000           0.000  
C33         0.000 0         0.00000         0.000           0.000  
E07  23506474.186 5         0.00000      -345.557          29.456           0.000 0         0.00000         0.000           0.000  
> 2023 09 07 19 34 37.0002878  0 22
G02  23406164.541 5   -874188.20909      3330.445          36.034  
G08  22521662.859 5         0.00000      -437.429          33.036  
G10  21162590.325 5         0.00000      -497.221          31.914  
G18  24751608.507 5         0.00000     -3009.948          32.158  
G21  22538742.940 4   -722360.99009      2737.213          40.675  
G23  23272383.651 5    487645.95009     -1907.800          31.141  
G27  22769086.076 4    140047.02409     -2326.868          37.538  
G28  23626032.922 5         0.00000      3825.201          32.819  
G32  20550783.179 4   -194834.25709       783.303          37.126  
R02  20718163.608 6   -618995.22009      2337.304          36.308  
R01  19711090.288 6    224593.27509      -922.005          32.493  
R24  19256194.801 7         0.00000      -355.297          30.727  
R23  22020024.957 7         0.00000     -3521.601          28.571  
R17  21055878.911 5   -967190.44509      3651.236          39.069  
R08  23169417.838 7         0.00000     -2904.090          29.212  
C27         0.000 0         0.00000         0.000           0.000  
C28         0.000 0         0.00000         0.000           0.000  
C30         0.000 0         0.00000         0.000           0.000  
C32         0.000 0         0.00000         0.000           0.000  
C33         0.000 0         0.00000         0.000           0.000  
E07  23506541.055 4         0.00000      -342.987          33.872           0.000 0         0.00000         0.000           0.000  
E13  25812895.989 5         0.00000     -1912.767          28.820           0.000 0         0.00000         0.000           0.000  
> 2023 09 07 19 34 38.0002878  0 22
G02  23405529.283 4   -877516.86109      3327.548          38.372  
G08  22521755.206 5     98350.81509      -440.575          35.047  
G10  21162694.957 6         0.00000      -497.532          29.176  
G18  24752189.198 5         0.00000     -3004.327          32.958  
G21  22538212.314 4   -725096.64109      2734.727          36.727  
G23  23272750.297 6         0.00000     -1907.956          29.310  
G27  22769528.579 5    142373.42009     -2326.352          34.963  
G28  23625314.322 6         0.00000      3830.111          29.759  
G32  20550638.970 5   -195617.32309       783.021          36.508  
R02  20717732.797 5   -621332.06509      2336.561          38.975  
R01  19711251.580 6    225515.36109      -922.853          32.835  
R24  19256234.971 7         0.00000      -353.031          30.271  
R23  22020700.385 6    896401.20909     -3515.956          31.984  
R17  21055191.791 6   -970840.83009      3649.159          36.249  
R08  23169938.273 7         0.00000     -2917.144          30.408  
C27         0.000 0         0.00000         0.000           0.000  
C28         0.000 0         0.00000         0.000           0.000  
C30         0.000 0         0.00000         0.000           0.000  
C32         0.000 0         0.00000         0.000           0.000  
C33         0.000 0         0.00000         0.000           0.000  
E07  23506605.499 4         0.00000      -342.081          36.210           0.000 0         0.00000         0.000           0.000  
E13  25813265.934 5         0.00000     -1915.695          29.739           0.000 0         0.00000         0.000           0.000  
> 2023 09 07 19 34 39.0002878  0 22
G02  23404898.807 4   -880843.70509      3325.648          37.206  
G08  22521841.846 5     98791.26109      -440.451          33.777  
G10  21162804.387 6         0.00000      -492.590          26.929  
G18  24752760.308 6         0.00000     -2991.996          29.829  
G21  22537703.867 4   -727831.05309      2733.642          38.601  
G23  23273110.644 6         0.00000     -1904.967          27.588  
G27  22769975.566 4    144698.19509     -2324.393          37.900  
G28  23624569.041 6         0.00000      3836.721          28.216  
G32  20550487.886 5   -196400.32209       782.630          35.490  
R02  20717271.431 6   -623669.22209      2336.757          36.361  
R01  19711423.953 6    226439.14809      -924.814          33.331  
R24  19256293.744 6     62950.03909      -355.140          32.316  
R23  22021336.550 7         0.00000     -3511.434          30.256  
R17  21054493.276 6         0.00000      3645.931          36.155  
R08  23170516.870 7         0.00000     -2918.667          30.196  
C27         0.000 0         0.00000         0.000           0.000  
C28         0.000 0         0.00000         0.000           0.000  
C30         0.000 0         0.00000         0.000           0.000  
C32         0.000 0         0.00000         0.000           0.000  
C33         0.000 0         0.00000         0.000           0.000  
E07  23506671.164 4         0.00000      -342.634          36.908           0.000 0         0.00000         0.000           0.000  
E13  25813620.592 4         0.00000     -1913.435          31.979           0.000 0         0.00000         0.000           0.000  
> 2023 09 07 19 34 40.0002878  0 21
G02  23404262.048 4   -884168.12709      3323.033          37.788  
G08  22521929.079 4     99233.44009      -443.164          38.405  
G10  21162874.240 5    120515.30109      -501.810          35.208  
G18  24753327.214 5         0.00000     -2995.436          33.641  
G21  22537177.429 4   -730562.97809      2730.498          36.741  
G27  22770404.266 4    147022.39609     -2324.465          39.778  
G28  23623848.643 6         0.00000      3839.071          28.093  
G32  20550341.287 5   -197182.98909       782.051          33.583  
R02  20716838.822 5   -626005.29209      2335.314          37.099  
R01  19711604.441 6    227364.26709      -925.557          33.864  
R24  19256385.776 6     63305.51909      -356.019          35.586  
R23  22022027.858 6    903429.43409     -3512.503          33.753  
R17  21053794.465 5   -978134.40709      3644.313          39.016  
R08  23171033.711 6         0.00000     -2916.825          32.420  
C27         0.000 0         0.00000         0.000           0.000  
C28         0.000 0         0.00000         0.000           0.000  
C30         0.000 0         0.00000         0.000           0.000  
C32         0.000 0         0.00000         0.000           0.000  
C33         0.000 0         0.00000         0.000           0.000  
E07  23506733.514 3         0.00000      -343.278          38.825           0.000 0         0.00000         0.000           0.000  
E13  25813980.049 5         0.00000     -1909.123          30.829           0.000 0         0.00000         0.000           0.000  
> 2023 09 07 19 34 41.0002878  0 22
G02  23403631.886 4   -887489.56609      3320.195          37.335  
G08  22522009.420 4     99679.51409      -449.332          38.421  
G10  21162973.166 5    121016.03209      -498.959          35.435  
G18  24753893.229 4    785344.33409     -2993.791          37.535  
G21  22536668.074 4   -733292.11809      2727.391          37.366  
G23  23273828.058 5         0.00000     -1897.279          31.081  
G27  22770852.160 4    149349.11809     -2329.406          39.806  
G28  23623127.635 5         0.00000      3840.176          32.636  
G32  20550187.480 5   -197964.89209       780.894          33.355  
R02  20716400.229 5   -628338.04209      2330.114          37.966  
R01  19711764.529 6         0.00000      -928.350          31.211  
R24  19256462.819 5     63662.29309      -358.268          36.812  
R23  22022685.313 6    906941.42709     -3512.221          34.741  
R17  21053110.626 5   -981776.99309      3640.703          37.940  
R08  23171604.525 6         0.00000     -2914.157          34.011  
C27         0.000 0         0.00000         0.000           0.000  
C28         0.000 0         0.00000         0.000           0.000  
C30         0.000 0         0.00000         0.000           0.000  
C32         0.000 0         0.00000         0.000           0.000  
C33         0.000 0         0.00000         0.000           0.000  
E07  23506800.662 3         0.00000      -342.144          39.934           0.000 0         0.00000         0.000           0.000  
E13  25814344.584 4         0.00000     -1907.051          33.023           0.000 0         0.00000         0.000           0.000  
> 2023 09 07 19 34 42.0002878  0 21
G02  23402991.236 5   -890808.18209      3317.627          34.483  
G08  22522097.561 4    100131.07709      -454.127          40.188  
G10  21163075.703 5    121514.06309      -496.569          34.664  
G18  24754477.218 5         0.00000     -2996.568          33.164  
G21  22536145.545 4   -736018.50709      2724.849          36.789  
G23  23274212.381 5    497167.00709     -1897.910          32.343  
G27  22771300.648 4    151680.67509     -2333.467          38.592  
G28  23622384.448 5         0.00000      3835.339          35.330  
G32  20550042.085 5         0.00000       781.060          32.388  
R02  20715959.541 5   -630665.87009      2325.894          37.047  
R01  19711979.481 7         0.00000      -924.823          30.468  
R24  19256523.685 5     64021.08909      -359.711          37.688  
R23  22023382.623 6         0.00000     -3512.846          32.514  
R08  23172155.847 5    767755.06409     -2908.248          37.006  
C27         0.000 0         0.00000         0.000           0.000  
C28         0.000 0         0.00000         0.000           0.000  
C30         0.000 0         0.00000         0.000           0.000  
C32         0.000 0         0.00000         0.000           0.000  
C33         0.000 0         0.00000         0.000           0.000  
E07  23506866.624 3         0.00000      -340.716          40.720           0.000 0         0.00000         0.000           0.000  
E13  25814710.637 4         0.00000     -1907.979          32.492           0.000 0         0.00000         0.000           0.000  
> 2023 09 07 19 34 43.0002878  0 22
G02  23402365.873 5   -894124.76309      3316.121          34.418  
G08  22522184.795 4    100586.84909      -457.879          41.325  
G10  21163158.435 5    122010.08409      -494.836          33.801  
G18  24755027.336 5         0.00000     -2990.793          30.883  
G21  22535630.188 5         0.00000      2722.612          33.384  
G23  23274559.239 6         0.00000     -1894.384          30.199  
G27  22771749.433 4    154016.33509     -2337.501          36.916  
G28  23621649.968 5  -1029221.63509      3835.444          34.773  
G32  20549887.703 5         0.00000       777.762          31.353  
R02  20715509.535 6   -632989.49609      2321.424          34.637  
R01  19712145.258 6         0.00000      -924.092          30.941  
R24  19256598.634 5     64381.93309      -362.031          37.971  
R23  22024027.775 6         0.00000     -3513.024          31.050  
R17  21051726.492 6         0.00000      3637.246          32.184  
R08  23172705.372 6    770661.64909     -2905.745          36.204  
C27         0.000 0         0.00000         0.000           0.000  
C28         0.000 0         0.00000         0.000           0.000  
C30         0.000 0         0.00000         0.000           0.000  
C32         0.000 0         0.00000         0.000           0.000  
C33         0.000 0         0.00000         0.000           0.000  
E07  23506931.678 3         0.00000      -340.822          40.780           0.000 0         0.00000         0.000           0.000  
E13  25815069.187 5         0.00000     -1913.318          29.018           0.000 0         0.00000         0.000           0.000  
> 2023 09 07 19 34 44.0002878  0 22
G02  23401741.696 5   -897440.29909      3314.561          34.622  
G08  22522264.246 4    101045.39409      -460.077          40.483  
G10  21163262.473 5         0.00000      -493.685          32.504  
G18  24755610.435 6         0.00000     -2987.358          28.186  
G21  22535112.754 5   -741466.09109      2722.921          34.297  
G23  23274930.388 6         0.00000     -1889.739          28.586  
G27  22772187.433 5    156354.52809     -2339.624          36.154  
G28  23620921.456 5  -1033056.89409      3835.115          35.676  
G32  20549747.386 5         0.00000       779.319          30.741  
R02  20715057.155 6   -635310.82809      2319.795          33.390  
R01  19712295.156 6    231066.82609      -924.902          31.070  
R24  19256657.389 5     64744.23709      -362.907          38.337  
R23  22024680.117 6    917481.47609     -3515.106          31.676  
R17  21051041.466 6         0.00000      3637.610          33.391  
R08  23173258.474 6         0.00000     -2898.531          35.265  
C27         0.000 0         0.00000         0.000           0.000  
C28         0.000 0         0.00000         0.000           0.000  
C30         0.000 0         0.00000         0.000           0.000  
C32         0.000 0         0.00000         0.000           0.000  
C33         0.000 0         0.00000         0.000           0.000  
E07  23506997.640 3         0.00000      -340.368          39.978           0.000 0         0.00000         0.000           0.000  
E13  25815436.427 5         0.00000     -1909.251          29.264           0.000 0         0.00000         0.000           0.000  
> 2023 09 07 19 34 45.0002878  0 22
G02  23401101.936 5   -900755.06409      3314.440          34.442  
G08  22522361.688 4    101506.45809      -462.169          39.640  
G10  21163370.699 6         0.00000      -493.252          29.627  
G18  24756175.840 6         0.00000     -2990.818          27.595  
G21  22534603.714 5   -744188.52909      2722.894          32.990  
G23  23275307.836 6         0.00000     -1888.625          26.547  
G27  22772634.421 5    158694.99109     -2341.610          33.952  
G28  23620198.668 5  -1036891.89009      3834.691          35.067  
G32  20549596.005 5         0.00000       780.315          31.607  
R02  20714640.444 6   -637629.80109      2317.621          31.959  
R01  19712467.529 6         0.00000      -928.332          31.310  
R24  19256741.028 5     65107.99909      -364.137          37.879  
R23  22025369.051 6    920996.26209     -3514.849          32.331  
R17  21050339.043 6         0.00000      3639.829          32.624  
R08  23173805.294 6         0.00000     -2901.608          33.173  
C27         0.000 0         0.00000         0.000           0.000  
C28         0.000 0         0.00000         0.000           0.000  
C30         0.000 0         0.00000         0.000           0.000  
C32         0.000 0         0.00000         0.000           0.000  
C33         0.000 0         0.00000         0.000           0.000  
E07  23507062.084 3     76041.45909      -339.610          40.516           0.000 0         0.00000         0.000           0.000  
E13  25815788.397 6         0.00000     -1908.570          26.130           0.000 0         0.00000         0.000           0.000  
> 2023 09 07 19 34 46.0002878  0 21
G02  23400484.670 5   -904069.28809      3313.839          35.129  
G08  22522444.419 4    101969.45709      -463.565          40.546  
G10  21163475.610 6         0.00000      -494.109          26.372  
G18  24756736.149 6         0.00000     -2990.902          28.884  
G21  22534081.760 5   -746910.04209      2720.705          31.717  
G23  23275678.671 6         0.00000     -1887.106          23.521  
G27  22773073.922 5    161037.32409     -2342.964          33.730  
G28  23619456.371 5  -1040726.34009      3834.343          33.070  
G32  20549444.904 5   -201863.73209       777.131          32.173  
R02  20714186.267 6   -639947.15109      2317.016          32.418  
R01  19712660.598 6    232916.98409      -925.475          31.748  
R24  19256802.487 5     65472.94809      -365.515          38.297  
R23  22026020.503 6    924511.77109     -3515.945          31.671  
R17  21049654.017 6   -999963.67809      3635.978          32.280  
R08  23174367.418 6         0.00000     -2902.047          33.920  
C27         0.000 0         0.00000         0.000           0.000  
C28         0.000 0         0.00000         0.000           0.000  
C30         0.000 0         0.00000         0.000           0.000  
C32         0.000 0         0.00000         0.000           0.000  
C33         0.000 0         0.00000         0.000           0.000  
E07  23507122.654 3     76381.07409      -339.902          40.732           0.000 0         0.00000         0.000           0.000  
> 2023 09 07 19 34 47.0002878  0 22
G02  23399850.616 5   -907382.78609      3312.877          34.333  
G08  22522534.969 4    102433.73909      -464.928          40.234  
G10  21163575.757 6         0.00000      -492.846          23.243  
G18  24757291.676 6    803294.71609     -2990.979          29.003  
G21  22533565.530 5   -749631.10409      2720.727          31.491  
G23  23276043.520 6         0.00000     -1887.655          21.373  
G27  22773525.411 5    163380.74409     -2344.070          34.635  
G28  23618723.985 5  -1044560.71109      3833.700          33.004  
G32  20549289.004 5   -202640.72309       776.469          31.253  
R02  20713733.870 6   -642263.21509      2315.489          31.063  
R01  19712847.368 6    233842.36209      -925.268          31.485  
R24  19256858.852 5     65838.98809      -366.785          37.710  
R23  22026718.110 6    928027.87409     -3516.761          32.895  
R17  21048943.810 6  -1003599.82309      3635.414          32.454  
R08  23174921.131 6    782267.26609     -2899.005          35.284  
C27         0.000 0         0.00000         0.000           0.000  
C28         0.000 0         0.00000         0.000           0.000  
C30         0.000 0         0.00000         0.000           0.000  
C32         0.000 0         0.00000         0.000           0.000  
C33         0.000 0         0.00000         0.000           0.000  
E07  23507186.504 3     76720.96109      -340.067          40.062           0.000 0         0.00000         0.000           0.000  
E13  25816514.484 5         0.00000     -1902.445          28.827           0.000 0         0.00000         0.000           0.000  
> 2023 09 07 19 34 48.0002878  0 22
G02  23399222.251 5   -910695.79209      3312.963          33.673  
G08  22522624.593 4    102899.25409      -465.848          40.445  
G10  21163632.103 6         0.00000      -493.107          22.558  
G18  24757900.549 6         0.00000     -2988.166          27.575  
G21  22533046.578 5   -752351.44809      2720.369          32.740  
G23  23276396.067 6         0.00000     -1887.035          21.010  
G27  22773979.885 5    165725.12109     -2344.060          33.934  
G28  23618007.183 5  -1048394.62309      3833.843          33.708  
G32  20549148.704 5   -203416.88109       775.974          34.736  
R02  20713319.253 7   -644578.03309      2314.342          30.589  
R01  19713001.157 6    234768.29709      -926.073          32.798  
R24  19256950.291 5     66206.30709      -367.600          37.408  
R23  22027395.650 6    931544.70209     -3517.271          31.206  
R17  21048258.488 6  -1007235.10509      3635.528          31.956  
R08  23175455.666 6    785166.34609     -2898.977          34.332  
C27         0.000 0         0.00000         0.000           0.000  
C28         0.000 0         0.00000         0.000           0.000  
C30         0.000 0         0.00000         0.000           0.000  
C32         0.000 0         0.00000         0.000           0.000  
C33         0.000 0         0.00000         0.000           0.000  
E07  23507252.152 3     77061.30409      -340.458          40.289           0.000 0         0.00000         0.000           0.000  
E13  25816885.929 5         0.00000     -1907.203          31.269           0.000 0         0.00000         0.000           0.000  
> 2023 09 07 19 34 49.0002878  0 21
G02  23398586.383 5   -914008.54509      3312.284          33.368  
G08  22522715.142 4    103365.49809      -466.662          39.290  
G10  21163719.948 6         0.00000      -493.593          23.871  
G18  24758475.848 6         0.00000     -2987.806          26.413  
G21  22532518.343 5   -755071.43409      2719.435          31.456  
G27  22774436.767 5    168069.93009     -2344.808          33.136  
G28  23617268.201 5  -1052228.38809      3833.610          33.137  
G32  20549006.607 5   -204192.50909       775.025          34.726  
R02  20712888.460 7         0.00000      2317.990          29.571  
R01  19713190.334 6    235694.61709      -927.131          32.029  
R24  19257009.639 5     66574.53909      -369.104          36.909  
R23  22028026.109 7    935061.80909     -3517.499          29.465  
R17  21047604.349 7  -1010869.72509      3633.894          30.643  
R08  23176003.376 6    788065.34509     -2899.418          32.773  
C27         0.000 0         0.00000         0.000           0.000  
C28         0.000 0         0.00000         0.000           0.000  
C30         0.000 0         0.00000         0.000           0.000  
C32         0.000 0         0.00000         0.000           0.000  
C33         0.000 0         0.00000         0.000           0.000  
E07  23507317.817 3     77401.92509      -341.086          39.885           0.000 0         0.00000         0.000           0.000  
E13  25817250.778 5         0.00000     -1909.815          31.093           0.000 0         0.00000         0.000           0.000  
> 2023 09 07 19 34 50.0002878  0 21
G02  23397955.924 5   -917321.09709      3312.565          33.876  
G08  22522799.374 4    103832.28909      -467.082          40.755  
G10  21163818.873 6         0.00000      -494.114          23.477  
G18  24759032.562 6    812268.74009     -2991.151          28.185  
G21  22532009.896 5   -757791.20809      2719.365          32.028  
G27  22774855.886 5    170415.19109     -2345.536          33.867  
G28  23616547.490 5  -1056062.02709      3833.744          33.558  
G32  20548861.508 5   -204967.46109       774.499          35.240  
R02  20712413.883 7         0.00000      2314.149          29.524  
R01  19713379.809 6    236621.35109      -927.051          31.530  
R24  19257082.790 5     66943.63009      -369.398          37.363  
R23  22028709.337 7    938579.34709     -3517.818          30.318  
R17  21046874.337 7         0.00000      3634.212          29.683  
R08  23176580.472 6    790964.32109     -2898.701          33.410  
C27         0.000 0         0.00000         0.000           0.000  
C28         0.000 0         0.00000         0.000           0.000  
C30         0.000 0         0.00000         0.000           0.000  
C32         0.000 0         0.00000         0.000           0.000  
C33         0.000 0         0.00000         0.000           0.000  
E07  23507380.760 3     77742.99209      -341.241          40.391           0.000 0         0.00000         0.000           0.000  
E13  25817609.624 4         0.00000     -1905.057          32.219           0.000 0         0.00000         0.000           0.000  
> 2023 09 07 19 34 51.0002878  0 21
G02  23397324.261 5   -920633.61109      3312.628          33.761  
G08  22522887.515 4    104299.57109      -467.675          40.964  
G10  21163912.720 6         0.00000      -494.342          21.864  
G18  24759599.782 6    815260.54009     -2992.662          29.444  
G21  22531496.353 5   -760510.87109      2719.422          32.946  
G27  22775315.472 5    172760.44109     -2345.622          34.139  
G28  23615823.497 5  -1059895.66909      3833.177          34.130  
G32  20548718.800 5   -205742.07209       774.077          35.563  
R02  20711944.106 7         0.00000      2311.719          28.230  
R01  19713559.389 6    237548.36209      -927.367          31.773  
R24  19257146.047 5     67313.48209      -370.195          37.467  
R23  22029407.852 7    942097.11009     -3517.979          30.582  
R17  21046186.030 6  -1018137.61609      3633.679          30.839  
R08  23177110.505 6    793863.23009     -2898.860          34.815  
C27         0.000 0         0.00000         0.000           0.000  
C28         0.000 0         0.00000         0.000           0.000  
C30         0.000 0         0.00000         0.000           0.000  
C32         0.000 0         0.00000         0.000           0.000  
C33         0.000 0         0.00000         0.000           0.000  
E07  23507446.425 3     78084.22309      -341.574          40.428           0.000 0         0.00000         0.000           0.000  
E13  25817974.473 4         0.00000     -1906.712          31.688           0.000 0         0.00000         0.000           0.000  
> 2023 09 07 19 34 52.0002878  0 22
G02  23396692.894 5   -923945.91809      3312.406          33.087  
G08  22522983.457 4    104767.40109      -467.882          40.610  
G10  21164034.139 6         0.00000      -494.552          23.907  
G18  24760175.377 6         0.00000     -2987.840          26.149  
G21  22530967.524 5   -763230.21809      2719.299          31.448  
G27  22775767.258 5    175106.11809     -2345.964          33.332  
G28  23615097.987 5  -1063729.21309      3833.577          34.562  
G32  20548570.700 5   -206516.22109       774.136          35.962  
R02  20711541.198 7   -653833.14209      2313.294          28.455  
R01  19713701.783 6    238475.82209      -927.430          31.150  
R24  19257224.887 5     67684.09809      -370.969          37.194  
R23  22030072.792 6    945615.20809     -3518.763          30.881  
R17  21045509.991 6  -1021770.73409      3633.265          31.573  
R08  23177660.641 6    796762.02909     -2899.079          34.333  
C24         0.000 0         0.00000         0.000           0.000  
C27         0.000 0         0.00000         0.000           0.000  
C28         0.000 0         0.00000         0.000           0.000  
C30         0.000 0         0.00000         0.000           0.000  
C32         0.000 0         0.00000         0.000           0.000  
C33         0.000 0         0.00000         0.000           0.000  
E07  23507511.183 3     78425.79809      -341.649          41.095           0.000 0         0.00000         0.000           0.000  
E13  25818334.227 4         0.00000     -1908.674          32.196           0.000 0         0.00000         0.000           0.000  
> 2023 09 07 19 34 53.0002878  0 22
G02  23396072.330 5   -927258.19409      3312.168          34.134  
G08  22523065.891 4    105235.69009      -468.734          40.479  
G10  21164123.763 6         0.00000      -493.693          27.058  
G18  24760728.793 6         0.00000     -2989.667          26.447  
G21  22530458.484 5   -765949.48909      2719.085          33.145  
G27  22776199.849 5    177451.90909     -2346.397          33.371  
G28  23614370.994 5  -1067562.84109      3833.560          34.782  
G32  20548415.114 5   -207289.79609       773.437          35.781  
R02  20711113.092 7   -656145.83809      2312.614          28.999  
R01  19713905.043 7    239403.61009      -928.256          30.250  
R24  19257306.729 5     68055.54909      -371.955          37.619  
R23  22030707.143 6    949133.53409     -3518.753          30.876  
R17  21044790.781 6  -1025403.46909      3632.573          31.741  
R08  23178223.044 6    799660.64109     -2898.977          33.488  
C24         0.000 0         0.00000         0.000           0.000  
C27         0.000 0         0.00000         0.000           0.000  
C28         0.000 0         0.00000         0.000           0.000  
C30         0.000 0         0.00000         0.000           0.000  
C32         0.000 0         0.00000         0.000           0.000  
C33         0.000 0         0.00000         0.000           0.000  
E07  23507580.128 3     78767.64509      -342.161          41.136           0.000 0         0.00000         0.000           0.000  
E13  25818697.576 4         0.00000     -1904.126          33.681           0.000 0         0.00000         0.000           0.000  
> 2023 09 07 19 34 54.0002878  0 22
G02  23395432.866 5   -930570.65109      3312.044          35.069  
G08  22523155.533 4    105704.18209      -468.824          40.928  
G10  21164207.105 6    127438.58509      -494.047          30.400  
G18  24761320.583 6         0.00000     -2989.458          25.622  
G21  22529942.830 5   -768668.80909      2718.956          34.893  
G27  22776644.149 5    179797.68609     -2346.120          33.475  
G28  23613626.306 5  -1071396.63809      3833.770          34.431  
G32  20548273.314 5   -208063.21309       773.013          35.405  
R02  20710656.210 7   -658458.48309      2312.367          29.618  
R01  19714089.719 7    240331.27209      -927.823          30.290  
R24  19257363.093 5     68427.51509      -372.563          37.728  
R23  22031402.970 6    952651.90409     -3518.931          31.277  
R17  21044126.748 6  -1029036.08009      3632.496          31.639  
R08  23178785.761 6    802558.87809     -2898.348          34.093  
C24         0.000 0         0.00000         0.000           0.000  
C27         0.000 0         0.00000         0.000           0.000  
C28         0.000 0         0.00000         0.000           0.000  
C30         0.000 0         0.00000         0.000           0.000  
C32         0.000 0         0.00000         0.000           0.000  
C33         0.000 0         0.00000         0.000           0.000  
E07  23507644.886 3     79109.41509      -342.030          40.937           0.000 0         0.00000         0.000           0.000  
E13  25819059.720 4         0.00000     -1904.048          33.579           0.000 0         0.00000         0.000           0.000  
> 2023 09 07 19 34 55.0002878  0 22
G02  23394812.598 5   -933883.01009      3312.089          33.661  
G08  22523242.470 4    106173.12009      -469.409          39.932  
G10  21164295.857 6         0.00000      -494.823          28.347  
G18  24761900.087 6         0.00000     -2994.758          25.410  
G21  22529411.297 5   -771388.03209      2719.002          33.780  
G27  22777096.529 5    182143.65909     -2346.485          33.067  
G28  23612887.621 5  -1075230.50609      3833.656          33.346  
G32  20548121.322 5   -208836.30009       772.496          34.718  
R02  20710197.828 7   -660770.76409      2311.400          28.094  
R01  19714228.518 7    241259.34609      -928.517          29.095  
R24  19257443.434 5     68800.15809      -373.064          37.078  
R23  22032061.315 7    956170.51209     -3518.660          30.539  
R17  21043423.137 7         0.00000      3631.995          30.689  
R08  23179315.794 6    805456.98509     -2898.502          33.855  
C24         0.000 0         0.00000         0.000           0.000  
C27         0.000 0         0.00000         0.000           0.000  
C28         0.000 0         0.00000         0.000           0.000  
C30         0.000 0         0.00000         0.000           0.000  
C32         0.000 0         0.00000         0.000           0.000  
C33         0.000 0         0.00000         0.000           0.000  
E07  23507706.346 3     79451.41309      -342.286          40.013           0.000 0         0.00000         0.000           0.000  
E13  25819424.569 4         0.00000     -1905.051          32.782           0.000 0         0.00000         0.000           0.000  
> 2023 09 07 19 34 56.0002878  0 22
G02  23394182.733 5   -937194.91009      3311.345          33.723  
G08  22523339.005 4    106642.90109      -470.196          40.822  
G10  21164400.785 6         0.00000      -491.948          28.997  
G18  24762462.490 6         0.00000     -2990.681          28.330  
G21  22528903.146 5   -774106.61809      2717.826          34.508  
G27  22777539.625 5    184490.24609     -2347.128          35.732  
G28  23612160.627 5  -1079063.87509      3833.215          33.903  
G32  20547985.211 5   -209608.48309       771.701          34.925  
R02  20709737.945 6         0.00000      2312.688          27.794  
R01  19714411.693 7    242187.97409      -928.756          30.296  
R24  19257511.490 5     69174.04509      -374.603          37.350  
R23  22032710.672 6    959689.89409     -3519.733          30.983  
R17  21042742.614 6  -1036299.49709      3630.728          31.535  
R08  23179887.184 6    808355.28409     -2898.533          34.808  
C24         0.000 0         0.00000         0.000           0.000  
C27         0.000 0         0.00000         0.000           0.000  
C28         0.000 0         0.00000         0.000           0.000  
C30         0.000 0         0.00000         0.000           0.000  
C32         0.000 0         0.00000         0.000           0.000  
C33         0.000 0         0.00000         0.000           0.000  
E07  23507772.587 3     79794.13009      -343.192          40.645           0.000 0         0.00000         0.000           0.000  
E13  25819789.418 4         0.00000     -1908.086          33.288           0.000 0         0.00000         0.000           0.000  
> 2023 09 07 19 34 57.0002878  0 23
G02  23393549.569 5   -940506.54009      3311.730          33.497  
G08  22523428.943 4    107113.45609      -470.934          40.852  
G10  21164473.623 6         0.00000      -495.319          28.608  
G18  24763047.980 6         0.00000     -2995.610          27.764  
G21  22528374.021 5   -776824.89609      2717.862          34.410  
G23  23279604.446 6         0.00000     -1890.276          22.524  
G27  22777982.424 5    186837.19809     -2347.365          34.755  
G28  23611436.635 5  -1082897.07109      3833.019          33.674  
G32  20547841.316 5   -210380.02209       771.165          35.169  
R02  20709322.734 6         0.00000      2311.439          27.687  
R01  19714624.236 7    243117.19409      -929.228          30.597  
R24  19257575.043 5     69548.85009      -375.571          37.279  
R23  22033396.884 6    963209.72609     -3520.448          31.294  
R17  21042073.468 6  -1039930.22409      3630.333          31.084  
R08  23180442.711 6    811253.65409     -2898.375          35.288  
C24         0.000 0         0.00000         0.000           0.000  
C27         0.000 0         0.00000         0.000           0.000  
C28         0.000 0         0.00000         0.000           0.000  
C30         0.000 0         0.00000         0.000           0.000  
C32         0.000 0         0.00000         0.000           0.000  
C33         0.000 0         0.00000         0.000           0.000  
E07  23507838.549 3     80137.23909      -343.415          40.577           0.000 0         0.00000         0.000           0.000  
E13  25820150.376 4         0.00000     -1906.236          32.860           0.000 0         0.00000         0.000           0.000  
> 2023 09 07 19 34 58.0002878  0 23
G02  23392910.420 5   -943817.95409      3311.268          33.166  
G08  22523521.883 4    107584.68309      -471.768          40.380  
G10  21164559.670 6         0.00000      -498.906          27.409  
G18  24763595.707 6         0.00000     -2994.083          27.173  
G21  22527870.373 5   -779542.90109      2717.756          34.336  
G23  23279965.997 6         0.00000     -1889.939          23.954  
G27  22778430.005 5    189184.57709     -2347.904          35.568  
G28  23610707.233 5  -1086730.16209      3832.640          33.969  
G32  20547684.526 5   -211150.95209       770.451          35.128  
R02  20708912.619 6         0.00000      2309.217          27.327  
R01  19714775.634 7    244046.91509      -930.257          30.782  
R24  19257666.797 5     69924.54609      -376.418          37.135  
R23  22034036.644 6    966729.92509     -3520.790          30.824  
R17  21041354.571 6  -1043560.40309      3629.898          31.407  
R08  23180979.340 6    814152.12309     -2898.421          34.974  
C24         0.000 0         0.00000         0.000           0.000  
C27         0.000 0         0.00000         0.000           0.000  
C28         0.000 0         0.00000         0.000           0.000  
C30         0.000 0         0.00000         0.000           0.000  
C32         0.000 0         0.00000         0.000           0.000  
C33         0.000 0         0.00000         0.000           0.000  
E07  23507903.900 3     80480.78209      -343.907          40.458           0.000 0         0.00000         0.000           0.000  
E13  25820514.021 4         0.00000     -1906.589          32.432           0.000 0         0.00000         0.000           0.000  
> 2023 09 07 19 34 59.0002878  0 23
G02  23392283.852 5   -947128.97909      3310.892          33.393  
G08  22523606.726 4    108056.64209      -472.547          40.594  
G10  21164654.110 6         0.00000      -499.248          25.701  
G18  24764157.220 6         0.00000     -2988.602          27.699  
G21  22527344.824 5   -782260.41109      2717.209          34.768  
G23  23280315.263 6         0.00000     -1890.894          24.566  
G27  22778879.993 5    191532.37809     -2347.882          35.520  
G28  23609968.251 5  -1090562.90309      3832.708          34.114  
G32  20547540.928 5   -211921.25909       770.139          34.829  
R02  20708429.650 7   -670013.49209      2309.913          28.829  
R01  19714976.800 7    244977.12609      -930.411          30.770  
R24  19257702.168 5     70301.36909      -377.520          37.251  
R23  22034710.886 7    970250.69609     -3521.033          29.773  
R17  21040694.429 6  -1047189.67809      3628.542          31.072  
R08  23181549.840 6    817050.67509     -2898.682          34.899  
C24         0.000 0         0.00000         0.000           0.000  
C27         0.000 0         0.00000         0.000           0.000  
C28         0.000 0         0.00000         0.000           0.000  
C30         0.000 0         0.00000         0.000           0.000  
C32         0.000 0         0.00000         0.000           0.000  
C33         0.000 0         0.00000         0.000           0.000  
E07  23507967.768 3     80824.82909      -344.492          40.409           0.000 0         0.00000         0.000           0.000  
E13  25820876.759 4         0.00000     -1907.513          32.608           0.000 0         0.00000         0.000           0.000  
> 2023 09 07 19 35 00.0002878  0 23
G02  23391658.472 5   -950439.85909      3311.434          33.101  
G08  22523700.259 4    108529.09609      -472.523          40.825  
G10  21164759.038 6         0.00000      -496.055          25.601  
G18  24764726.830 6         0.00000     -2994.134          27.791  
G21  22526836.691 5   -784977.71309      2717.551          35.312  
G23  23280691.193 6         0.00000     -1889.485          25.662  
G27  22779325.183 5    193880.55209     -2347.917          35.185  
G28  23609245.446 5  -1094395.60909      3832.839          34.330  
G32  20547402.722 5   -212690.89909       769.958          34.974  
R02  20708000.950 7   -672322.79809      2309.356          28.813  
R01  19715161.773 6    245907.73409      -930.438          31.341  
R24  19257805.892 5     70678.97009      -377.827          37.689  
R23  22035410.291 7    973771.81109     -3520.914          29.577  
R17  21040001.010 6  -1050818.67609      3629.305          31.563  
R08  23182095.753 6    819949.30709     -2898.149          35.173  
C24         0.000 0         0.00000         0.000           0.000  
C27         0.000 0         0.00000         0.000           0.000  
C28         0.000 0         0.00000         0.000           0.000  
C30         0.000 0         0.00000         0.000           0.000  
C32         0.000 0         0.00000         0.000           0.000  
C33         0.000 0         0.00000         0.000           0.000  
E07  23508034.916 3     81169.17609      -344.090          40.392           0.000 0         0.00000         0.000           0.000  
E13  25821239.217 4         0.00000     -1908.521          32.387           0.000 0         0.00000         0.000           0.000  
> 2023 09 07 19 35 01.0002878  0 23
G02  23391007.334 5   -953750.54409      3310.192          33.362  
G08  22523784.195 4    109002.17609      -473.447          40.625  
G10  21164833.970 6         0.00000      -494.928          25.506  
G18  24765313.524 6         0.00000     -2995.093          26.746  
G21  22526328.541 5   -787694.76609      2716.948          35.108  
G23  23281038.662 6         0.00000     -1890.893          26.230  
G27  22779777.877 5    196228.92909     -2348.790          34.860  
G28  23608519.046 5  -1098228.24209      3832.457          34.425  
G32  20547254.622 5   -213460.09509       768.647          35.306  
R02  20707582.128 7   -674631.77209      2308.839          29.217  
R01  19715320.954 6    246838.76009      -931.671          31.414  
R24  19257863.461 5     71057.38709      -378.944          37.934  
R23  22036049.160 7    977293.29809     -3521.299          29.199  
R17  21039290.786 6  -1054447.03209      3627.751          31.904  
R08  23182632.085 6    822847.82309     -2898.905          34.941  
C24         0.000 0         0.00000         0.000           0.000  
C27         0.000 0         0.00000         0.000           0.000  
C28         0.000 0         0.00000         0.000           0.000  
C30         0.000 0         0.00000         0.000           0.000  
C32         0.000 0         0.00000         0.000           0.000  
C33         0.000 0         0.00000         0.000           0.000  
E07  23508099.377 3     81513.88909      -345.082          40.206           0.000 0         0.00000         0.000           0.000  
E13  25821603.159 4         0.00000     -1910.091          32.430           0.000 0         0.00000         0.000           0.000  
> 2023 09 07 19 35 02.0002878  0 23
G02  23390390.661 5   -957061.00709      3310.271          33.282  
G08  22523873.243 4    109475.93409      -474.325          40.674  
G10  21164963.782 6         0.00000      -501.275          25.355  
G18  24765889.416 6         0.00000     -2994.710          26.947  
G21  22525802.993 5   -790411.40409      2716.147          34.818  
G23  23281417.594 6         0.00000     -1892.253          26.215  
G27  22780214.673 5    198577.82509     -2349.564          34.849  
G28  23607783.955 5  -1102060.51409      3831.727          34.651  
G32  20547107.430 5   -214228.59009       767.894          35.175  
R02  20707158.523 7   -676939.98109      2307.493          28.253  
R01  19715482.857 6    247770.30909      -932.176          31.693  
R24  19257947.100 5     71436.82809      -379.881          38.106  
R23  22036700.595 7         0.00000     -3520.689          29.033  
R17  21038593.179 6  -1058074.80209      3627.261          31.754  
R08  23183199.601 6    825746.45209     -2899.045          35.133  
C24         0.000 0         0.00000         0.000           0.000  
C27         0.000 0         0.00000         0.000           0.000  
C28         0.000 0         0.00000         0.000           0.000  
C30         0.000 0         0.00000         0.000           0.000  
C32         0.000 0         0.00000         0.000           0.000  
C33         0.000 0         0.00000         0.000           0.000  
E07  23508165.321 3     81859.05609      -345.816          40.228           0.000 0         0.00000         0.000           0.000  
E13  25821965.914 4         0.00000     -1907.324          32.044           0.000 0         0.00000         0.000           0.000  
> 2023 09 07 19 35 03.0002878  0 23
G02  23389762.889 5   -960370.96409      3309.762          33.916  
G08  22523967.073 4    109950.51009      -474.631          41.280  
G10  21165067.820 6         0.00000      -497.119          26.778  
G18  24766429.343 6         0.00000     -2993.778          27.362  
G21  22525288.246 5   -793127.57609      2716.123          34.891  
G23  23281764.155 6         0.00000     -1891.492          26.699  
G27  22780663.458 5    200927.17709     -2349.408          35.372  
G28  23607068.060 5  -1105892.60009      3832.064          35.227  
G32  20546950.936 5   -214996.36609       767.508          36.172  
R02  20706714.834 7   -679247.67609      2307.749          28.492  
R01  19715666.014 6         0.00000      -932.006          31.126  
R24  19258011.857 5     71817.36909      -380.930          37.399  
R23  22037404.519 7         0.00000     -3519.811          29.198  
R17  21037911.748 6  -1061701.76209      3626.433          31.004  
R08  23183757.502 6    828645.17409     -2898.418          35.427  
C24         0.000 0         0.00000         0.000           0.000  
C27         0.000 0         0.00000         0.000           0.000  
C28         0.000 0         0.00000         0.000           0.000  
C30         0.000 0         0.00000         0.000           0.000  
C32         0.000 0         0.00000         0.000           0.000  
C33         0.000 0         0.00000         0.000           0.000  
E07  23508231.877 3     82204.78309      -345.808          40.798           0.000 0         0.00000         0.000           0.000  
E13  25822327.762 4         0.00000     -1908.604          32.224           0.000 0         0.00000         0.000           0.000  
> 2023 09 07 19 35 04.0002878  0 23
G02  23389136.618 5   -963680.68309      3309.476          34.352  
G08  22524052.806 4    110425.75109      -475.539          41.253  
G10  21165148.457 6         0.00000      -496.350          27.138  
G18  24766996.859 6         0.00000     -2998.038          27.256  
G21  22524762.419 5   -795843.35709      2715.643          35.242  
G23  23282129.911 6         0.00000     -1891.921          27.371  
G27  22781117.356 5    203276.97309     -2349.853          35.230  
G28  23606333.266 5  -1109724.42209      3831.767          35.402  
G32  20546812.120 5   -215763.43109       766.734          36.439  
R02  20706255.544 6         0.00000      2307.167          27.113  
R01  19715841.406 7         0.00000      -934.789          30.735  
R24  19258096.386 5     72198.93609      -382.263          38.028  
R23  22038061.659 7    987860.94009     -3523.444          29.973  
R17  21037240.211 6  -1065328.08609      3626.052          30.909  
R08  23184280.956 6    831544.06109     -2899.313          35.642  
C24         0.000 0         0.00000         0.000           0.000  
C27         0.000 0         0.00000         0.000           0.000  
C28         0.000 0         0.00000         0.000           0.000  
C30         0.000 0         0.00000         0.000           0.000  
C32         0.000 0         0.00000         0.000           0.000  
C33         0.000 0         0.00000         0.000           0.000  
E07  23508300.526 3     82550.97109      -346.391          41.085           0.000 0         0.00000         0.000           0.000  
E13  25822689.906 4         0.00000     -1910.931          33.004           0.000 0         0.00000         0.000           0.000  
> 2023 09 07 19 35 05.0002878  0 23
G02  23388507.660 5   -966990.57209      3310.548          34.280  
G08  22524149.951 4    110899.98209      -473.535          41.446  
G10  21165220.405 6         0.00000      -495.522          27.419  
G18  24767561.356 6         0.00000     -2993.589          28.731  
G21  22524244.374 5   -798559.43209      2716.485          34.304  
G23  23282499.245 6         0.00000     -1895.403          25.831  
G27  22781555.949 5    205625.46709     -2347.837          34.774  
G28  23605602.364 5  -1113556.25309      3831.841          35.175  
G32  20546671.523 5         0.00000       767.261          34.803  
R02  20705836.739 7   -683862.74409      2308.705          28.744  
R01  19716018.578 7         0.00000      -936.693          29.674  
R24  19258154.548 5     72580.93309      -382.966          37.230  
R23  22038737.384 7    991384.05809     -3523.435          30.565  
R17  21036497.320 7         0.00000      3627.059          29.419  
R08  23184850.252 6    834444.92909     -2903.547          34.434  
C24         0.000 0         0.00000         0.000           0.000  
C27         0.000 0         0.00000         0.000           0.000  
C28         0.000 0         0.00000         0.000           0.000  
C30         0.000 0         0.00000         0.000           0.000  
C32         0.000 0         0.00000         0.000           0.000  
C33         0.000 0         0.00000         0.000           0.000  
E07  23508363.783 3     82898.22309      -348.191          40.647           0.000 0         0.00000         0.000           0.000  
E13  25823051.457 4         0.00000     -1909.877          33.159           0.000 0         0.00000         0.000           0.000  
> 2023 09 07 19 35 06.0002878  0 23
G02  23387868.511 5         0.00000      3309.559          34.289  
G08  22524233.887 4    111372.34009      -471.088          41.635  
G10  21165328.631 6         0.00000      -498.285          27.494  
G18  24768133.357 6         0.00000     -2992.706          28.996  
G21  22523720.641 5         0.00000      2717.561          30.693  
G23  23282823.331 6         0.00000     -1897.196          27.779  
G27  22782005.641 5    207971.68109     -2344.717          34.492  
G28  23604872.072 5  -1117388.28209      3832.541          35.911  
G32  20546512.936 5         0.00000       764.202          33.505  
R02  20705411.338 7   -686172.61609      2311.253          30.563  
R01  19716184.670 6    251503.47109      -935.728          31.276  
R24  19258215.711 5     72963.12409      -382.362          37.557  
R23  22039417.314 6         0.00000     -3523.909          31.300  
R17  21035836.882 6         0.00000      3624.255          31.932  
R08  23185395.275 6         0.00000     -2906.273          33.387  
C24         0.000 0         0.00000         0.000           0.000  
C27         0.000 0         0.00000         0.000           0.000  
C28         0.000 0         0.00000         0.000           0.000  
C30         0.000 0         0.00000         0.000           0.000  
C32         0.000 0         0.00000         0.000           0.000  
C33         0.000 0         0.00000         0.000           0.000  
E07  23508429.448 3     83246.91909      -349.764          40.890           0.000 0         0.00000         0.000           0.000  
E13  25823424.997 4         0.00000     -1911.369          32.692           0.000 0         0.00000         0.000           0.000  
> 2023 09 07 19 35 07.0002878  0 23
G02  23387239.239 5         0.00000      3313.602          34.678  
G08  22524326.827 4    111841.02409      -467.126          41.329  
G10  21165428.464 6         0.00000      -503.270          28.507  
G18  24768709.563 4         0.00000     -3001.430          37.710  
G21  22523213.695 5         0.00000      2721.395          31.251  
G23  23283204.653 6         0.00000     -1903.339          29.564  
G27  22782465.210 5    210313.56209     -2339.416          33.139  
G28  23604139.390 5  -1121220.54609      3832.457          34.949  
G32  20546355.238 5         0.00000       765.310          32.216  
R02  20704954.142 6   -688485.97909      2315.040          31.896  
R01  19716364.232 6    252439.86509      -937.418          30.842  
R24  19258303.555 5     73344.96809      -381.590          37.826  
R23  22040090.055 7    998430.23709     -3523.144          30.783  
R17  21035148.558 6         0.00000      3624.342          33.013  
R08  23185970.277 6         0.00000     -2907.941          32.006  
C24         0.000 0         0.00000         0.000           0.000  
C27         0.000 0         0.00000         0.000           0.000  
C28         0.000 0         0.00000         0.000           0.000  
C30         0.000 0         0.00000         0.000           0.000  
C32         0.000 0         0.00000         0.000           0.000  
C33         0.000 0         0.00000         0.000           0.000  
E07  23508495.689 3     83597.55309      -351.478          40.248           0.000 0         0.00000         0.000           0.000  
E13  25823786.548 4         0.00000     -1913.101          31.683           0.000 0         0.00000         0.000           0.000  
> 2023 09 07 19 35 08.0002878  0 23
G02  23386610.281 5         0.00000      3316.271          33.885  
G08  22524417.358 4    112305.60609      -462.818          40.455  
G10  21165512.103 6         0.00000      -507.985          26.677  
G18  24769272.874 4    866155.66209     -3002.016          37.038  
G21  22522689.054 6         0.00000      2721.344          30.222  
G23  23283572.503 6         0.00000     -1908.793          28.480  
G27  22782908.900 5         0.00000     -2331.547          31.352  
G28  23603419.586 5  -1125053.38309      3832.530          33.685  
G32  20546225.426 5         0.00000       767.383          31.437  
R02  20704496.074 7         0.00000      2318.598          29.894  
R01  19716552.799 7    253378.09409      -939.025          30.175  
R24  19258380.598 5     73726.43109      -381.060          37.184  
R23  22040794.869 7         0.00000     -3518.743          30.191  
R17  21034455.750 6         0.00000      3626.347          33.930  
R08  23186509.908 6    843172.56709     -2918.055          32.535  
C24         0.000 0         0.00000         0.000           0.000  
C27         0.000 0         0.00000         0.000           0.000  
C28         0.000 0         0.00000         0.000           0.000  
C30         0.000 0         0.00000         0.000           0.000  
C32         0.000 0         0.00000         0.000           0.000  
C33         0.000 0         0.00000         0.000           0.000  
E07  23508561.651 3     83950.51509      -354.144          39.120           0.000 0         0.00000         0.000           0.000  
E13  25824141.206 5         0.00000     -1914.354          31.253           0.000 0         0.00000         0.000           0.000  
> 2023 09 07 19 35 09.0002878  0 23
G02  23385980.415 5   -980242.61909      3315.269          33.644  
G08  22524503.091 4    112766.60209      -460.779          40.840  
G10  21165626.628 6         0.00000      -512.794          26.065  
G18  24769838.592 4    869158.71109     -3004.077          36.673  
G21  22522175.808 5         0.00000      2719.607          31.411  
G23  23283926.568 6         0.00000     -1915.149          29.217  
G27  22783354.700 6         0.00000     -2328.594          29.857  
G28  23602685.386 5         0.00000      3834.382          34.437  
G32  20546082.125 5         0.00000       764.897          31.272  
R02  20704049.977 7         0.00000      2322.743          30.480  
R01  19716729.396 7    254318.10009      -940.830          30.550  
R24  19258446.856 5     74107.82709      -381.830          37.401  
R23  22041434.629 7         0.00000     -3522.644          30.648  
R17  21033765.628 6  -1083457.97009      3625.675          34.774  
R08  23187074.422 6    846092.43409     -2921.595          33.177  
C24         0.000 0         0.00000         0.000           0.000  
C27         0.000 0         0.00000         0.000           0.000  
C28         0.000 0         0.00000         0.000           0.000  
C30         0.000 0         0.00000         0.000           0.000  
C32         0.000 0         0.00000         0.000           0.000  
C33         0.000 0         0.00000         0.000           0.000  
E07  23508634.505 3     84305.61209      -355.731          39.080           0.000 0         0.00000         0.000           0.000  
E13  25824507.259 5         0.00000     -1920.785          31.222           0.000 0         0.00000         0.000           0.000  
> 2023 09 07 19 35 10.0002878  0 23
G02  23385360.444 5   -983559.16909      3317.760          33.839  
G08  22524585.840 4    113224.50709      -455.417          40.623  
G10  21165738.153 6         0.00000      -509.666          27.116  
G18  24770416.578 4    872163.85309     -3006.290          37.191  
G21  22521670.066 6         0.00000      2722.192          30.218  
G23  23284298.904 6         0.00000     -1920.651          29.882  
G27  22783796.296 6         0.00000     -2330.707          27.821  
G28  23601965.878 5  -1132721.66509      3835.318          34.306  
G32  20545918.442 5         0.00000       762.913          30.877  
R02  20703616.182 6   -695447.83909      2325.264          31.950  
R01  19716891.264 6    255259.47309      -942.635          31.308  
R24  19258530.199 5     74489.10809      -381.301          37.469  
R23  22042116.950 6         0.00000     -3523.806          32.420  
R17  21033088.700 6  -1087084.25009      3626.196          34.673  
R08  23187613.739 6    849016.75609     -2927.040          35.806  
C24         0.000 0         0.00000         0.000           0.000  
C27         0.000 0         0.00000         0.000           0.000  
C28         0.000 0         0.00000         0.000           0.000  
C30         0.000 0         0.00000         0.000           0.000  
C32         0.000 0         0.00000         0.000           0.000  
C33         0.000 0         0.00000         0.000           0.000  
E07  23508701.357 3     84662.50809      -358.296          39.432           0.000 0         0.00000         0.000           0.000  
E13  25824876.296 5         0.00000     -1920.979          31.002           0.000 0         0.00000         0.000           0.000  
> 2023 09 07 19 35 11.0002878  0 23
G02  23384720.980 5   -986877.93809      3319.596          36.213  
G08  22524672.481 4    113678.24609      -451.733          40.198  
G10  21165816.993 6         0.00000      -516.210          29.137  
G18  24770987.689 5    875172.56909     -3010.764          35.539  
G21  22521140.626 5   -814886.63209      2724.872          34.993  
G23  23284664.049 6         0.00000     -1925.516          30.312  
G27  22784220.196 6         0.00000     -2325.521          29.926  
G28  23601231.102 5         0.00000      3833.953          34.342  
G32  20545776.641 6         0.00000       766.441          29.164  
R02  20703193.764 6   -697775.52809      2329.288          34.300  
R01  19717071.141 7    256202.16909      -943.687          30.778  
R24  19258578.762 5     74870.16709      -381.200          38.910  
R23  22042792.396 6   1012520.82809     -3523.658          33.739  
R17  21032364.987 6         0.00000      3626.200          31.670  
R08  23188168.359 6    851946.47409     -2932.211          36.099  
C24         0.000 0         0.00000         0.000           0.000  
C27         0.000 0         0.00000         0.000           0.000  
C28         0.000 0         0.00000         0.000           0.000  
C30         0.000 0         0.00000         0.000           0.000  
C32         0.000 0         0.00000         0.000           0.000  
C33         0.000 0         0.00000         0.000           0.000  
E07  23508765.801 3     85021.51109      -360.451          39.802           0.000 0         0.00000         0.000           0.000  
E13  25825243.536 5         0.00000     -1920.546          31.289           0.000 0         0.00000         0.000           0.000  
> 2023 09 07 19 35 12.0002878  0 23
G02  23384084.519 4   -990199.25909      3321.583          39.553  
G08  22524762.419 4    114128.63609      -450.523          39.536  
G10  21165904.244 6         0.00000      -520.815          30.670  
G18  24771585.481 5         0.00000     -3012.271          32.189  
G21  22520618.394 5   -817612.59609      2726.020          35.792  
G23  23285019.301 5    553967.04409     -1928.169          30.946  
G27  22784667.184 5    221962.83109     -2323.261          32.304  
G28  23600498.699 5         0.00000      3834.414          33.095  
G32  20545647.737 6         0.00000       762.916          30.638  
R02  20702734.789 6   -700106.00009      2330.312          35.633  
R01  19717292.689 6         0.00000      -943.818          31.538  
R24  19258671.685 5     75251.57009      -381.962          38.892  
R23  22043443.533 6   1016045.65809     -3525.861          34.356  
R17  21031694.951 6         0.00000      3627.125          31.944  
R08  23188743.954 6    854879.67509     -2934.031          34.782  
C24         0.000 0         0.00000         0.000           0.000  
C27         0.000 0         0.00000         0.000           0.000  
C28         0.000 0         0.00000         0.000           0.000  
C30         0.000 0         0.00000         0.000           0.000  
C32         0.000 0         0.00000         0.000           0.000  
C33         0.000 0         0.00000         0.000           0.000  
E07  23508838.359 3     85382.39609      -361.329          39.989           0.000 0         0.00000         0.000           0.000  
E13  25825606.885 4         0.00000     -1921.172          31.818           0.000 0         0.00000         0.000           0.000  
> 2023 09 07 19 35 13.0002878  0 23
G02  23383462.750 4   -993521.80109      3322.580          37.551  
G08  22524849.967 4    114576.98309      -446.596          38.826  
G10  21166009.765 5         0.00000      -521.062          31.219  
G18  24772137.990 5         0.00000     -3013.823          30.792  
G21  22520099.145 5   -820339.87509      2727.637          34.905  
G23  23285385.354 5         0.00000     -1932.910          31.165  
G27  22785112.688 5         0.00000     -2319.347          31.687  
G28  23599767.203 5         0.00000      3830.318          30.931  
G32  20545487.334 6         0.00000       764.673          29.760  
R02  20702295.898 6   -702438.47609      2334.164          36.504  
R01  19717449.793 6    258089.81509      -944.362          33.148  
R24  19258721.156 5     75633.10109      -380.994          38.517  
R23  22044130.060 6   1019570.76409     -3524.435          35.439  
R17  21030998.827 6         0.00000      3631.818          33.110  
R08  23189275.488 6         0.00000     -2937.058          32.888  
C24         0.000 0         0.00000         0.000           0.000  
C27         0.000 0         0.00000         0.000           0.000  
C28         0.000 0         0.00000         0.000           0.000  
C30         0.000 0         0.00000         0.000           0.000  
C32         0.000 0         0.00000         0.000           0.000  
C33         0.000 0         0.00000         0.000           0.000  
E07  23508904.007 3     85744.11209      -362.176          39.177           0.000 0         0.00000         0.000           0.000  
E13  25825982.535 5         0.00000     -1927.036          30.956           0.000 0         0.00000         0.000           0.000  
> 2023 09 07 19 35 14.0002878  0 23
G02  23382817.301 4   -996845.17509      3322.829          36.737  
G08  22524931.198 4    115022.13609      -443.634          39.715  
G10  21166106.893 5    137514.07909      -525.360          34.435  
G18  24772718.698 5         0.00000     -3015.506          31.070  
G21  22519587.697 4   -823067.99409      2727.595          37.219  
G23  23285769.678 5         0.00000     -1936.598          32.541  
G27  22785556.970 5    226601.02209     -2314.341          33.662  
G28  23599040.803 5  -1148056.56409      3832.946          32.842  
G32  20545356.039 6         0.00000       767.712          29.611  
R02  20701845.002 5   -704774.25509      2337.315          37.147  
R01  19717638.063 6         0.00000      -946.936          32.420  
R24  19258804.498 5     76014.11209      -380.474          38.402  
R23  22044805.488 6   1023094.93409     -3522.511          34.433  
R17  21030294.326 6         0.00000      3630.010          35.066  
R08  23189848.099 6         0.00000     -2943.623          34.119  
C24         0.000 0         0.00000         0.000           0.000  
C27         0.000 0         0.00000         0.000           0.000  
C28         0.000 0         0.00000         0.000           0.000  
C30         0.000 0         0.00000         0.000           0.000  
C32         0.000 0         0.00000         0.000           0.000  
C33         0.000 0         0.00000         0.000           0.000  
E07  23508972.970 3     86107.73909      -364.614          39.984           0.000 0         0.00000         0.000           0.000  
E13  25826340.788 4         0.00000     -1925.320          33.110           0.000 0         0.00000         0.000           0.000  
> 2023 09 07 19 35 15.0002878  0 21
G02  23382186.232 5  -1000167.94509      3322.365          36.043  
G08  22525017.838 4    115464.43709      -441.179          40.172  
G10  21166217.824 5         0.00000      -529.812          31.758  
G18  24773277.803 5    887220.30309     -3014.437          36.301  
G23  23286134.824 5         0.00000     -1942.619          31.863  
G27  22785994.674 5         0.00000     -2309.504          32.293  
G28  23598310.215 5  -1151890.30209      3834.934          34.063  
G32  20545232.526 6         0.00000       766.868          27.145  
R02  20701399.219 6   -707113.04109      2339.980          35.948  
R01  19717796.337 6         0.00000      -946.329          30.909  
R24  19258862.957 5     76394.79209      -380.941          37.634  
R23  22045453.938 6         0.00000     -3521.682          32.452  
R17  21029623.994 6         0.00000      3626.722          32.745  
R08  23190395.809 5    863702.07709     -2951.024          37.623  
C24         0.000 0         0.00000         0.000           0.000  
C27         0.000 0         0.00000         0.000           0.000  
C30         0.000 0         0.00000         0.000           0.000  
C32         0.000 0         0.00000         0.000           0.000  
C33         0.000 0         0.00000         0.000           0.000  
E07  23509041.619 3     86473.76609      -367.261          40.240           0.000 0         0.00000         0.000           0.000  
E13  25826706.528 5         0.00000     -1925.698          30.695           0.000 0         0.00000         0.000           0.000  
> 2023 09 07 19 35 16.0002878  0 23
G02  23381553.679 5  -1003492.02209      3325.712          35.802  
G08  22525095.491 4    115902.43409      -435.451          40.145  
G10  21166323.049 6         0.00000      -532.383          30.619  
G18  24773857.604 5    890237.91609     -3019.901          35.904  
G21  22518551.921 5         0.00000      2729.473          31.114  
G23  23286507.770 6         0.00000     -1949.784          30.384  
G27  22786436.862 5    231220.46409     -2304.612          31.047  
G28  23597584.129 5  -1155724.38309      3832.739          35.394  
G32  20545040.347 6         0.00000       768.838          27.216  
R02  20700975.004 6   -709455.91509      2345.549          34.566  
R01  19717964.836 7    260935.66309      -952.237          30.676  
R24  19258940.907 6     76775.01909      -380.268          36.397  
R23  22046149.469 6   1030138.57509     -3522.238          31.663  
R17  21028931.464 6         0.00000      3625.209          31.033  
R08  23190975.017 6    866655.63909     -2958.121          36.495  
C24         0.000 0         0.00000         0.000           0.000  
C27         0.000 0         0.00000         0.000           0.000  
C28         0.000 0         0.00000         0.000           0.000  
C30         0.000 0         0.00000         0.000           0.000  
C32         0.000 0         0.00000         0.000           0.000  
C33         0.000 0         0.00000         0.000           0.000  
E07  23509115.364 3     86842.45709      -369.879          39.753           0.000 0         0.00000         0.000           0.000  
E13  25827082.475 5         0.00000     -1922.500          30.765           0.000 0         0.00000         0.000           0.000  
> 2023 09 07 19 35 17.0002878  0 23
G02  23380930.113 4  -1006819.86309      3329.207          36.762  
G08  22525183.632 4    116333.89909      -428.186          39.879  
G10  21166412.691 5         0.00000      -536.776          33.884  
G18  24774430.809 5         0.00000     -3024.162          35.227  
G21  22518035.081 5   -831256.48609      2733.811          33.842  
G23  23286862.131 5    563674.00809     -1957.175          31.885  
G27  22786878.754 6         0.00000     -2298.382          29.124  
G28  23596850.521 5  -1159558.23109      3834.023          36.250  
G32  20544919.242 6         0.00000       766.134          27.845  
R02  20700514.824 6   -711804.90809      2351.835          34.675  
R01  19718188.181 6    261887.44409      -952.267          31.380  
R24  19259023.342 6     77153.65009      -377.567          34.867  
R23  22046820.988 6   1033660.41309     -3521.329          31.518  
R17  21028231.746 7         0.00000      3628.420          28.092  
R08  23191528.433 6         0.00000     -2963.309          35.988  
C24         0.000 0         0.00000         0.000           0.000  
C27         0.000 0         0.00000         0.000           0.000  
C28         0.000 0         0.00000         0.000           0.000  
C30         0.000 0         0.00000         0.000           0.000  
C32         0.000 0         0.00000         0.000           0.000  
C33         0.000 0         0.00000         0.000           0.000  
E07  23509187.922 3     87213.03909      -371.423          39.624           0.000 0         0.00000         0.000           0.000  
E13  25827444.323 5         0.00000     -1928.747          28.476           0.000 0         0.00000         0.000           0.000  
> 2023 09 07 19 35 18.0002878  0 23
G02  23380296.338 5  -1010148.72009      3328.143          36.517  
G08  22525259.471 4    116760.44309      -424.597          39.870  
G10  21166524.215 5    139643.31409      -541.205          34.542  
G18  24775008.498 5         0.00000     -3025.516          35.101  
G21  22517502.047 5   -833989.83509      2732.296          33.946  
G23  23287246.769 5    565634.35409     -1963.180          32.941  
G27  22787316.755 6         0.00000     -2290.443          29.928  
G28  23596118.432 5  -1163394.26109      3837.919          35.649  
G32  20544768.438 5         0.00000       766.103          33.261  
R02  20700065.743 6   -714158.88309      2355.952          34.805  
R01  19718343.174 6    262841.44109      -955.247          31.173  
R24  19259125.286 7         0.00000      -376.392          30.558  
R23  22047473.050 6   1037179.91209     -3517.462          31.360  
R17  21027542.828 6         0.00000      3627.657          31.732  
R08  23192091.133 6    872582.99909     -2971.329          36.078  
C24         0.000 0         0.00000         0.000           0.000  
C27         0.000 0         0.00000         0.000           0.000  
C28         0.000 0         0.00000         0.000           0.000  
C30         0.000 0         0.00000         0.000           0.000  
C32         0.000 0         0.00000         0.000           0.000  
C33         0.000 0         0.00000         0.000           0.000  
E07  23509252.365 3     87585.67809      -373.922          39.626           0.000 0         0.00000         0.000           0.000  
E13  25827812.470 5         0.00000     -1926.451          28.846           0.000 0         0.00000         0.000           0.000  
> 2023 09 07 19 35 19.0002878  0 23
G02  23379653.298 5  -1013476.64109      3327.528          35.759  
G08  22525338.625 4    117183.66109      -422.217          40.976  
G10  21166610.245 5         0.00000      -547.813          32.833  
G18  24775574.514 5         0.00000     -3023.142          35.542  
G21  22516978.610 5   -836722.32509      2731.742          32.665  
G23  23287630.796 6         0.00000     -1971.349          30.523  
G27  22787739.766 5    238107.82509     -2286.347          33.735  
G28  23595392.940 5  -1167233.59009      3840.441          35.539  
G32  20544622.135 5   -227236.32309       764.498          33.659  
R02  20699624.444 6   -716516.32409      2358.664          35.155  
R01  19718523.644 7    263799.33309      -959.887          29.395  
R24  19259186.135 6         0.00000      -375.645          26.430  
R23  22048132.895 6   1040696.42109     -3515.463          32.449  
R17  21026842.516 6  -1119726.46809      3624.246          33.270  
R08  23192665.838 6    875557.60209     -2977.551          34.625  
C24         0.000 0         0.00000         0.000           0.000  
C27         0.000 0         0.00000         0.000           0.000  
C28         0.000 0         0.00000         0.000           0.000  
C30         0.000 0         0.00000         0.000           0.000  
C32         0.000 0         0.00000         0.000           0.000  
C33         0.000 0         0.00000         0.000           0.000  
E07  23509327.017 3     87961.33809      -377.324          39.979           0.000 0         0.00000         0.000           0.000  
E13  25828166.517 5         0.00000     -1929.448          28.706           0.000 0         0.00000         0.000           0.000  
> 2023 09 07 19 35 20.0002878  0 23
G02  23379023.729 5  -1016803.89809      3327.203          34.403  
G08  22525424.655 4    117604.52609      -420.918          40.832  
G10  21166728.365 5         0.00000      -550.778          31.352  
G18  24776160.614 4    902333.23809     -3021.677          38.107  
G21  22516454.266 5         0.00000      2727.830          30.824  
G23  23287991.754 6         0.00000     -1970.766          26.593  
G27  22788183.751 5    240391.90409     -2282.831          34.252  
G28  23594661.444 5  -1171075.40509      3842.586          35.712  
G32  20544476.146 5   -228001.30909       765.727          32.718  
R02  20699157.668 6   -718876.38109      2360.324          36.461  
R01  19718698.426 7    264759.43809      -961.554          29.491  
R24  19259278.167 6         0.00000      -376.576          23.590  
R23  22048805.619 6         0.00000     -3512.611          31.377  
R17  21026162.586 6  -1123350.34809      3622.709          31.412  
R08  23193220.459 6         0.00000     -2982.968          32.080  
C24         0.000 0         0.00000         0.000           0.000  
C27         0.000 0         0.00000         0.000           0.000  
C28         0.000 0         0.00000         0.000           0.000  
C30         0.000 0         0.00000         0.000           0.000  
C32         0.000 0         0.00000         0.000           0.000  
C33         0.000 0         0.00000         0.000           0.000  
E07  23509399.261 3     88338.89509      -378.469          39.937           0.000 0         0.00000         0.000           0.000  
E13  25828542.465 6         0.00000     -1929.577          27.552           0.000 0         0.00000         0.000           0.000  
> 2023 09 07 19 35 21.0002878  0 23
G02  23378395.957 5  -1020129.56209      3325.486          34.600  
G08  22525505.310 4    118025.40209      -421.389          40.383  
G10  21166828.495 6         0.00000      -549.798          30.416  
G18  24776730.818 4    905354.46509     -3020.031          40.060  
G21  22515956.620 6         0.00000      2730.087          28.031  
G23  23288358.697 6         0.00000     -1971.384          27.432  
G27  22788620.862 5    242674.38609     -2281.517          33.776  
G28  23593931.746 5  -1174918.62509      3844.749          35.353  
G32  20544334.643 5         0.00000       760.942          32.832  
R02  20698732.860 5   -721236.71409      2360.565          37.496  
R01  19718885.789 6    265721.90609      -962.431          31.228  
R24  19259277.277 6         0.00000      -377.062          25.329  
R23  22049481.064 6   1047723.39709     -3511.777          31.092  
R17  21025449.675 6  -1126972.07909      3620.867          33.077  
R08  23193810.451 7         0.00000     -2984.893          30.386  
C24         0.000 0         0.00000         0.000           0.000  
C27         0.000 0         0.00000         0.000           0.000  
C28         0.000 0         0.00000         0.000           0.000  
C30         0.000 0         0.00000         0.000           0.000  
C32         0.000 0         0.00000         0.000           0.000  
C33         0.000 0         0.00000         0.000           0.000  
E07  23509470.912 3     88718.33109      -378.515          39.915           0.000 0         0.00000         0.000           0.000  
E13  25828919.896 5         0.00000     -1939.026          28.397           0.000 0         0.00000         0.000           0.000  
> 2023 09 07 19 35 22.0002878  0 23
G02  23377754.696 5  -1023453.34709      3322.922          33.983  
G08  22525589.542 4    118448.47509      -424.828          40.680  
G10  21166932.829 6         0.00000      -545.756          28.068  
G18  24777314.213 4    908373.68509     -3018.375          38.836  
G21  22515428.978 6         0.00000      2728.947          26.602  
G23  23288752.618 6         0.00000     -1971.717          29.001  
G27  22789049.561 5    244957.94109     -2284.474          32.412  
G28  23593194.858 5  -1178763.10809      3845.233          34.846  
G32  20544178.149 5   -229528.33709       762.825          32.671  
R02  20698263.694 5   -723595.18109      2357.553          38.667  
R01  19719080.655 6    266685.05409      -962.654          33.036  
R24  19259334.235 6         0.00000      -377.833          27.529  
R23  22050164.589 6   1051235.52409     -3511.700          30.997  
R17  21024764.946 6  -1130591.89209      3618.973          32.986  
R08  23194359.975 6    884502.03409     -2980.683          32.563  
C24         0.000 0         0.00000         0.000           0.000  
C27         0.000 0         0.00000         0.000           0.000  
C28         0.000 0         0.00000         0.000           0.000  
C30         0.000 0         0.00000         0.000           0.000  
C32         0.000 0         0.00000         0.000           0.000  
C33         0.000 0         0.00000         0.000           0.000  
E07  23509543.173 3     89097.64709      -378.507          40.027           0.000 0         0.00000         0.000           0.000  
E13  25829278.445 5         0.00000     -1936.879          29.386           0.000 0         0.00000         0.000           0.000  
> 2023 09 07 19 35 23.0002878  0 23
G02  23377130.834 5  -1026774.60809      3320.208          34.921  
G08  22525664.194 4    118874.97609      -427.952          40.490  
G10  21167046.448 6         0.00000      -546.785          25.319  
G18  24777880.822 4    911389.99109     -3015.080          40.033  
G21  22514891.756 6         0.00000      2726.807          29.228  
G23  23289119.858 5    575485.98209     -1966.472          32.432  
G27  22789483.356 5         0.00000     -2286.863          31.284  
G28  23592454.969 5         0.00000      3847.077          32.304  
G32  20544041.741 5         0.00000       762.495          32.563  
R02  20697827.194 5   -725950.79609      2354.481          40.433  
R01  19719256.047 6    267648.72409      -964.537          34.868  
R24  19259449.057 6         0.00000      -383.455          25.860  
R23  22050819.025 7         0.00000     -3508.859          29.137  
R17  21024105.415 6  -1134209.23609      3615.501          34.639  
R08  23194950.561 6    887481.68709     -2979.315          33.857  
C24         0.000 0         0.00000         0.000           0.000  
C27         0.000 0         0.00000         0.000           0.000  
C28         0.000 0         0.00000         0.000           0.000  
C30         0.000 0         0.00000         0.000           0.000  
C32         0.000 0         0.00000         0.000           0.000  
C33         0.000 0         0.00000         0.000           0.000  
E07  23509613.323 3     89476.29809      -378.557          39.848           0.000 0         0.00000         0.000           0.000  
E13  25829649.001 5         0.00000     -1929.794          29.638           0.000 0         0.00000         0.000           0.000  
> 2023 09 07 19 35 24.0002878  0 23
G02  23376502.172 5  -1030094.25309      3319.866          33.304  
G08  22525748.740 4    119302.59209      -427.040          40.822  
G10  21167144.483 6         0.00000      -550.097          25.548  
G18  24778452.526 4    914405.79109     -3015.545          39.511  
G21  22514391.702 6         0.00000      2723.953          29.279  
G23  23289506.293 5    577453.75409     -1968.753          31.793  
G27  22789930.344 5         0.00000     -2287.790          30.823  
G28  23591734.868 6         0.00000      3849.434          30.328  
G32  20543884.950 5   -231053.61609       761.865          32.853  
R02  20697372.406 5   -728305.45009      2354.778          41.245  
R01  19719440.706 6    268613.59609      -965.330          34.583  
R24  19259480.223 6         0.00000      -380.787          26.865  
R23  22051481.278 6         0.00000     -3509.314          26.527  
R17  21023423.984 6  -1137825.07609      3615.782          35.251  
R08  23195518.077 6    890461.91209     -2981.142          34.322  
C24         0.000 0         0.00000         0.000           0.000  
C27         0.000 0         0.00000         0.000           0.000  
C28         0.000 0         0.00000         0.000           0.000  
C30         0.000 0         0.00000         0.000           0.000  
C32         0.000 0         0.00000         0.000           0.000  
C33         0.000 0         0.00000         0.000           0.000  
E07  23509685.864 3     89855.91009      -380.411          38.995           0.000 0         0.00000         0.000           0.000  
E13  25830014.740 4         0.00000     -1928.011          31.678           0.000 0         0.00000         0.000           0.000  
> 2023 09 07 19 35 25.0002878  0 23
G02  23375860.022 5  -1033413.18809      3318.274          32.353  
G08  22525820.391 4    119730.04709      -427.228          40.676  
G10  21167253.006 6         0.00000      -550.938          25.730  
G18  24779025.434 4    917421.55609     -3015.788          38.809  
G21  22513868.859 6         0.00000      2723.115          27.863  
G23  23289869.048 5    579423.49109     -1970.931          30.877  
G27  22790348.852 5    251813.23409     -2284.349          31.362  
G28  23591009.672 6  -1190303.95009      3848.160          29.536  
G32  20543745.244 5   -231814.71709       760.530          33.461  
R02  20696933.202 5   -730660.32309      2355.054          40.928  
R01  19719645.467 6    269580.43709      -968.007          35.175  
R24  19259651.410 6         0.00000      -382.006          26.790  
R23  22052116.536 6         0.00000     -3510.818          26.362  
R17  21022727.563 6  -1141439.32509      3613.011          34.935  
R08  23196069.695 6    893444.66509     -2984.360          33.353  
C24         0.000 0         0.00000         0.000           0.000  
C27         0.000 0         0.00000         0.000           0.000  
C28         0.000 0         0.00000         0.000           0.000  
C30         0.000 0         0.00000         0.000           0.000  
C32         0.000 0         0.00000         0.000           0.000  
C33         0.000 0         0.00000         0.000           0.000  
E07  23509760.516 3     90237.16109      -382.560          38.752           0.000 0         0.00000         0.000           0.000  
E13  25830376.588 4         0.00000     -1918.749          32.033           0.000 0         0.00000         0.000           0.000  
> 2023 09 07 19 35 26.0002878  0 23
G02  23375232.547 5         0.00000      3317.215          33.000  
G08  22525907.031 3    120156.98409      -426.641          42.353  
G10  21167341.740 6         0.00000      -551.401          28.932  
G18  24779598.325 5    920437.93109     -3016.012          36.504  
G21  22513328.635 6         0.00000      2722.459          27.072  
G23  23290263.266 6         0.00000     -1979.660          28.204  
G27  22790793.152 5    254095.96209     -2281.974          32.873  
G28  23590256.590 6  -1194152.14409      3847.963          29.527  
G32  20543598.941 5   -232574.50609       759.182          35.708  
R02  20696466.129 5   -733015.68409      2356.071          39.746  
R01  19719810.947 6    270549.66209      -970.015          35.058  
R24  19259644.220 7     80575.04009      -381.853          29.685  
R23  22052800.357 6         0.00000     -3510.366          26.936  
R17  21022045.539 6         0.00000      3613.053          34.244  
R08  23196637.194 6    896430.25009     -2987.003          34.195  
C24         0.000 0         0.00000         0.000           0.000  
C27         0.000 0         0.00000         0.000           0.000  
C28         0.000 0         0.00000         0.000           0.000  
C30         0.000 0         0.00000         0.000           0.000  
C32         0.000 0         0.00000         0.000           0.000  
C33         0.000 0         0.00000         0.000           0.000  
E07  23509833.964 3     90620.59509      -384.262          37.834           0.000 0         0.00000         0.000           0.000  
E13  25830753.128 4         0.00000     -1926.299          32.017           0.000 0         0.00000         0.000           0.000  
> 2023 09 07 19 35 27.0002878  0 22
G02  23374598.790 5         0.00000      3318.100          32.409  
G08  22525988.873 3    120583.27209      -426.410          42.893  
G10  21167450.874 6    144582.82509      -556.576          30.465  
G21  22512828.285 6         0.00000      2721.115          29.549  
G23  23290617.628 6         0.00000     -1979.268          28.445  
G27  22791221.852 5    256376.91309     -2280.465          33.602  
G28  23589546.680 6         0.00000      3848.849          29.742  
G32  20543456.844 4   -233333.53809       758.578          36.878  
R02  20696031.427 5   -735371.80309      2356.100          39.482  
R01  19719999.217 6    271520.64809      -972.044          35.111  
R24  19259757.839 6     80957.51309      -383.168          30.876  
R23  22053481.788 7         0.00000     -3508.503          28.930  
R17  21021347.321 6         0.00000      3611.036          34.208  
R08  23197196.910 6    899418.72909     -2989.740          35.776  
C24         0.000 0         0.00000         0.000           0.000  
C27         0.000 0         0.00000         0.000           0.000  
C28         0.000 0         0.00000         0.000           0.000  
C30         0.000 0         0.00000         0.000           0.000  
C32         0.000 0         0.00000         0.000           0.000  
C33         0.000 0         0.00000         0.000           0.000  
E07  23509905.318 3     91005.60109      -385.939          37.439           0.000 0         0.00000         0.000           0.000  
E13  25831116.180 4         0.00000     -1929.239          32.411           0.000 0         0.00000         0.000           0.000  
> 2023 09 07 19 35 28.0002878  0 22
G02  23373962.921 5         0.00000      3314.509          32.162  
G08  22526068.009 3    121010.23809      -428.003          42.470  
G10  21167577.981 6    145140.56209      -558.225          30.227  
G21  22512311.741 5         0.00000      2719.668          31.850  
G23  23290992.964 6         0.00000     -1975.469          28.550  
G27  22791652.959 5    258657.24109     -2279.333          33.556  
G28  23588812.497 5  -1201850.71309      3849.490          31.092  
G32  20543307.244 4   -234090.99209       757.848          38.397  
R02  20695580.548 5   -737727.60409      2356.393          39.013  
R01  19720198.883 6    272494.14809      -973.763          35.001  
R24  19259830.990 6     81341.32509      -383.471          32.849  
R23  22054156.012 7         0.00000     -3504.874          28.175  
R17  21020647.305 6         0.00000      3607.700          34.531  
R08  23197768.910 6    902410.51409     -2992.650          36.466  
C24         0.000 0         0.00000         0.000           0.000  
C27         0.000 0         0.00000         0.000           0.000  
C28         0.000 0         0.00000         0.000           0.000  
C30         0.000 0         0.00000         0.000           0.000  
C32         0.000 0         0.00000         0.000           0.000  
C33         0.000 0         0.00000         0.000           0.000  
E07  23509978.469 3     91392.84009      -387.295          37.975           0.000 0         0.00000         0.000           0.000  
E13  25831481.919 4         0.00000     -1929.334          31.799           0.000 0         0.00000         0.000           0.000  
> 2023 09 07 19 35 29.0002878  0 23
G02  23373334.260 5         0.00000      3315.596          31.649  
G08  22526146.867 4    121436.46309      -426.310          41.479  
G10  21167663.714 6    145700.04209      -560.723          29.743  
G18  24781326.629 5         0.00000     -3016.906          31.350  
G21  22511803.887 5         0.00000      2719.221          31.843  
G23  23291379.696 6         0.00000     -1979.146          29.242  
G27  22792085.550 5    260936.58009     -2278.936          33.517  
G28  23588070.811 6         0.00000      3848.653          30.501  
G32  20543164.553 4   -234847.59309       755.782          38.480  
R02  20695131.153 5   -740083.80209      2356.479          38.364  
R01  19720363.177 6    273469.21509      -976.150          34.306  
R24  19259909.534 6     81726.09009      -385.387          32.560  
R23  22054787.990 6         0.00000     -3508.642          27.947  
R17  21019962.279 6  -1155881.75209      3604.216          35.523  
R08  23198353.213 6    905404.40209     -2995.337          36.491  
C24         0.000 0         0.00000         0.000           0.000  
C27         0.000 0         0.00000         0.000           0.000  
C28         0.000 0         0.00000         0.000           0.000  
C30         0.000 0         0.00000         0.000           0.000  
C32         0.000 0         0.00000         0.000           0.000  
C33         0.000 0         0.00000         0.000           0.000  
E07  23510056.419 4     91781.48209      -389.757          36.911           0.000 0         0.00000         0.000           0.000  
E13  25831852.160 4         0.00000     -1930.811          31.981           0.000 0         0.00000         0.000           0.000  
> 2023 09 07 19 35 30.0002878  0 23
G02  23372702.597 5         0.00000      3315.353          32.223  
G08  22526232.600 3    121862.56809      -425.545          42.418  
G10  21167778.833 5    146262.35709      -563.154          32.520  
G18  24781883.954 5         0.00000     -3016.555          32.387  
G21  22511267.869 5         0.00000      2718.822          34.251  
G23  23291738.856 5         0.00000     -1984.964          31.030  
G27  22792522.050 5    263215.22909     -2277.923          33.956  
G28  23587325.215 6         0.00000      3846.614          27.977  
G32  20543025.754 4   -235602.30309       754.095          39.116  
R02  20694669.769 5   -742440.02209      2357.043          37.712  
R01  19720563.139 6    274446.57709      -977.752          34.185  
R24  19259956.614 6     82112.67109      -387.129          33.716  
R23  22055497.585 7   1079311.72509     -3509.643          29.129  
R17  21019297.042 6         0.00000      3605.987          34.808  
R08  23198908.130 5    908401.01809     -2997.874          36.804  
C24         0.000 0         0.00000         0.000           0.000  
C27         0.000 0         0.00000         0.000           0.000  
C28         0.000 0         0.00000         0.000           0.000  
C30         0.000 0         0.00000         0.000           0.000  
C32         0.000 0         0.00000         0.000           0.000  
C33         0.000 0         0.00000         0.000           0.000  
E07  23510126.272 4         0.00000      -392.309          36.778           0.000 0         0.00000         0.000           0.000  
E13  25832219.121 5         0.00000     -1930.245          30.640           0.000 0         0.00000         0.000           0.000  
> 2023 09 07 19 35 31.0002878  0 23
G02  23372078.437 5         0.00000      3316.383          32.828  
G08  22526314.145 3    122287.77809      -425.441          42.554  
G10  21167884.669 5    146826.90209      -565.320          33.853  
G18  24782455.658 5         0.00000     -3021.963          31.099  
G21  22510754.309 5   -869420.51509      2718.472          33.389  
G23  23292124.681 5    591295.56909     -1986.219          31.570  
G27  22792955.548 5    265493.29609     -2278.716          33.863  
G28  23586606.022 6         0.00000      3848.409          29.535  
G32  20542877.654 4   -236355.33209       751.878          38.486  
R02  20694238.365 5   -744796.75609      2356.183          37.037  
R01  19720761.303 6    275425.37209      -979.228          33.792  
R24  19260048.036 6     82500.82309      -389.406          33.789  
R23  22056190.708 7         0.00000     -3509.211          29.121  
R17  21018600.918 6  -1163093.67209      3605.975          34.797  
R08  23199496.011 6    911399.52109     -2998.584          36.415  
C24         0.000 0         0.00000         0.000           0.000  
C27         0.000 0         0.00000         0.000           0.000  
C28         0.000 0         0.00000         0.000           0.000  
C30         0.000 0         0.00000         0.000           0.000  
C32         0.000 0         0.00000         0.000           0.000  
C33         0.000 0         0.00000         0.000           0.000  
E07  23510201.814 4         0.00000      -393.815          36.423           0.000 0         0.00000         0.000           0.000  
E13  25832583.970 5         0.00000     -1928.457          29.550           0.000 0         0.00000         0.000           0.000  
> 2023 09 07 19 35 32.0002878  0 23
G02  23371440.771 5  -1056647.72009      3315.790          32.508  
G08  22526391.798 3    122713.85609      -426.897          42.218  
G10  21167989.301 5    147392.75209      -566.627          36.379  
G18  24783053.136 5         0.00000     -3025.323          32.921  
G21  22510235.078 5   -872139.81609      2719.623          32.511  
G23  23292512.616 5    593281.91009     -1986.926          31.796  
G27  22793393.845 5    267772.48709     -2279.818          34.745  
G28  23585877.824 5         0.00000      3847.416          31.475  
G32  20542739.152 4   -237106.40609       750.424          38.153  
R02  20693783.891 5   -747152.55109      2355.053          36.761  
R01  19720913.888 6    276405.37509      -980.450          33.565  
R24  19260106.197 6     82891.35709      -392.212          33.290  
R23  22056845.457 7   1086336.04909     -3513.770          30.737  
R17  21017917.986 6  -1166699.63709      3605.088          34.808  
R08  23200046.129 6    914398.40309     -2998.670          33.819  
C24         0.000 0         0.00000         0.000           0.000  
C27         0.000 0         0.00000         0.000           0.000  
C28         0.000 0         0.00000         0.000           0.000  
C30         0.000 0         0.00000         0.000           0.000  
C32         0.000 0         0.00000         0.000           0.000  
C33         0.000 0         0.00000         0.000           0.000  
E07  23510281.562 4         0.00000      -395.746          35.575           0.000 0         0.00000         0.000           0.000  
E13  25832949.413 5         0.00000     -1935.069          30.244           0.000 0         0.00000         0.000           0.000  
> 2023 09 07 19 35 33.0002878  0 23
G02  23370808.812 6         0.00000      3316.397          30.605  
G08  22526478.124 4    123140.53409      -426.820          42.078  
G10  21168102.308 4    147960.14409      -569.266          38.004  
G18  24783618.837 4    941589.15409     -3026.031          37.461  
G21  22509726.631 5         0.00000      2717.609          31.250  
G23  23292877.762 6         0.00000     -1987.644          30.513  
G27  22793822.248 5    270052.86109     -2280.799          35.817  
G28  23585134.934 5  -1221087.19109      3842.532          34.526  
G32  20542597.648 4   -237855.13609       747.192          36.788  
R02  20693334.496 6   -749507.31309      2354.505          36.341  
R01  19721124.948 6    277386.79709      -982.470          32.834  
R24  19260198.230 6         0.00000      -394.207          30.917  
R23  22057498.410 6   1089851.38509     -3517.266          31.609  
R17  21017237.166 6         0.00000      3605.271          35.037  
R08  23200655.019 6         0.00000     -2998.007          30.883  
C24         0.000 0         0.00000         0.000           0.000  
C27         0.000 0         0.00000         0.000           0.000  
C28         0.000 0         0.00000         0.000           0.000  
C30         0.000 0         0.00000         0.000           0.000  
C32         0.000 0         0.00000         0.000           0.000  
C33         0.000 0         0.00000         0.000           0.000  
E07  23510351.712 4         0.00000      -397.386          34.056           0.000 0         0.00000         0.000           0.000  
E13  25833325.657 5         0.00000     -1940.970          30.348           0.000 0         0.00000         0.000           0.000  
> 2023 09 07 19 35 34.0002878  0 22
G02  23370190.045 6         0.00000      3318.008          30.205  
G08  22526555.481 3    123564.84909      -422.214          43.451  
G10  21168203.642 4    148528.52509      -569.005          37.584  
G18  24784199.842 4    944615.97609     -3029.009          38.342  
G21  22509191.799 6         0.00000      2720.061          30.233  
G23  23293248.004 6    597260.52809     -1992.769          29.484  
G27  22794257.858 4    272331.34809     -2277.183          36.729  
G28  23584421.726 5  -1224930.33709      3842.787          36.029  
G32  20542454.347 4   -238604.37909       749.975          36.932  
R02  20692895.902 6   -751864.40009      2359.592          36.287  
R01  19721317.407 6    278368.05209      -980.464          32.354  
R24  19260260.894 6         0.00000      -393.198          31.968  
R23  22058163.647 6         0.00000     -3517.621          31.220  
R17  21016550.936 6  -1173911.72309      3608.486          35.593  
R08  23201195.836 6    920398.94009     -3002.686          31.335  
C24         0.000 0         0.00000         0.000           0.000  
C27         0.000 0         0.00000         0.000           0.000  
C30         0.000 0         0.00000         0.000           0.000  
C32         0.000 0         0.00000         0.000           0.000  
C33         0.000 0         0.00000         0.000           0.000  
E07  23510427.864 4         0.00000      -397.091          34.830           0.000 0         0.00000         0.000           0.000  
E13  25833694.694 5         0.00000     -1933.568          31.043           0.000 0         0.00000         0.000           0.000  
> 2023 09 07 19 35 35.0002878  0 23
G02  23369548.784 5  -1066605.12709      3324.116          33.898  
G08  22526639.417 3    123984.84809      -417.803          42.622  
G10  21168325.357 5    149096.93809      -568.185          34.680  
G18  24784790.427 5         0.00000     -3033.057          35.099  
G21  22508696.841 6   -880305.17609      2727.401          30.650  
G23  23293641.942 6         0.00000     -1995.961          29.243  
G27  22794697.342 5    274607.22009     -2275.365          35.393  
G28  23583676.148 5  -1228771.68909      3839.957          35.537  
G32  20542309.841 4   -239354.74409       750.992          37.288  
R02  20692438.706 6   -754225.32409      2362.350          36.289  
R01  19721492.485 6    279347.81609      -978.962          33.156  
R24  19260319.963 6     84068.07709      -391.089          33.957  
R23  22058792.308 7         0.00000     -3520.256          28.263  
R17  21015871.617 6  -1177521.63709      3611.532          33.538  
R08  23201803.819 7         0.00000     -3005.407          29.399  
C24         0.000 0         0.00000         0.000           0.000  
C27         0.000 0         0.00000         0.000           0.000  
C28         0.000 0         0.00000         0.000           0.000  
C30         0.000 0         0.00000         0.000           0.000  
C32         0.000 0         0.00000         0.000           0.000  
C33         0.000 0         0.00000         0.000           0.000  
E07  23510507.594 4         0.00000      -397.052          36.161           0.000 0         0.00000         0.000           0.000  
E13  25834063.435 5         0.00000     -1938.042          29.733           0.000 0         0.00000         0.000           0.000  
> 2023 09 07 19 35 36.0002878  0 22
G02  23368924.625 5  -1069933.94109      3332.581          33.269  
G08  22526714.365 3    124400.57309      -414.086          42.694  
G10  21168419.204 5    149663.77309      -565.819          33.400  
G18  24785354.942 5    950681.76609     -3040.077          36.187  
G21  22508156.617 6         0.00000      2732.176          30.050  
G23  23294005.587 6         0.00000     -1998.422          27.618  
G27  22795121.853 5    276882.27309     -2277.180          34.285  
G28  23582949.154 5  -1232608.44809      3832.483          35.274  
G32  20542165.650 4   -240106.91909       751.748          36.897  
R02  20691983.640 6         0.00000      2367.941          34.030  
R01  19721670.268 6    280323.54409      -973.246          33.463  
R24  19260417.684 5     84458.08909      -391.113          37.214  
R23  22059499.217 6   1100407.77609     -3526.076          31.230  
R17  21015148.811 7         0.00000      3616.553          30.444  
R08  23202371.632 7         0.00000     -3006.426          29.285  
C24         0.000 0         0.00000         0.000           0.000  
C27         0.000 0         0.00000         0.000           0.000  
C30         0.000 0         0.00000         0.000           0.000  
C32         0.000 0         0.00000         0.000           0.000  
C33         0.000 0         0.00000         0.000           0.000  
E07  23510579.245 3         0.00000      -394.666          39.001           0.000 0         0.00000         0.000           0.000  
E13  25834426.783 4         0.00000     -1945.007          31.805           0.000 0         0.00000         0.000           0.000  
> 2023 09 07 19 35 37.0002878  0 21
G02  23368286.959 5  -1073270.45309      3339.604          35.193  
G08  22526790.222 4    124814.43809      -413.336          40.844  
G10  21168526.523 5    150227.71809      -563.161          32.637  
G18  24785935.040 4    953726.08209     -3047.538          37.475  
G21  22507645.169 5         0.00000      2741.418          31.847  
G23  23294400.102 6         0.00000     -1994.384          29.553  
G27  22795559.557 5    279161.24109     -2281.539          33.817  
G28  23582216.158 5  -1236436.34309      3822.945          33.703  
G32  20542022.942 5         0.00000       755.172          32.399  
R02  20691558.832 6         0.00000      2367.094          33.328  
R01  19721860.929 6         0.00000      -973.002          32.681  
R24  19260493.226 5     84849.79709      -392.430          38.072  
R23  22060187.244 6   1103938.73509     -3535.001          33.242  
R17  21014476.978 6         0.00000      3625.525          33.456  
R08  23202915.747 6    929402.23709     -2994.098          33.641  
C24         0.000 0         0.00000         0.000           0.000  
C27         0.000 0         0.00000         0.000           0.000  
C28         0.000 0         0.00000         0.000           0.000  
C30         0.000 0         0.00000         0.000           0.000  
C32         0.000 0         0.00000         0.000           0.000  
C33         0.000 0         0.00000         0.000           0.000  
> 2023 09 07 19 35 38.0002878  0 20
G02  23367650.794 5  -1076612.50909      3344.343          35.517  
G08  22526875.065 4    125227.96509      -413.470          38.237  
G10  21168635.046 5         0.00000      -560.316          33.449  
G18  24786510.949 4    956777.98909     -3056.232          38.499  
G21  22507126.531 5   -888518.05309      2744.325          33.703  
G23  23294779.051 6    605240.28809     -1998.104          30.537  
G27  22795995.149 5         0.00000     -2286.528          34.497  
G28  23581486.163 5         0.00000      3811.367          31.151  
R02  20691096.854 6   -761320.19509      2364.193          33.903  
R01  19722042.010 6         0.00000      -965.401          34.119  
R24  19260549.887 5     85244.69409      -396.791          37.767  
R23  22060845.588 6   1107477.50509     -3542.743          35.237  
R17  21013791.656 6  -1188387.44909      3629.525          36.631  
R08  23203486.544 6    932395.77009     -2992.339          32.948  
C24         0.000 0         0.00000         0.000           0.000  
C27         0.000 0         0.00000         0.000           0.000  
C28         0.000 0         0.00000         0.000           0.000  
C30         0.000 0         0.00000         0.000           0.000  
C32         0.000 0         0.00000         0.000           0.000  
C33         0.000 0         0.00000         0.000           0.000  
> 2023 09 07 19 35 39.0002878  0 20
G02  23367009.550 5  -1079959.87709      3350.020          36.470  
G08  22526947.605 5    125640.21509      -411.860          36.253  
G10  21168742.068 4    151352.28709      -561.684          36.598  
G18  24787100.034 4    959836.92909     -3063.333          36.607  
G21  22506603.688 4   -891265.56309      2749.878          37.061  
G23  23295159.780 5    607238.36309     -1998.930          33.495  
G27  22796434.651 5    283732.27209     -2289.159          34.573  
G28  23580766.062 5  -1244068.64009      3808.458          30.830  
G32  20541733.949 5   -242353.58809       747.069          32.294  
R02  20690657.947 6   -763685.10609      2364.901          32.851  
R01  19722226.075 6    283229.43209      -964.819          33.478  
R24  19260628.448 5     85642.08409      -398.764          37.145  
R23  22061536.303 6   1111023.83209     -3550.718          33.331  
R17  21013094.624 5  -1192020.12109      3635.001          38.157  
R08  23204054.060 6    935386.86709     -2989.963          34.563  
C27         0.000 0         0.00000         0.000           0.000  
C28         0.000 0         0.00000         0.000           0.000  
C30         0.000 0         0.00000         0.000           0.000  
C32         0.000 0         0.00000         0.000           0.000  
C33         0.000 0         0.00000         0.000           0.000  
> 2023 09 07 19 35 40.0002878  0 20
G02  23366371.588 4  -1083312.46309      3355.573          38.004  
G08  22527029.447 5    126051.54209      -410.731          35.689  
G10  21168856.001 4    151914.05909      -561.923          38.335  
G18  24787675.943 5    962903.27509     -3070.765          35.496  
G21  22506080.844 4   -894017.48709      2754.002          36.613  
G23  23295547.122 5    609238.46809     -2001.587          31.689  
G27  22796862.739 5    286023.03709     -2292.537          34.048  
G28  23580057.357 5  -1247873.20109      3800.069          31.624  
G32  20541602.636 5   -243099.28509       744.683          35.526  
R02  20690198.971 6   -766049.88209      2364.847          34.634  
R01  19722416.456 6    284193.70809      -963.390          33.474  
R24  19260693.188 6     86042.43709      -401.681          35.896  
R23  22062160.776 7         0.00000     -3560.297          29.415  
R17  21012392.515 5  -1195657.36109      3639.896          36.844  
R08  23204653.056 7         0.00000     -2990.003          30.284  
C27         0.000 0         0.00000         0.000           0.000  
C28         0.000 0         0.00000         0.000           0.000  
C30         0.000 0         0.00000         0.000           0.000  
C32         0.000 0         0.00000         0.000           0.000  
C33         0.000 0         0.00000         0.000           0.000  
> 2023 09 07 19 35 41.0002878  0 20
G02  23365738.721 5         0.00000      3360.643          35.350  
G08  22527106.193 4    126461.63209      -409.737          37.327  
G10  21168953.722 4    152475.93409      -562.850          36.648  
G18  24788274.625 5         0.00000     -3074.263          33.057  
G21  22505545.419 4   -896773.44209      2756.779          36.929  
G23  23295924.256 6         0.00000     -2003.232          28.585  
G27  22797300.147 5    288316.59309     -2295.210          32.262  
G28  23579322.563 5  -1251671.15209      3794.991          33.598  
G32  20541461.133 4   -243843.00309       742.286          36.571  
R02  20689736.383 5   -768414.92809      2364.772          37.260  
R01  19722593.018 6    285156.49809      -962.883          32.747  
R24  19260796.912 6     86445.41609      -404.641          33.190  
R23  22062834.407 6         0.00000     -3566.346          24.426  
R17  21011718.290 5  -1199298.42409      3642.305          39.230  
R08  23205179.180 7         0.00000     -2984.570          30.051  
C27         0.000 0         0.00000         0.000           0.000  
C28         0.000 0         0.00000         0.000           0.000  
C30         0.000 0         0.00000         0.000           0.000  
C32         0.000 0         0.00000         0.000           0.000  
C33         0.000 0         0.00000         0.000           0.000  
> 2023 09 07 19 35 42.0002878  0 21
G02  23365087.880 5  -1090029.84209      3360.809          34.626  
G08  22527177.843 4    126870.68009      -408.596          37.722  
G10  21169063.449 5    153039.28809      -564.025          34.099  
G18  24788853.519 5    969054.26409     -3078.923          31.136  
G21  22505033.377 4   -899531.34909      2758.482          37.351  
G23  23296291.199 6         0.00000     -2005.826          26.351  
G27  22797735.146 5    290611.22309     -2294.751          32.100  
G28  23578595.569 5  -1255465.04409      3791.741          32.022  
G32  20541320.519 5   -244584.76409       740.855          35.516  
R02  20689292.991 5   -770780.30709      2365.793          36.727  
R01  19722794.498 6    286119.69109      -963.526          33.858  
R24  19260852.683 7         0.00000      -407.851          29.995  
R23  22063526.029 6         0.00000     -3566.846          24.147  
R17  21011021.870 5  -1202940.94009      3642.755          38.520  
R08  23205752.088 7         0.00000     -2985.670          29.686  
C24         0.000 0         0.00000         0.000           0.000  
C27         0.000 0         0.00000         0.000           0.000  
C28         0.000 0         0.00000         0.000           0.000  
C30         0.000 0         0.00000         0.000           0.000  
C32         0.000 0         0.00000         0.000           0.000  
C33         0.000 0         0.00000         0.000           0.000  
> 2023 09 07 19 35 43.0002878  0 21
G02  23364460.108 5  -1093391.88909      3362.880          34.885  
G08  22527261.185 4    127278.31209      -406.584          37.621  
G10  21169165.375 5    153604.23509      -565.449          32.751  
G18  24789428.224 5         0.00000     -3082.728          32.140  
G21  22504501.547 4   -902290.97909      2760.569          39.647  
G23  23296678.838 6         0.00000     -2009.892          25.832  
G27  22798159.343 5    292905.63509     -2294.187          32.559  
G28  23577885.660 5  -1259256.41609      3790.512          32.628  
G32  20541180.516 5   -245325.24309       739.956          34.747  
R02  20688832.514 6   -773146.70109      2367.084          36.331  
R01  19722969.558 6    287083.28509      -963.531          34.541  
R24  19260925.538 7         0.00000      -407.648          28.957  
R23  22064246.740 6         0.00000     -3567.418          23.237  
R17  21010320.650 5  -1206584.86609      3644.841          37.876  
R08  23206345.972 7         0.00000     -2990.531          29.411  
C24         0.000 0         0.00000         0.000           0.000  
C27         0.000 0         0.00000         0.000           0.000  
C28         0.000 0         0.00000         0.000           0.000  
C30         0.000 0         0.00000         0.000           0.000  
C32         0.000 0         0.00000         0.000           0.000  
C33         0.000 0         0.00000         0.000           0.000  
> 2023 09 07 19 35 44.0002878  0 20
G02  23363811.065 4  -1096756.34809      3365.407          36.808  
G08  22527335.838 4    127684.28909      -405.194          37.845  
G10  21169268.210 6         0.00000      -568.101          30.018  
G18  24790026.610 5         0.00000     -3086.935          30.738  
G21  22503983.206 4   -905052.68009      2762.633          39.732  
G23  23297084.748 6         0.00000     -2007.759          27.786  
G27  22798605.144 5    295199.53009     -2294.004          33.584  
G28  23577164.355 5         0.00000      3789.270          31.127  
G32  20541026.134 5   -246064.98509       738.702          32.722  
R02  20688378.320 6   -775514.39409      2367.698          35.936  
R01  19723150.639 6    288046.86709      -964.053          35.045  
R24  19261024.463 7         0.00000      -408.538          30.013  
R23  22064911.070 7   1128852.69009     -3572.148          28.317  
R17  21009623.043 6  -1210230.30009      3646.147          36.606  
R08  23206923.678 6         0.00000     -2994.925          25.534  
C27         0.000 0         0.00000         0.000           0.000  
C28         0.000 0         0.00000         0.000           0.000  
C30         0.000 0         0.00000         0.000           0.000  
C32         0.000 0         0.00000         0.000           0.000  
C33         0.000 0         0.00000         0.000           0.000  
> 2023 09 07 19 35 45.0002878  0 20
G02  23363173.696 4  -1100122.68609      3366.575          39.176  
G08  22527415.585 4    128089.36709      -405.260          38.532  
G10  21169407.916 6         0.00000      -571.678          27.357  
G18  24790613.303 5         0.00000     -3088.784          32.628  
G21  22503456.471 4   -907815.93609      2763.535          39.712  
G23  23297438.202 6         0.00000     -2008.317          26.053  
G27  22799043.441 5    297493.77209     -2294.737          35.072  
G28  23576417.276 6         0.00000      3785.447          29.379  
G32  20540891.226 6         0.00000       736.065          30.400  
R02  20687947.526 6   -777882.74809      2368.413          35.755  
R01  19723328.126 6    289010.11909      -962.994          35.550  
R24  19261091.315 7     88074.08309      -409.549          29.891  
R23  22065587.406 6   1132425.07509     -3573.038          31.222  
R17  21008938.907 6  -1213877.03309      3647.157          36.008  
R08  23207504.369 6         0.00000     -2994.828          24.394  
C27         0.000 0         0.00000         0.000           0.000  
C28         0.000 0         0.00000         0.000           0.000  
C30         0.000 0         0.00000         0.000           0.000  
C32         0.000 0         0.00000         0.000           0.000  
C33         0.000 0         0.00000         0.000           0.000  
> 2023 09 07 19 35 46.0002878  0 19
G02  23362530.952 4  -1103490.54109      3368.844          39.149  
G08  22527499.224 4    128493.97309      -403.696          38.452  
G10  21169513.141 6         0.00000      -571.729          23.874  
G18  24791196.699 5    981395.12209     -3091.375          31.829  
G21  22502923.733 4   -910580.43809      2765.610          39.303  
G23  23297806.960 6         0.00000     -2012.769          24.430  
G27  22799479.033 5    299788.61409     -2294.429          36.093  
G28  23575711.869 6         0.00000      3784.109          26.876  
G32  20540757.522 6         0.00000       735.810          29.696  
R02  20687484.049 6   -780251.21009      2369.337          36.312  
R01  19723508.299 6    289973.46809      -963.448          35.812  
R24  19261185.755 7     88484.08309      -410.012          29.662  
R23  22066279.621 6   1135999.88309     -3576.132          32.869  
R17  21008239.485 6  -1217524.66109      3648.415          36.255  
C27         0.000 0         0.00000         0.000           0.000  
C28         0.000 0         0.00000         0.000           0.000  
C30         0.000 0         0.00000         0.000           0.000  
C32         0.000 0         0.00000         0.000           0.000  
C33         0.000 0         0.00000         0.000           0.000  
> 2023 09 07 19 35 47.0002878  0 19
G02  23361886.987 4  -1106861.63709      3372.731          38.704  
G08  22527565.186 4    128895.67909      -400.389          37.834  
G10  21169634.263 6         0.00000      -571.575          20.850  
G18  24791792.990 5    984488.38709     -3095.639          33.476  
G21  22502402.391 4   -913347.82209      2769.219          39.003  
G23  23298211.072 6         0.00000     -2013.585          23.003  
G27  22799919.738 4    302082.06609     -2292.514          37.118  
G28  23574988.766 6  -1274395.79309      3780.826          29.542  
G32  20540619.910 5   -248279.52609       737.501          31.830  
R02  20687039.155 5   -782622.11109      2372.145          37.172  
R01  19723680.969 5    290936.56809      -963.094          36.966  
R24  19261298.466 6         0.00000      -409.791          27.969  
R23  22066940.374 6   1139577.35709     -3579.155          32.282  
R17  21007548.770 5  -1221174.36009      3650.667          36.912  
C27         0.000 0         0.00000         0.000           0.000  
C28         0.000 0         0.00000         0.000           0.000  
C30         0.000 0         0.00000         0.000           0.000  
C32         0.000 0         0.00000         0.000           0.000  
C33         0.000 0         0.00000         0.000           0.000  
> 2023 09 07 19 35 48.0002878  0 20
G02  23361251.136 4  -1110236.64609      3376.252          38.499  
G08  22527640.431 4    129294.45909      -399.206          36.870  
G10  21169733.485 6         0.00000      -571.133          22.691  
G18  24792381.185 5    987585.69909     -3098.901          34.861  
G21  22501871.171 4   -916118.78809      2771.543          37.847  
G23  23298589.707 6         0.00000     -2015.322          25.868  
G27  22800351.125 5    304374.51009     -2293.506          36.193  
G28  23574276.152 6         0.00000      3776.339          28.776  
G32  20540473.921 5   -249017.73409       737.795          33.878  
R02  20686574.770 5   -784995.57609      2372.945          37.285  
R01  19723877.040 6    291897.99409      -961.352          36.537  
R24  19261318.569 6         0.00000      -406.625          25.895  
R23  22067622.101 6   1143157.52809     -3582.413          31.612  
R17  21006849.959 6  -1224827.42009      3653.848          36.338  
R08  23209212.292 6         0.00000     -2998.710          23.798  
C27         0.000 0         0.00000         0.000           0.000  
C28         0.000 0         0.00000         0.000           0.000  
C30         0.000 0         0.00000         0.000           0.000  
C32         0.000 0         0.00000         0.000           0.000  
C33         0.000 0         0.00000         0.000           0.000  
> 2023 09 07 19 35 49.0002878  0 19
G02  23360611.079 4  -1113614.58509      3379.397          40.456  
G08  22527720.772 5    129693.80609      -399.987          35.903  
G18  24792961.282 4    990686.52409     -3102.473          36.827  
G21  22501346.827 4   -918892.53509      2774.920          38.521  
G23  23298984.832 6         0.00000     -2017.310          29.568  
G27  22800792.424 4    306670.42809     -2298.584          38.159  
G28  23573559.349 6         0.00000      3771.089          30.433  
G32  20540329.713 5   -249755.40209       737.288          35.627  
R02  20686126.282 5   -787368.04109      2371.391          37.108  
R01  19724060.215 6    292856.81109      -957.557          36.193  
R24  19261429.779 6         0.00000      -407.330          24.585  
R23  22068303.532 6   1146742.07509     -3587.329          34.365  
R17  21006161.338 6  -1228483.39709      3657.606          36.172  
R08  23209731.227 6         0.00000     -2995.183          25.141  
C27         0.000 0         0.00000         0.000           0.000  
C28         0.000 0         0.00000         0.000           0.000  
C30         0.000 0         0.00000         0.000           0.000  
C32         0.000 0         0.00000         0.000           0.000  
C33         0.000 0         0.00000         0.000           0.000  
> 2023 09 07 19 35 50.0002878  0 20
G02  23359960.518 4  -1116995.55309      3382.436          39.618  
G08  22527805.911 5    130095.23709      -402.823          33.615  
G10  21169929.555 5         0.00000      -560.161          31.236  
G18  24793558.464 5    993790.75709     -3105.523          35.857  
G21  22500819.795 4   -921668.71209      2777.316          38.947  
G23  23299377.270 6         0.00000     -2016.699          28.308  
G27  22801226.829 4    308971.59009     -2304.290          38.080  
G28  23572839.545 5  -1285720.39409      3767.169          36.462  
G32  20540187.616 5   -250492.44509       736.588          35.309  
R02  20685685.594 6   -789738.24209      2368.885          36.169  
R01  19724239.481 6    293812.44209      -954.112          35.990  
R24  19261513.418 6         0.00000      -409.421          24.270  
R23  22069038.012 6         0.00000     -3593.270          30.893  
R17  21005443.925 6  -1232142.50809      3660.539          36.455  
R08  23210301.447 6         0.00000     -2993.618          23.257  
C27         0.000 0         0.00000         0.000           0.000  
C28         0.000 0         0.00000         0.000           0.000  
C30         0.000 0         0.00000         0.000           0.000  
C32         0.000 0         0.00000         0.000           0.000  
C33         0.000 0         0.00000         0.000           0.000  
> 2023 09 07 19 35 51.0002878  0 19
G02  23359309.973 4  -1120379.60909      3385.417          37.730  
G08  22527882.954 5    130498.79909      -404.580          32.752  
G10  21170038.375 5         0.00000      -555.311          31.170  
G18  24794144.564 5    996898.05209     -3109.523          34.075  
G21  22500287.965 4   -924447.51209      2779.953          39.518  
G23  23299763.705 6         0.00000     -2007.681          29.233  
G27  22801670.222 4    311278.28609     -2309.209          38.060  
G28  23572121.853 4  -1289485.12309      3762.342          38.230  
G32  20540050.003 5   -251228.93609       736.502          34.562  
R02  20685231.400 6   -792105.99209      2366.829          35.713  
R01  19724433.457 6    294764.62709      -950.391          34.604  
R23  22069700.248 7   1153926.23309     -3596.662          29.463  
R17  21004753.211 5  -1235805.08409      3664.148          37.778  
R08  23210874.041 6         0.00000     -2991.641          21.566  
C27         0.000 0         0.00000         0.000           0.000  
C28         0.000 0         0.00000         0.000           0.000  
C30         0.000 0         0.00000         0.000           0.000  
C32         0.000 0         0.00000         0.000           0.000  
C33         0.000 0         0.00000         0.000           0.000  
> 2023 09 07 19 35 52.0002878  0 19
G02  23358670.824 4  -1123766.55809      3389.430          38.203  
G08  22527952.214 5    130903.83209      -405.144          34.818  
G10  21170172.375 6         0.00000      -557.033          27.696  
G18  24794742.950 5   1000009.00909     -3113.305          32.594  
G21  22499757.932 3   -927228.79409      2782.661          42.562  
G23  23300142.340 6         0.00000     -2007.181          28.875  
G27  22802109.723 4    313589.53709     -2313.071          38.778  
G28  23571413.444 4  -1293244.83009      3756.622          37.918  
G32  20539905.516 5   -251964.47809       735.128          34.651  
R02  20684768.830 6   -794471.83609      2365.679          35.372  
R01  19724610.036 6    295714.07909      -948.130          35.177  
R23  22070351.403 6   1157526.65709     -3603.995          31.244  
R17  21004065.777 5  -1239470.55609      3667.065          40.866  
R08  23211426.253 6         0.00000     -2981.411          24.742  
C27         0.000 0         0.00000         0.000           0.000  
C28         0.000 0         0.00000         0.000           0.000  
C30         0.000 0         0.00000         0.000           0.000  
C32         0.000 0         0.00000         0.000           0.000  
C33         0.000 0         0.00000         0.000           0.000  
> 2023 09 07 19 35 53.0002878  0 19
G02  23358021.763 4  -1127156.93209      3392.720          36.604  
G08  22528028.960 5    131308.91009      -404.850          36.243  
G10  21170236.836 6         0.00000      -555.729          26.563  
G18  24795337.740 5   1003124.21309     -3117.304          31.874  
G21  22499232.087 3   -930013.01709      2785.729          43.793  
G23  23300517.380 6         0.00000     -2007.380          28.600  
G27  22802547.410 4    315903.87709     -2316.050          36.592  
G28  23570694.844 5  -1296999.60209      3752.388          36.523  
G32  20539763.698 5   -252699.21109       734.223          33.788  
R02  20684334.127 6   -796837.11709      2364.960          34.924  
R01  19724777.925 6    296661.40909      -946.322          34.024  
R23  22071038.836 6         0.00000     -3610.175          30.963  
R17  21003369.670 5  -1243139.17509      3670.261          42.445  
R08  23211999.458 6         0.00000     -2966.928          27.041  
C27         0.000 0         0.00000         0.000           0.000  
C28         0.000 0         0.00000         0.000           0.000  
C30         0.000 0         0.00000         0.000           0.000  
C32         0.000 0         0.00000         0.000           0.000  
C33         0.000 0         0.00000         0.000           0.000  
> 2023 09 07 19 35 54.0002878  0 19
G02  23357386.506 4  -1130551.37109      3396.086          36.709  
G08  22528102.705 5    131714.21109      -405.059          36.345  
G10  21170356.161 6         0.00000      -552.173          28.571  
G18  24795920.525 5         0.00000     -3121.142          30.766  
G21  22498699.070 3   -932800.67209      2789.130          44.452  
G23  23300901.407 5         0.00000     -2007.944          34.295  
G27  22802989.598 5    318221.94509     -2319.457          35.501  
G28  23569981.025 5  -1300748.56009      3746.499          36.283  
G32  20539626.696 5   -253432.89909       733.051          33.007  
R02  20683897.034 6   -799201.66209      2364.198          36.153  
R01  19724970.680 6    297606.24109      -943.615          33.584  
R23  22071770.925 7   1164742.99509     -3613.346          30.539  
R17  21002670.841 5  -1246811.42809      3674.149          40.736  
R08  23212616.131 6         0.00000     -2961.987          26.021  
C27         0.000 0         0.00000         0.000           0.000  
C28         0.000 0         0.00000         0.000           0.000  
C30         0.000 0         0.00000         0.000           0.000  
C32         0.000 0         0.00000         0.000           0.000  
C33         0.000 0         0.00000         0.000           0.000  
> 2023 09 07 19 35 55.0002878  0 20
G02  23356733.257 4  -1133949.28309      3399.214          36.855  
G08  22528173.151 5    132119.60809      -405.219          34.733  
G10  21170452.992 6         0.00000      -546.211          29.118  
G18  24796512.611 6         0.00000     -3125.950          30.186  
G21  22498167.537 3   -935591.37609      2792.042          44.495  
G23  23301281.543 5    639393.85109     -2008.506          35.825  
G27  22803418.908 5    320543.15709     -2322.886          33.280  
G28  23569271.726 5  -1304492.48809      3742.168          35.732  
G32  20539489.694 5   -254165.45809       731.250          31.033  
R02  20683430.555 5   -801565.62309      2363.843          37.960  
R01  19725141.866 6    298549.00809      -942.305          34.183  
R24  19261881.269 6         0.00000      -418.961          21.485  
R23  22072353.117 6         0.00000     -3622.460          26.828  
R17  21001967.231 5  -1250486.98909      3676.853          41.081  
R08  23213135.973 6         0.00000     -2959.279          25.774  
C27         0.000 0         0.00000         0.000           0.000  
C28         0.000 0         0.00000         0.000           0.000  
C30         0.000 0         0.00000         0.000           0.000  
C32         0.000 0         0.00000         0.000           0.000  
C33         0.000 0         0.00000         0.000           0.000  
> 2023 09 07 19 35 56.0002878  0 20
G02  23356095.294 4  -1137350.38509      3402.270          36.855  
G08  22528264.887 5    132523.94309      -403.638          35.086  
G10  21170554.622 5    160883.12309      -551.286          33.719  
G18  24797112.811 6         0.00000     -3130.731          30.064  
G21  22497635.707 3   -938384.77109      2795.112          45.214  
G23  23301663.179 4    641403.30409     -2010.127          36.567  
G27  22803888.389 5         0.00000     -2320.474          30.948  
G28  23568549.514 4  -1308232.70409      3737.824          37.207  
G32  20539354.787 6         0.00000       730.529          29.771  
R02  20682981.770 5   -803930.15309      2365.177          39.472  
R01  19725311.552 6    299490.72109      -940.726          35.575  
R24  19261979.304 6         0.00000      -420.018          23.276  
R23  22073114.295 6         0.00000     -3621.843          27.154  
R17  21001270.217 5  -1254164.98809      3679.703          42.235  
R08  23213724.168 6         0.00000     -2960.174          23.138  
C27         0.000 0         0.00000         0.000           0.000  
C28         0.000 0         0.00000         0.000           0.000  
C30         0.000 0         0.00000         0.000           0.000  
C32         0.000 0         0.00000         0.000           0.000  
C33         0.000 0         0.00000         0.000           0.000  
> 2023 09 07 19 35 57.0002878  0 20
G02  23355442.953 4  -1140755.69609      3407.630          36.957  
G08  22528337.445 5    132927.14409      -402.776          35.632  
G10  21170667.647 5    161434.07609      -550.238          36.377  
G18  24797715.682 6         0.00000     -3136.506          29.523  
G21  22497106.564 3   -941181.64509      2798.616          44.829  
G23  23302049.021 5    643414.14409     -2010.450          33.815  
G27  22804329.077 6         0.00000     -2323.333          26.664  
G28  23567847.404 4  -1311967.80109      3732.708          37.186  
G32  20539235.165 6         0.00000       726.559          29.122  
R02  20682536.266 5   -806295.17209      2364.874          39.385  
R01  19725514.498 6    300430.63409      -938.480          35.494  
R24  19262072.837 6         0.00000      -421.800          23.767  
R23  22073801.415 7         0.00000     -3627.270          28.192  
R17  21000572.906 5  -1257846.50809      3682.967          42.255  
R08  23214285.681 6         0.00000     -2954.462          25.273  
C27         0.000 0         0.00000         0.000           0.000  
C28         0.000 0         0.00000         0.000           0.000  
C30         0.000 0         0.00000         0.000           0.000  
C32         0.000 0         0.00000         0.000           0.000  
C33         0.000 0         0.00000         0.000           0.000  
> 2023 09 07 19 35 58.0002878  0 20
G02  23354794.503 4  -1144164.11809      3409.594          37.198  
G08  22528416.896 4    133331.67409      -406.081          39.015  
G10  21170771.075 4    161982.50009      -546.438          38.358  
G18  24798315.864 6         0.00000     -3141.407          29.268  
G21  22496571.435 3   -943981.35709      2800.755          44.091  
G23  23302416.854 5    645422.86209     -2006.030          33.316  
G27  22804766.484 6         0.00000     -2323.821          22.180  
G28  23567140.199 5  -1315697.09709      3726.066          35.390  
G32  20539068.778 6         0.00000       730.477          29.882  
R02  20682092.874 5   -808658.21809      2361.100          39.810  
R01  19725691.077 6    301367.89309      -935.675          34.789  
R24  19262189.457 6         0.00000      -424.466          21.224  
R23  22074487.942 7         0.00000     -3634.856          28.053  
R17  20999866.888 5  -1261531.27509      3686.036          42.788  
R08  23214807.914 6    992077.67709     -2949.870          35.716  
C27         0.000 0         0.00000         0.000           0.000  
C28         0.000 0         0.00000         0.000           0.000  
C30         0.000 0         0.00000         0.000           0.000  
C32         0.000 0         0.00000         0.000           0.000  
C33         0.000 0         0.00000         0.000           0.000  
> 2023 09 07 19 35 59.0002878  0 18
G02  23354140.957 4  -1147575.18409      3412.531          36.971  
G08  22528488.547 4    133739.77609      -409.520          41.252  
G10  21170869.093 4    162527.27409      -543.117          36.688  
G18  24798904.059 6         0.00000     -3143.216          27.834  
G21  22496036.307 4   -946782.97709      2802.402          40.898  
G23  23302815.277 5    647427.66209     -2002.948          35.650  
G28  23566435.089 5  -1319420.74609      3720.860          35.925  
G32  20538942.578 5   -257085.67909       727.914          30.976  
R02  20681644.089 5   -811017.55509      2357.858          40.301  
R01  19725863.468 6    302301.99109      -932.588          33.933  
R23  22075185.270 6         0.00000     -3641.235          26.897  
R17  20999175.563 5  -1265218.88709      3688.840          44.248  
R08  23215378.414 6    995024.74109     -2943.352          36.207  
C27         0.000 0         0.00000         0.000           0.000  
C28         0.000 0         0.00000         0.000           0.000  
C30         0.000 0         0.00000         0.000           0.000  
C32         0.000 0         0.00000         0.000           0.000  
C33         0.000 0         0.00000         0.000           0.000  
> 2023 09 07 19 36 00.0002878  0 19
G02  23353501.494 5  -1150988.12309      3413.672          36.284  
G08  22528570.981 4    134151.07909      -413.452          41.569  
G10  21170971.630 4    163068.83409      -540.049          37.181  
G18  24799494.347 6         0.00000     -3143.791          25.754  
G21  22495513.167 4   -949586.13009      2803.347          37.369  
G23  23303194.523 5    649429.00409     -1999.657          36.090  
G27  22805642.467 6         0.00000     -2342.837          29.878  
G28  23565725.475 5  -1323139.34409      3715.454          36.389  
G32  20538795.682 5         0.00000       723.355          31.512  
R02  20681183.909 5   -813373.31209      2353.498          39.424  
R01  19726017.256 6    303233.53409      -930.667          33.817  
R23  22075887.973 6         0.00000     -3646.282          23.255  
R17  20998462.651 5  -1268908.78009      3690.739          45.653  
R08  23215965.718 6         0.00000     -2937.472          33.365  
C27         0.000 0         0.00000         0.000           0.000  
C28         0.000 0         0.00000         0.000           0.000  
C30         0.000 0         0.00000         0.000           0.000  
C32         0.000 0         0.00000         0.000           0.000  
C33         0.000 0         0.00000         0.000           0.000  
> 2023 09 07 19 36 01.0002878  0 18
G02  23352840.148 5  -1154402.80609      3415.383          34.979  
G08  22528648.635 4    134565.53509      -415.700          41.588  
G10  21171074.761 5    163606.97609      -536.613          34.894  
G18  24800093.344 6         0.00000     -3141.653          23.899  
G21  22494966.347 5   -952390.67609      2805.344          35.925  
G23  23303566.265 5         0.00000     -1998.622          31.705  
G28  23565008.080 5  -1326853.34809      3711.871          35.168  
G32  20538666.463 5   -258538.13209       724.853          31.846  
R02  20680740.517 6   -815725.78209      2350.936          36.525  
R01  19726218.423 6    304162.33009      -927.996          33.984  
R23  22076571.794 6         0.00000     -3647.263          25.331  
R17  20997764.433 5  -1272600.80809      3693.022          44.975  
R08  23216494.844 6         0.00000     -2928.780          32.862  
C27         0.000 0         0.00000         0.000           0.000  
C28         0.000 0         0.00000         0.000           0.000  
C30         0.000 0         0.00000         0.000           0.000  
C32         0.000 0         0.00000         0.000           0.000  
C33         0.000 0         0.00000         0.000           0.000  
> 2023 09 07 19 36 02.0002878  0 21
G02  23352193.792 5  -1157818.92209      3417.102          33.091  
G08  22528732.867 3    134982.98709      -419.079          42.784  
G10  21171173.093 5    164142.05509      -533.631          35.480  
G18  24800707.015 6         0.00000     -3142.683          25.107  
G21  22494441.706 4   -955196.18409      2805.915          37.215  
G23  23303951.199 6         0.00000     -1997.278          27.160  
G27  22806536.145 6         0.00000     -2351.965          30.476  
G28  23564309.861 5         0.00000      3708.143          31.894  
G32  20538520.160 5   -259262.99009       724.052          34.749  
R02  20680302.813 6   -818075.13509      2347.571          36.135  
R01  19726388.998 6    305088.84609      -926.062          33.285  
R24  19262448.174 6         0.00000      -438.915          25.560  
R23  22077269.716 6         0.00000     -3649.716          24.246  
R17  20997060.840 5  -1276294.55709      3694.353          44.639  
R08  23217067.455 7         0.00000     -2925.884          30.381  
J03  43910697.539 4     -4351.06109       632.195          41.378  
C27         0.000 0         0.00000         0.000           0.000  
C28         0.000 0         0.00000         0.000           0.000  
C30         0.000 0         0.00000         0.000           0.000  
C32         0.000 0         0.00000         0.000           0.000  
C33         0.000 0         0.00000         0.000           0.000  
> 2023 09 07 19 36 03.0002878  0 21
G02  23351554.346 6         0.00000      3418.039          29.059  
G08  22528813.208 4    135404.02009      -423.423          40.794  
G10  21171281.319 5    164673.85209      -529.638          35.978  
G18  24801306.901 6         0.00000     -3143.406          22.370  
G21  22493902.075 4   -958002.45609      2806.449          37.149  
G23  23304350.827 6         0.00000     -1991.007          29.078  
G27  22806993.341 5    339263.40509     -2363.232          33.543  
G28  23563607.141 6         0.00000      3706.963          28.592  
G32  20538378.360 5   -259986.85809       723.266          36.391  
R02  20679840.242 5   -820420.99209      2343.570          37.037  
R01  19726566.467 6    306012.78109      -921.858          31.020  
R24  19262535.722 7     95628.10109      -443.368          30.279  
R23  22077992.818 6         0.00000     -3652.668          26.392  
R17  20996357.213 5  -1279989.89409      3696.082          42.819  
R08  23217615.776 6         0.00000     -2921.304          34.360  
J03  43910578.825 4     -4983.73709       632.755          40.543  
C27         0.000 0         0.00000         0.000           0.000  
C28         0.000 0         0.00000         0.000           0.000  
C30         0.000 0         0.00000         0.000           0.000  
C32         0.000 0         0.00000         0.000           0.000  
C33         0.000 0         0.00000         0.000           0.000  
> 2023 09 07 19 36 04.0002878  0 22
G02  23350881.902 6         0.00000      3417.046          25.090  
G08  22528891.158 4    135829.81309      -428.320          39.547  
G10  21171378.150 5    165201.80309      -526.421          36.230  
G18  24801918.776 6         0.00000     -3148.969          27.135  
G21  22493368.744 4   -960809.15909      2806.466          38.846  
G23  23304718.974 6         0.00000     -1980.443          30.050  
G27  22807444.516 4    341629.92609     -2370.004          39.842  
G28  23562890.635 6         0.00000      3698.957          29.463  
G32  20538247.954 4   -260709.33109       721.840          38.595  
R02  20679407.634 5   -822762.13409      2339.277          38.859  
R01  19726742.749 7         0.00000      -918.070          28.056  
R24  19262637.648 6     96073.51809      -446.747          33.534  
R23  22078630.187 6         0.00000     -3662.132          26.207  
R17  20995658.105 5  -1283686.53109      3696.945          41.706  
R08  23218164.393 5         0.00000     -2911.997          37.172  
J03  43910455.312 4     -5616.60009       632.738          39.447  
C25         0.000 0         0.00000         0.000           0.000  
C27         0.000 0         0.00000         0.000           0.000  
C28         0.000 0         0.00000         0.000           0.000  
C30         0.000 0         0.00000         0.000           0.000  
C32         0.000 0         0.00000         0.000           0.000  
C33         0.000 0         0.00000         0.000           0.000  
> 2023 09 07 19 36 05.0002878  0 22
G02  23350233.155 6         0.00000      3417.023          25.143  
G08  22528964.903 4    136259.52609      -432.273          38.156  
G10  21171482.171 4    165726.40709      -523.360          37.525  
G18  24802508.768 6         0.00000     -3155.805          26.991  
G21  22492837.525 4   -963616.22809      2806.879          40.127  
G23  23305095.497 5    659395.99409     -1977.998          30.947  
G27  22807901.712 4    344002.42409     -2375.119          38.221  
G28  23562201.107 6         0.00000      3694.655          27.682  
G32  20538106.747 4   -261430.68909       720.438          39.464  
R02  20678950.159 5   -825099.37709      2335.069          39.047  
R01  19726889.959 7         0.00000      -918.335          28.600  
R24  19262719.786 6     96521.37609      -449.465          34.082  
R23  22079386.846 6         0.00000     -3666.518          25.973  
R17  20994957.182 5  -1287384.22809      3697.775          41.324  
R08  23218721.108 5         0.00000     -2907.701          36.850  
J03  43910339.600 4     -6249.40809       632.606          38.412  
C25         0.000 0         0.00000         0.000           0.000  
C27         0.000 0         0.00000         0.000           0.000  
C28         0.000 0         0.00000         0.000           0.000  
C30         0.000 0         0.00000         0.000           0.000  
C32         0.000 0         0.00000         0.000           0.000  
C33         0.000 0         0.00000         0.000           0.000  
> 2023 09 07 19 36 06.0002878  0 22
G02  23349603.901 6         0.00000      3417.183          29.288  
G08  22529053.340 4    136692.77009      -434.814          38.571  
G10  21171580.800 4    166248.28109      -521.135          36.663  
G18  24803096.962 6   1043947.08509     -3153.688          29.204  
G21  22492297.598 4   -966423.35509      2806.791          40.919  
G23  23305458.549 6         0.00000     -1970.120          27.661  
G27  22808346.902 4    346380.05409     -2379.710          39.224  
G28  23561481.617 6         0.00000      3694.903          29.717  
G32  20537965.854 4   -262151.06009       719.604          38.793  
R02  20678510.658 5   -827432.99509      2331.834          38.304  
R01  19727083.622 6    308771.09509      -917.387          32.075  
R24  19262802.832 6     96971.67809      -451.562          33.495  
R23  22080041.002 6         0.00000     -3666.025          27.618  
R17  20994259.871 5  -1291082.62609      3698.493          40.741  
R08  23219272.116 5         0.00000     -2900.271          36.908  
J03  43910217.885 4     -6882.24609       632.989          37.128  
C25         0.000 0         0.00000         0.000           0.000  
C27         0.000 0         0.00000         0.000           0.000  
C28         0.000 0         0.00000         0.000           0.000  
C30         0.000 0         0.00000         0.000           0.000  
C32         0.000 0         0.00000         0.000           0.000  
C33         0.000 0         0.00000         0.000           0.000  
> 2023 09 07 19 36 07.0002878  0 22
G02  23348936.849 5  -1174911.17909      3419.472          32.085  
G08  22529136.089 4    137129.04109      -437.573          39.567  
G10  21171677.038 5    166767.88109      -518.892          33.029  
G18  24803714.525 6   1047101.18709     -3154.298          30.298  
G21  22491765.157 4   -969230.58109      2807.230          41.452  
G23  23305830.902 6         0.00000     -1967.716          25.222  
G27  22808797.484 4    348761.89209     -2383.919          39.861  
G28  23560796.888 5         0.00000      3694.631          30.771  
G32  20537836.932 4   -262870.57109       719.018          39.169  
R02  20678072.954 5   -829763.72309      2329.301          38.982  
R01  19727258.403 6    309687.25409      -915.834          34.776  
R24  19262878.985 6     97424.06309      -453.702          32.987  
R23  22080758.398 7         0.00000     -3668.418          29.919  
R17  20993548.461 5  -1294781.60309      3699.098          41.352  
R08  23219813.561 6   1018387.88509     -2897.153          35.654  
J03  43910091.964 4     -7515.02409       633.027          36.533  
C25         0.000 0         0.00000         0.000           0.000  
C27         0.000 0         0.00000         0.000           0.000  
C28         0.000 0         0.00000         0.000           0.000  
C30         0.000 0         0.00000         0.000           0.000  
C32         0.000 0         0.00000         0.000           0.000  
C33         0.000 0         0.00000         0.000           0.000  
> 2023 09 07 19 36 08.0002878  0 21
G02  23348295.605 5  -1178331.38509      3420.373          31.935  
G08  22529221.840 4    137568.23209      -441.128          40.321  
G10  21171746.298 6         0.00000      -513.598          28.458  
G18  24804290.435 5   1050257.03009     -3157.412          31.138  
G21  22491236.031 4   -972038.37409      2807.837          41.753  
G23  23306204.738 6         0.00000     -1966.728          30.197  
G27  22809254.069 4    351148.42909     -2389.803          38.773  
G28  23560090.277 6         0.00000      3696.557          27.861  
G32  20537694.538 4   -263589.04609       717.629          39.288  
R02  20677628.078 5   -832091.56809      2325.898          40.165  
R01  19727429.572 6    310601.65109      -913.622          36.557  
R24  19262974.315 6     97878.61409      -456.191          33.058  
R17  20992845.740 5  -1298481.55509      3700.659          41.752  
R08  23220376.261 6   1021282.19509     -2891.746          33.740  
J03  43909975.344 5     -8148.28809       633.614          35.043  
C25         0.000 0         0.00000         0.000           0.000  
C27         0.000 0         0.00000         0.000           0.000  
C28         0.000 0         0.00000         0.000           0.000  
C30         0.000 0         0.00000         0.000           0.000  
C32         0.000 0         0.00000         0.000           0.000  
C33         0.000 0         0.00000         0.000           0.000  
> 2023 09 07 19 36 09.0002878  0 22
G02  23347649.249 5         0.00000      3418.794          31.749  
G08  22529307.276 4    138010.52209      -443.868          40.101  
G10  21171869.199 6         0.00000      -513.634          25.722  
G18  24804907.702 6         0.00000     -3160.524          30.423  
G21  22490702.107 3   -974847.95309      2810.781          42.654  
G23  23306574.089 6         0.00000     -1963.920          29.153  
G27  22809713.359 4    353541.15609     -2396.337          36.803  
G28  23559388.167 6         0.00000      3693.602          25.290  
G32  20537564.133 4   -264306.46509       716.981          39.876  
R02  20677178.980 5   -834416.12309      2323.045          40.608  
R01  19727611.247 5    311513.21209      -909.870          38.682  
R24  19263062.753 6     98335.79809      -458.702          33.529  
R23  22082153.945 6         0.00000     -3676.815          26.995  
R17  20992133.440 5  -1302184.03409      3704.306          43.048  
R08  23220920.690 6   1024170.25509     -2884.698          33.883  
J03  43909849.737 5     -8783.31309       636.200          35.451  
C25         0.000 0         0.00000         0.000           0.000  
C27         0.000 0         0.00000         0.000           0.000  
C28         0.000 0         0.00000         0.000           0.000  
C30         0.000 0         0.00000         0.000           0.000  
C32         0.000 0         0.00000         0.000           0.000  
C33         0.000 0         0.00000         0.000           0.000  
> 2023 09 07 19 36 10.0002878  0 22
G02  23346987.014 5  -1185179.84009      3428.124          30.846  
G08  22529387.617 4    138455.97509      -446.307          38.883  
G10  21171985.226 6    168313.72609      -507.360          29.217  
G18  24805503.400 6   1056578.53209     -3165.158          30.637  
G21  22490163.366 3   -977660.31509      2814.065          42.576  
G23  23306951.223 5         0.00000     -1961.250          31.011  
G27  22810163.644 5    355941.14809     -2402.762          34.852  
G28  23558668.066 6         0.00000      3693.004          22.252  
G32  20537430.115 4   -265022.49909       715.708          40.222  
R02  20676737.978 5   -836737.20109      2319.800          40.645  
R01  19727786.935 5    312420.89609      -905.751          39.115  
R24  19263149.097 6     98796.23309      -461.768          34.978  
R23  22082849.458 6   1223153.00909     -3689.865          31.633  
R17  20991436.723 5  -1305890.25209      3708.399          43.477  
R08  23221456.412 6         0.00000     -2877.264          30.935  
J03  43909733.414 5     -9421.43709       639.666          35.635  
C25         0.000 0         0.00000         0.000           0.000  
C27         0.000 0         0.00000         0.000           0.000  
C28         0.000 0         0.00000         0.000           0.000  
C30         0.000 0         0.00000         0.000           0.000  
C32         0.000 0         0.00000         0.000           0.000  
C33         0.000 0         0.00000         0.000           0.000  
> 2023 09 07 19 36 11.0002878  0 21
G02  23346339.453 6         0.00000      3437.587          30.491  
G08  22529477.258 4    138902.37709      -447.593          38.056  
G10  21172073.664 5    168820.17409      -505.773          31.830  
G18  24806117.368 6         0.00000     -3172.216          29.846  
G21  22489625.847 3   -980476.10609      2815.856          42.482  
G23  23307335.250 5    671200.66209     -1959.215          33.518  
G27  22810616.024 5    358346.05309     -2406.459          33.140  
G32  20537288.314 4   -265737.89209       714.562          40.741  
R02  20676308.388 5   -839056.76609      2318.095          40.430  
R01  19727953.917 5    313325.06209      -903.740          38.393  
R24  19263246.818 6     99258.63109      -463.713          36.053  
R23  22083551.271 6   1226844.80609     -3693.238          32.842  
R17  20990720.827 5  -1309600.55209      3710.408          43.733  
R08  23222012.219 6         0.00000     -2871.947          32.822  
J03  43909603.305 5    -10063.31609       642.012          34.859  
C25         0.000 0         0.00000         0.000           0.000  
C27         0.000 0         0.00000         0.000           0.000  
C28         0.000 0         0.00000         0.000           0.000  
C30         0.000 0         0.00000         0.000           0.000  
C32         0.000 0         0.00000         0.000           0.000  
C33         0.000 0         0.00000         0.000           0.000  
> 2023 09 07 19 36 12.0002878  0 21
G02  23345682.016 6         0.00000      3431.335          29.905  
G08  22529561.491 4    139351.13009      -449.469          38.186  
G10  21172161.508 5    169325.74209      -505.983          33.173  
G18  24806730.743 6         0.00000     -3169.977          28.771  
G21  22489096.111 4   -983291.20409      2814.447          42.006  
G23  23307696.801 5    673159.38309     -1958.726          32.197  
G27  22811084.004 5    360753.38109     -2407.237          32.242  
G32  20537148.922 4   -266452.40609       714.110          41.060  
R02  20675861.087 5   -841374.27709      2316.997          40.085  
R01  19728132.589 5    314229.11309      -904.490          38.573  
R24  19263335.256 5     99722.76509      -464.697          37.331  
R23  22084285.454 6   1230537.97309     -3693.240          31.013  
R17  20990014.216 5  -1313310.28609      3708.829          43.830  
R08  23222571.638 6   1032799.14709     -2871.984          33.423  
J03  43909491.188 5    -10704.79009       641.244          33.763  
C25         0.000 0         0.00000         0.000           0.000  
C27         0.000 0         0.00000         0.000           0.000  
C28         0.000 0         0.00000         0.000           0.000  
C30         0.000 0         0.00000         0.000           0.000  
C32         0.000 0         0.00000         0.000           0.000  
C33         0.000 0         0.00000         0.000           0.000  
> 2023 09 07 19 36 13.0002878  0 22
G02  23345027.860 5         0.00000      3424.757          30.875  
G08  22529647.538 4    139801.34809      -450.445          37.272  
G10  21172262.527 5    169831.60609      -505.795          33.409  
G18  24807322.236 6         0.00000     -3166.858          26.810  
G21  22488554.090 4   -986104.85609      2813.130          40.693  
G23  23308074.843 5         0.00000     -1959.054          30.872  
G27  22811528.304 6         0.00000     -2406.476          30.381  
G28  23556579.101 7         0.00000      3681.314          20.415  
G32  20537014.014 4   -267166.25509       714.094          39.746  
R02  20675421.603 5   -843690.60009      2316.260          39.464  
R01  19728301.368 5    315134.16209      -905.398          37.731  
R24  19263412.002 5    100187.89809      -464.970          36.898  
R23  22084961.789 7         0.00000     -3691.607          30.107  
R17  20989304.899 5  -1317018.24109      3707.395          43.046  
R08  23223098.076 6   1035671.62809     -2872.943          33.186  
J03  43909372.753 5         0.00000       638.708          32.950  
C25         0.000 0         0.00000         0.000           0.000  
C27         0.000 0         0.00000         0.000           0.000  
C28         0.000 0         0.00000         0.000           0.000  
C30         0.000 0         0.00000         0.000           0.000  
C32         0.000 0         0.00000         0.000           0.000  
C33         0.000 0         0.00000         0.000           0.000  
> 2023 09 07 19 36 14.0002878  0 22
G02  23344379.113 5  -1198893.10509      3425.148          31.317  
G08  22529727.285 5    140252.59709      -452.458          36.315  
G10  21172358.172 5    170337.64809      -506.407          33.560  
G18  24807909.226 6         0.00000     -3165.130          25.370  
G21  22488018.961 4   -988917.22609      2811.330          40.668  
G23  23308441.193 6    677075.25509     -1957.695          30.342  
G27  22811986.372 6    365568.56209     -2408.126          29.384  
G28  23555894.983 7         0.00000      3680.778          20.213  
G32  20536876.995 4   -267879.90809       712.757          39.708  
R02  20674967.705 5   -846006.36109      2314.862          39.352  
R01  19728484.543 5    316039.97309      -906.620          37.174  
R24  19263509.740 6    100653.41309      -466.311          36.562  
R23  22085644.721 7         0.00000     -3688.412          29.355  
R17  20988610.573 5  -1320724.60509      3705.437          42.955  
R08  23223646.693 6   1038544.20809     -2872.671          33.945  
J03  43909253.149 5         0.00000       638.555          31.130  
C25         0.000 0         0.00000         0.000           0.000  
C27         0.000 0         0.00000         0.000           0.000  
C28         0.000 0         0.00000         0.000           0.000  
C30         0.000 0         0.00000         0.000           0.000  
C32         0.000 0         0.00000         0.000           0.000  
C33         0.000 0         0.00000         0.000           0.000  
> 2023 09 07 19 36 15.0002878  0 22
G02  23343716.267 5  -1202317.39109      3422.929          32.136  
G08  22529823.523 4    140705.93109      -453.903          37.412  
G10  21172458.598 5    170844.07709      -506.864          33.448  
G18  24808522.305 6         0.00000     -3164.051          26.439  
G21  22487490.115 4   -991727.47009      2809.428          41.084  
G23  23308811.731 6         0.00000     -1957.918          29.621  
G27  22812459.744 6         0.00000     -2409.801          29.597  
G28  23555218.054 6         0.00000      3680.087          22.097  
G32  20536747.794 4   -268592.91909       712.440          40.616  
R02  20674532.410 5   -848320.48409      2313.520          39.816  
R01  19728647.039 5    316947.09309      -907.864          38.592  
R24  19263594.287 5    101120.06409      -466.960          37.108  
R23  22086415.497 7         0.00000     -3687.484          29.394  
R17  20987901.570 5  -1324428.54409      3702.927          43.234  
R08  23224227.995 7         0.00000     -2872.170          30.692  
J03  43909135.622 6    -12620.08209       635.165          29.672  
C25         0.000 0         0.00000         0.000           0.000  
C27         0.000 0         0.00000         0.000           0.000  
C28         0.000 0         0.00000         0.000           0.000  
C30         0.000 0         0.00000         0.000           0.000  
C32         0.000 0         0.00000         0.000           0.000  
C33         0.000 0         0.00000         0.000           0.000  
> 2023 09 07 19 36 16.0002878  0 21
G02  23343082.807 5         0.00000      3420.426          31.487  
G08  22529902.956 4    141160.85109      -455.651          37.629  
G10  21172564.119 5    171351.30309      -507.371          33.296  
G18  24809112.297 6         0.00000     -3164.380          26.221  
G21  22486951.689 4   -994535.78909      2807.564          41.450  
G23  23309191.273 5         0.00000     -1955.980          31.041  
G27  22812912.438 6    370384.81109     -2408.841          29.336  
G32  20536614.090 4   -269305.20409       711.987          40.823  
R02  20674092.612 5   -850633.49109      2312.631          39.669  
R01  19728815.521 5    317855.62109      -909.332          38.380  
R24  19263686.616 5    101587.71509      -467.883          37.653  
R23  22087071.730 7   1245301.38609     -3688.838          30.488  
R17  20987198.553 5  -1328130.39209      3700.844          43.596  
R08  23224755.637 6         0.00000     -2873.285          31.914  
J03  43909001.918 5    -13255.03109       634.072          31.233  
C25         0.000 0         0.00000         0.000           0.000  
C27         0.000 0         0.00000         0.000           0.000  
C28         0.000 0         0.00000         0.000           0.000  
C30         0.000 0         0.00000         0.000           0.000  
C32         0.000 0         0.00000         0.000           0.000  
C33         0.000 0         0.00000         0.000           0.000  
> 2023 09 07 19 36 17.0002878  0 22
G02  23342424.759 6         0.00000      3416.930          28.831  
G08  22529984.205 4    141616.64509      -456.025          37.160  
G10  21172637.271 5    171858.79909      -507.211          31.537  
G18  24809716.982 6         0.00000     -3163.460          26.734  
G21  22486423.767 4   -997342.72409      2806.252          41.868  
G23  23309556.419 6         0.00000     -1955.370          30.567  
G27  22813384.606 6         0.00000     -2408.859          26.834  
G28  23553815.929 7         0.00000      3681.621          20.333  
G32  20536468.678 4   -270017.33109       712.315          39.988  
R02  20673652.517 5   -852945.89809      2312.143          39.799  
R01  19728993.304 5    318765.06509      -909.924          38.175  
R24  19263760.971 5    102055.81609      -468.168          37.566  
R23  22087769.355 6   1248989.26809     -3686.957          31.112  
R17  20986496.147 5  -1331830.34809      3699.070          43.502  
R08  23225287.764 7         0.00000     -2873.472          30.690  
J03  43908878.999 5    -13888.42609       632.449          32.086  
C25         0.000 0         0.00000         0.000           0.000  
C27         0.000 0         0.00000         0.000           0.000  
C28         0.000 0         0.00000         0.000           0.000  
C30         0.000 0         0.00000         0.000           0.000  
C32         0.000 0         0.00000         0.000           0.000  
C33         0.000 0         0.00000         0.000           0.000  
> 2023 09 07 19 36 18.0002878  0 22
G02  23341766.414 6  -1212579.70309      3418.126          29.004  
G08  22530084.334 4    142073.65309      -457.951          36.889  
G10  21172747.905 5    172366.45109      -508.349          32.504  
G18  24810330.950 6         0.00000     -3159.117          26.939  
G21  22485882.043 4  -1000148.23609      2804.315          40.950  
G23  23309930.551 5    684910.22109     -1956.638          31.328  
G27  22813801.317 6         0.00000     -2405.610          26.838  
G28  23553111.411 7         0.00000      3680.153          20.681  
G32  20536343.071 4   -270729.38809       711.299          40.218  
R02  20673216.925 5   -855257.68909      2310.923          39.839  
R01  19729159.378 5    319675.30209      -911.143          37.760  
R24  19263862.898 5    102524.15009      -469.301          37.285  
R23  22088477.450 6         0.00000     -3687.542          31.140  
R17  20985789.535 5  -1335528.60009      3696.843          43.018  
R08  23225853.779 6         0.00000     -2873.406          32.405  
J03  43908762.379 6         0.00000       633.276          29.233  
C25         0.000 0         0.00000         0.000           0.000  
C27         0.000 0         0.00000         0.000           0.000  
C28         0.000 0         0.00000         0.000           0.000  
C30         0.000 0         0.00000         0.000           0.000  
C32         0.000 0         0.00000         0.000           0.000  
C33         0.000 0         0.00000         0.000           0.000  
> 2023 09 07 19 36 19.0002878  0 21
G02  23341128.155 5  -1215997.10209      3416.500          30.803  
G08  22530160.190 4    142531.53509      -458.303          37.886  
G10  21172841.735 5    172875.09309      -508.922          34.798  
G18  24810915.846 6         0.00000     -3153.873          25.623  
G21  22485353.196 4  -1002952.04209      2803.110          41.642  
G23  23310324.193 5    686866.45909     -1956.250          32.197  
G27  22814286.084 6    377606.75909     -2406.957          30.395  
G32  20536199.770 4   -271440.91409       711.252          40.680  
R02  20672772.625 5   -857568.81409      2310.672          40.132  
R01  19729340.755 5    320587.04509      -912.021          37.958  
R24  19263952.243 5    102993.17209      -468.973          37.182  
R23  22089185.580 6   1256361.00409     -3684.588          32.507  
R17  20985082.313 5  -1339224.75109      3695.236          43.658  
R08  23226396.691 6   1052905.42609     -2875.339          33.186  
J03  43908643.369 5    -15150.96909       629.862          32.217  
C25         0.000 0         0.00000         0.000           0.000  
C27         0.000 0         0.00000         0.000           0.000  
C28         0.000 0         0.00000         0.000           0.000  
C30         0.000 0         0.00000         0.000           0.000  
C32         0.000 0         0.00000         0.000           0.000  
C33         0.000 0         0.00000         0.000           0.000  
> 2023 09 07 19 36 20.0002878  0 21
G02  23340482.707 5  -1219413.11009      3414.412          30.937  
G08  22530247.424 4    142990.82909      -459.858          38.137  
G10  21172947.867 5    173383.80709      -508.952          35.010  
G18  24811504.634 6         0.00000     -3154.309          24.533  
G21  22484814.770 4  -1005754.46609      2801.566          41.687  
G23  23310688.728 5    688822.07609     -1955.276          31.429  
G27  22814739.074 6    380013.70309     -2407.287          30.620  
G32  20536068.160 4   -272152.13809       711.337          40.599  
R02  20672340.331 5   -859879.10809      2309.954          40.169  
R01  19729507.143 5    321499.63209      -912.969          38.186  
R24  19264029.286 5    103462.97109      -470.235          37.811  
R23  22089856.506 6   1260045.29709     -3684.493          31.309  
R17  20984386.800 5  -1342919.20609      3693.609          43.764  
R08  23226939.619 6   1055780.75709     -2875.645          35.124  
J03  43908529.140 5    -15779.91709       628.286          34.197  
C25         0.000 0         0.00000         0.000           0.000  
C27         0.000 0         0.00000         0.000           0.000  
C28         0.000 0         0.00000         0.000           0.000  
C30         0.000 0         0.00000         0.000           0.000  
C32         0.000 0         0.00000         0.000           0.000  
C33         0.000 0         0.00000         0.000           0.000  
> 2023 09 07 19 36 21.0002878  0 21
G02  23339815.969 5  -1222828.01709      3413.873          32.304  
G08  22530343.662 4    143451.29409      -461.238          37.864  
G10  21173032.710 5    173893.14409      -510.298          34.585  
G18  24812136.611 6         0.00000     -3153.926          25.247  
G21  22484282.346 4  -1008555.72209      2800.300          41.628  
G23  23311047.278 5    690777.91609     -1956.092          31.506  
G27  22815207.054 5    382421.01009     -2407.369          32.139  
G32  20535938.959 4   -272862.58909       709.691          40.665  
R02  20671901.126 5   -862188.44009      2308.867          39.900  
R01  19729675.014 5    322413.16009      -914.427          38.527  
R24  19264126.710 5    103933.71409      -471.684          37.986  
R23  22090596.691 6         0.00000     -3682.484          31.596  
R17  20983673.592 5  -1346612.25809      3691.961          44.024  
R08  23227499.021 6   1058656.43909     -2876.229          35.473  
J03  43908407.128 5    -16407.83309       627.843          33.498  
C25         0.000 0         0.00000         0.000           0.000  
C27         0.000 0         0.00000         0.000           0.000  
C28         0.000 0         0.00000         0.000           0.000  
C30         0.000 0         0.00000         0.000           0.000  
C32         0.000 0         0.00000         0.000           0.000  
C33         0.000 0         0.00000         0.000           0.000  
> 2023 09 07 19 36 22.0002878  0 21
G02  23339172.317 5  -1226241.75809      3413.101          32.121  
G08  22530421.909 4    143912.69809      -461.548          38.193  
G10  21173135.230 5    174402.58809      -509.416          34.327  
G18  24812739.778 6         0.00000     -3154.238          26.103  
G21  22483752.907 4  -1011355.88009      2799.711          41.600  
G23  23311422.929 5    692733.26209     -1955.409          31.457  
G27  22815666.623 5    384828.16309     -2407.239          32.987  
G32  20535801.643 4   -273572.88709       710.430          40.605  
R02  20671462.533 5   -864497.18209      2308.497          39.916  
R01  19729860.894 5    323327.44809      -914.369          38.906  
R24  19264230.138 5    104405.08909      -471.578          38.456  
R23  22091295.800 6   1267412.48409     -3683.286          31.326  
R17  20982977.189 5  -1350303.85509      3691.219          43.882  
R08  23228016.769 6   1061532.26609     -2875.232          34.439  
J03  43908296.808 5         0.00000       628.025          32.722  
C25         0.000 0         0.00000         0.000           0.000  
C27         0.000 0         0.00000         0.000           0.000  
C28         0.000 0         0.00000         0.000           0.000  
C30         0.000 0         0.00000         0.000           0.000  
C32         0.000 0         0.00000         0.000           0.000  
C33         0.000 0         0.00000         0.000           0.000  
> 2023 09 07 19 36 23.0002878  0 22
G02  23338529.556 5  -1229653.95709      3411.423          33.330  
G08  22530520.537 4    144376.08409      -464.519          37.570  
G10  21173243.160 5    174912.42109      -509.868          34.985  
G18  24813321.987 6         0.00000     -3151.922          25.622  
G21  22483219.279 4  -1014154.41609      2797.922          41.370  
G23  23311786.871 5    694687.95409     -1954.275          31.711  
G27  22816113.924 5         0.00000     -2406.225          32.618  
G28  23549597.234 6         0.00000      3684.680          20.806  
G32  20535658.953 4   -274282.11209       708.592          40.763  
R02  20671015.842 5   -866804.28409      2306.472          39.406  
R01  19730027.578 5    324242.68409      -914.846          38.431  
R24  19264304.196 5    104877.78509      -473.489          38.105  
R23  22091992.517 7         0.00000     -3684.275          30.323  
R17  20982277.156 5  -1353993.67009      3689.137          43.799  
R08  23228598.070 6   1064407.84009     -2876.051          33.661  
J03  43908161.900 5    -17660.21109       625.442          32.504  
C25         0.000 0         0.00000         0.000           0.000  
C27         0.000 0         0.00000         0.000           0.000  
C28         0.000 0         0.00000         0.000           0.000  
C30         0.000 0         0.00000         0.000           0.000  
C32         0.000 0         0.00000         0.000           0.000  
C33         0.000 0         0.00000         0.000           0.000  
> 2023 09 07 19 36 24.0002878  0 22
G02  23337864.912 5         0.00000      3409.438          31.770  
G08  22530598.173 4    144839.82609      -464.214          37.517  
G10  21173326.799 5    175422.00509      -510.275          34.485  
G18  24813937.160 6         0.00000     -3152.518          27.215  
G21  22482683.854 4  -1016953.10709      2798.769          41.121  
G23  23312181.699 6         0.00000     -1952.221          30.592  
G27  22816555.816 5    389644.83109     -2409.123          31.114  
G28  23548896.625 7         0.00000      3682.371          20.559  
G32  20535529.734 4   -274991.29909       708.461          40.580  
R02  20670588.940 5   -869111.17209      2306.511          39.675  
R01  19730207.455 5    325157.94209      -915.803          38.516  
R24  19264401.028 5    105351.16709      -474.570          38.235  
R23  22092696.738 7   1274778.72409     -3684.113          30.091  
R17  20981577.158 5  -1357683.28909      3689.282          43.269  
R08  23229143.390 6         0.00000     -2876.409          32.181  
J03  43908051.283 5         0.00000       622.950          30.740  
C25         0.000 0         0.00000         0.000           0.000  
C27         0.000 0         0.00000         0.000           0.000  
C28         0.000 0         0.00000         0.000           0.000  
C30         0.000 0         0.00000         0.000           0.000  
C32         0.000 0         0.00000         0.000           0.000  
C33         0.000 0         0.00000         0.000           0.000  
> 2023 09 07 19 36 25.0002878  0 22
G02  23337223.058 5         0.00000      3412.218          32.058  
G08  22530687.518 4    145303.69309      -463.975          37.310  
G10  21173420.925 5    175931.70809      -510.084          33.910  
G18  24814501.360 6         0.00000     -3159.251          26.828  
G21  22482153.821 4  -1019752.22909      2799.535          41.279  
G23  23312573.823 6         0.00000     -1953.550          28.340  
G27  22817030.986 5    392053.77109     -2409.361          30.955  
G28  23548196.906 6         0.00000      3684.753          23.109  
G32  20535390.638 4   -275699.88509       707.994          40.664  
R02  20670138.061 5   -871418.01009      2306.870          39.484  
R01  19730385.535 5    326073.18609      -915.602          38.558  
R24  19264495.765 5    105825.43909      -474.911          38.416  
R23  22093407.555 7   1278463.27009     -3684.997          29.578  
R17  20980868.749 5  -1361373.07209      3689.644          43.375  
R08  23229666.826 6         0.00000     -2873.055          31.511  
J03  43907916.061 6         0.00000       624.115          29.074  
C25         0.000 0         0.00000         0.000           0.000  
C27         0.000 0         0.00000         0.000           0.000  
C28         0.000 0         0.00000         0.000           0.000  
C30         0.000 0         0.00000         0.000           0.000  
C32         0.000 0         0.00000         0.000           0.000  
C33         0.000 0         0.00000         0.000           0.000  
> 2023 09 07 19 36 26.0002878  0 22
G02  23336583.909 6         0.00000      3413.073          30.321  
G08  22530775.363 4    145767.81909      -463.912          37.609  
G10  21173512.364 5    176441.63409      -510.067          34.319  
G18  24815139.026 6         0.00000     -3157.494          25.670  
G21  22481622.881 4  -1022551.86909      2800.034          41.436  
G23  23312918.587 6         0.00000     -1959.452          29.573  
G27  22817488.460 6    394463.43709     -2409.724          30.282  
G28  23547491.499 6         0.00000      3685.567          20.965  
G32  20535263.827 4   -276407.72309       707.758          40.342  
R02  20669709.344 5   -873724.56009      2306.552          39.597  
R01  19730557.908 5    326988.39409      -915.126          38.611  
R24  19264591.985 5    106300.90109      -475.383          38.061  
R23  22094055.394 7   1282149.41609     -3686.827          29.454  
R17  20980173.218 5  -1365063.24709      3690.567          43.525  
R08  23230207.050 7         0.00000     -2873.995          30.539  
J03  43907811.447 5         0.00000       630.465          31.574  
C25         0.000 0         0.00000         0.000           0.000  
C27         0.000 0         0.00000         0.000           0.000  
C28         0.000 0         0.00000         0.000           0.000  
C30         0.000 0         0.00000         0.000           0.000  
C32         0.000 0         0.00000         0.000           0.000  
C33         0.000 0         0.00000         0.000           0.000  
> 2023 09 07 19 36 27.0002878  0 22
G02  23335918.969 5         0.00000      3416.093          30.789  
G08  22530870.397 4    146231.93009      -464.280          37.520  
G10  21173621.498 5    176951.67909      -510.325          34.165  
G18  24815731.723 6         0.00000     -3156.239          24.814  
G21  22481086.548 4  -1025352.28509      2800.811          41.391  
G23  23313282.232 6         0.00000     -1958.033          29.758  
G27  22817937.263 6    396873.65009     -2410.529          30.309  
G28  23546793.281 6         0.00000      3684.347          23.967  
G32  20535128.606 4   -277114.91909       706.543          40.401  
R02  20669263.561 5   -876031.06109      2306.262          39.615  
R01  19730733.300 5    327903.46409      -915.022          38.769  
R24  19264659.448 5    106777.52809      -477.368          38.565  
R23  22094811.774 7   1285836.90909     -3688.469          30.777  
R17  20979465.716 5  -1368753.91809      3691.029          43.875  
R08  23230734.989 7         0.00000     -2872.234          30.460  
J03  43907679.838 5         0.00000       632.463          30.725  
C25         0.000 0         0.00000         0.000           0.000  
C27         0.000 0         0.00000         0.000           0.000  
C28         0.000 0         0.00000         0.000           0.000  
C30         0.000 0         0.00000         0.000           0.000  
C32         0.000 0         0.00000         0.000           0.000  
C33         0.000 0         0.00000         0.000           0.000  
> 2023 09 07 19 36 28.0002878  0 22
G02  23335288.510 5         0.00000      3415.222          31.233  
G08  22530955.240 4    146695.52909      -463.307          37.546  
G10  21173718.329 5    177461.96609      -510.675          33.394  
G18  24816321.104 6         0.00000     -3156.716          22.851  
G21  22480555.625 4  -1028153.65209      2801.607          41.254  
G23  23313679.765 6         0.00000     -1952.295          25.926  
G27  22818407.040 5    399283.87609     -2410.203          30.970  
G28  23546068.678 6         0.00000      3683.379          25.519  
G32  20534986.509 4   -277821.91309       706.737          40.254  
R02  20668824.967 5   -878337.99209      2306.949          39.387  
R01  19730913.177 5    328818.38709      -915.230          38.450  
R24  19264770.065 5    107254.79409      -477.657          38.196  
R23  22095487.202 7   1289525.78409     -3689.458          30.515  
R17  20978762.088 5  -1372445.24909      3691.347          43.492  
R08  23231333.375 7         0.00000     -2874.974          30.207  
J03  43907558.419 5    -20797.58709       631.288          31.886  
C25         0.000 0         0.00000         0.000           0.000  
C27         0.000 0         0.00000         0.000           0.000  
C28         0.000 0         0.00000         0.000           0.000  
C30         0.000 0         0.00000         0.000           0.000  
C32         0.000 0         0.00000         0.000           0.000  
C33         0.000 0         0.00000         0.000           0.000  
> 2023 09 07 19 36 29.0002878  0 22
G02  23334630.759 5  -1250139.60909      3416.610          32.202  
G08  22531043.066 4    147159.28409      -463.923          37.771  
G10  21173813.363 5    177972.66109      -510.744          34.342  
G18  24816925.492 6         0.00000     -3157.484          21.560  
G21  22480020.497 4  -1030955.59309      2801.830          41.150  
G23  23314034.424 6         0.00000     -1956.766          29.418  
G27  22818860.013 6    401694.78209     -2411.125          30.576  
G28  23545401.643 6         0.00000      3681.910          26.346  
G32  20534857.900 4   -278528.00709       705.625          40.580  
R02  20668390.875 5   -880644.79209      2306.373          39.799  
R01  19731073.858 5    329733.37209      -915.368          38.896  
R24  19264867.210 5    107733.40209      -479.377          38.225  
R23  22096207.914 7   1293216.23509     -3691.207          30.642  
R17  20978061.183 5  -1376136.83009      3691.267          43.302  
R08  23231861.313 6   1081656.46509     -2874.282          32.237  
J03  43907447.802 5    -21429.66209       632.173          32.459  
C25         0.000 0         0.00000         0.000           0.000  
C27         0.000 0         0.00000         0.000           0.000  
C28         0.000 0         0.00000         0.000           0.000  
C30         0.000 0         0.00000         0.000           0.000  
C32         0.000 0         0.00000         0.000           0.000  
C33         0.000 0         0.00000         0.000           0.000  
> 2023 09 07 19 36 30.0002878  0 22
G02  23333975.712 5  -1253556.40709      3416.279          32.129  
G08  22531140.508 4    147623.58409      -465.154          37.834  
G10  21173908.100 5    178483.08509      -510.678          34.127  
G18  24817546.353 6         0.00000     -3157.386          22.398  
G21  22479485.072 4  -1033757.62009      2801.387          41.451  
G23  23314402.868 5    708370.28909     -1957.295          30.740  
G27  22819330.994 6         0.00000     -2411.263          30.112  
G28  23544686.341 6         0.00000      3678.628          25.271  
G32  20534725.087 4   -279233.91109       705.668          40.988  
R02  20667944.464 5   -882951.30209      2305.940          39.716  
R01  19731258.237 5    330648.24409      -915.179          38.907  
R24  19264940.955 5    108212.62709      -479.664          38.620  
R23  22096857.847 7   1296906.99609     -3690.144          29.869  
R17  20977362.668 5  -1379828.24509      3690.793          43.553  
R08  23232412.932 6   1084530.20009     -2873.652          33.642  
J03  43907322.789 5    -22062.04709       632.066          33.831  
C25         0.000 0         0.00000         0.000           0.000  
C27         0.000 0         0.00000         0.000           0.000  
C28         0.000 0         0.00000         0.000           0.000  
C30         0.000 0         0.00000         0.000           0.000  
C32         0.000 0         0.00000         0.000           0.000  
C33         0.000 0         0.00000         0.000           0.000  
> 2023 09 07 19 36 31.0002878  0 22
G02  23333331.154 5         0.00000      3414.745          30.928  
G08  22531219.645 4    148089.00409      -466.043          37.507  
G10  21174010.324 5    178993.95009      -511.320          34.179  
G18  24818148.944 6         0.00000     -3158.932          23.525  
G21  22478959.524 4  -1036558.31509      2800.078          41.384  
G23  23314786.895 5         0.00000     -1959.393          30.823  
G27  22819788.172 6         0.00000     -2409.261          30.488  
G28  23543980.323 6         0.00000      3674.337          22.570  
G32  20534587.195 4   -279939.31409       705.114          40.476  
R02  20667518.469 5   -885257.02909      2305.527          39.623  
R01  19731421.013 5    331564.13909      -916.252          38.611  
R24  19265038.083 5    108692.64109      -480.112          38.328  
R23  22097606.147 7         0.00000     -3691.035          29.794  
R17  20976655.760 5  -1383517.96309      3688.895          43.863  
R08  23232961.550 6   1087404.36909     -2874.388          34.750  
J03  43907211.561 5    -22693.16709       630.411          33.696  
C25         0.000 0         0.00000         0.000           0.000  
C27         0.000 0         0.00000         0.000           0.000  
C28         0.000 0         0.00000         0.000           0.000  
C30         0.000 0         0.00000         0.000           0.000  
C32         0.000 0         0.00000         0.000           0.000  
C33         0.000 0         0.00000         0.000           0.000  
> 2023 09 07 19 36 32.0002878  0 22
G02  23332684.204 5  -1260386.57509      3414.160          31.858  
G08  22531313.178 4    148555.13609      -466.827          38.194  
G10  21174099.058 5    179504.91109      -511.496          34.839  
G18  24818757.521 6         0.00000     -3159.298          27.022  
G21  22478427.990 4  -1039358.32709      2799.489          41.712  
G23  23315158.637 5    712284.63609     -1957.395          30.803  
G27  22820237.864 6    408928.78809     -2411.601          29.751  
G28  23543287.811 6         0.00000      3674.331          21.773  
G32  20534454.678 4   -280644.35409       704.408          40.919  
R02  20667062.495 5   -887562.22509      2304.731          40.112  
R01  19731608.079 5    332480.61709      -917.097          38.892  
R24  19265134.914 5    109173.38309      -481.586          39.337  
R23  22098296.565 7         0.00000     -3686.742          29.760  
R17  20975956.652 5  -1387206.78309      3688.138          44.033  
R08  23233499.069 6   1090278.42709     -2874.667          34.260  
J03  43907098.833 5    -23323.96109       631.206          33.669  
C25         0.000 0         0.00000         0.000           0.000  
C27         0.000 0         0.00000         0.000           0.000  
C28         0.000 0         0.00000         0.000           0.000  
C30         0.000 0         0.00000         0.000           0.000  
C32         0.000 0         0.00000         0.000           0.000  
C33         0.000 0         0.00000         0.000           0.000  
> 2023 09 07 19 36 33.0002878  0 22
G02  23332022.562 5         0.00000      3413.005          31.861  
G08  22531406.712 4    149022.03109      -467.700          37.763  
G10  21174203.690 5    180016.25109      -511.678          34.712  
G18  24819358.000 6         0.00000     -3156.555          26.011  
G21  22477886.266 4  -1042157.66209      2798.521          41.572  
G23  23315517.797 6    714241.55109     -1956.624          30.470  
G27  22820709.439 6    411340.24309     -2411.861          30.017  
G28  23542577.901 6         0.00000      3678.595          22.913  
G32  20534316.769 4   -281348.97809       704.214          40.868  
R02  20666638.577 5   -889866.90609      2304.434          40.024  
R01  19731777.172 5    333397.65409      -917.506          38.854  
R24  19265226.650 5    109654.84209      -481.836          38.488  
R23  22099010.960 7         0.00000     -3689.597          29.884  
R17  20975255.118 5  -1390894.57009      3687.010          43.853  
R08  23234050.094 6   1093152.99109     -2875.324          34.536  
J03  43906972.022 5    -23954.14909       630.062          33.784  
C25         0.000 0         0.00000         0.000           0.000  
C27         0.000 0         0.00000         0.000           0.000  
C28         0.000 0         0.00000         0.000           0.000  
C30         0.000 0         0.00000         0.000           0.000  
C32         0.000 0         0.00000         0.000           0.000  
C33         0.000 0         0.00000         0.000           0.000  
> 2023 09 07 19 36 34.0002878  0 22
G02  23331381.912 5  -1267213.64909      3412.584          31.741  
G08  22531490.368 4    149490.11109      -468.437          37.579  
G10  21174295.425 5    180527.50309      -510.773          35.387  
G18  24819956.682 6         0.00000     -3160.351          24.985  
G21  22477355.343 4  -1044955.88109      2797.947          41.508  
G23  23315877.533 6         0.00000     -1955.957          27.664  
G27  22821149.237 6    413751.87909     -2411.586          29.128  
G28  23541872.494 6         0.00000      3679.495          23.264  
G32  20534186.067 4   -282053.28309       704.610          40.649  
R02  20666191.293 5   -892170.67709      2303.480          39.540  
R01  19731931.868 5    334315.27509      -917.350          37.999  
R24  19265314.791 5    110137.03809      -482.126          38.536  
R23  22099728.076 7   1311665.13309     -3688.253          30.748  
R17  20974557.214 5  -1394581.02709      3685.805          44.194  
R08  23234573.828 6         0.00000     -2876.415          31.461  
J03  43906843.414 5    -24583.33209       628.536          33.488  
C25         0.000 0         0.00000         0.000           0.000  
C27         0.000 0         0.00000         0.000           0.000  
C28         0.000 0         0.00000         0.000           0.000  
C30         0.000 0         0.00000         0.000           0.000  
C32         0.000 0         0.00000         0.000           0.000  
C33         0.000 0         0.00000         0.000           0.000  
> 2023 09 07 19 36 35.0002878  0 21
G02  23330719.973 5         0.00000      3409.492          31.134  
G08  22531577.602 4    149959.67209      -469.744          38.153  
G10  21174400.057 5    181039.28309      -512.009          34.696  
G18  24820540.392 6         0.00000     -3155.227          25.990  
G21  22476828.311 4  -1047752.46509      2796.353          41.682  
G23  23316268.767 6         0.00000     -1955.862          29.652  
G27  22821622.609 6    416163.76109     -2412.004          30.011  
G32  20534054.161 4   -282757.00209       703.745          40.832  
R02  20665754.793 5   -894473.45509      2302.725          39.886  
R01  19732122.233 5    335234.05409      -918.978          38.423  
R24  19265405.340 5    110620.05209      -483.197          38.914  
R23  22100390.905 6   1315353.02109     -3687.214          30.951  
R17  20973844.006 5  -1398265.52609      3683.948          44.146  
R08  23235160.225 6   1098900.74409     -2874.598          33.846  
J03  43906724.089 5    -25210.87509       627.066          33.611  
C25         0.000 0         0.00000         0.000           0.000  
C27         0.000 0         0.00000         0.000           0.000  
C28         0.000 0         0.00000         0.000           0.000  
C30         0.000 0         0.00000         0.000           0.000  
C32         0.000 0         0.00000         0.000           0.000  
C33         0.000 0         0.00000         0.000           0.000  
> 2023 09 07 19 36 36.0002878  0 20
G02  23330081.714 5  -1274035.63309      3410.896          30.885  
G08  22531669.041 4    150429.69809      -470.458          37.419  
G10  21174504.078 5         0.00000      -512.339          32.832  
G18  24821137.573 6         0.00000     -3153.882          27.445  
G21  22476295.573 4  -1050548.50309      2795.945          41.384  
G23  23316657.593 6         0.00000     -1956.754          28.877  
G27  22822064.798 6         0.00000     -2412.956          29.103  
G32  20533917.456 4   -283460.59409       703.197          40.490  
R02  20665315.903 5   -896776.09009      2302.308          40.154  
R01  19732291.604 5    336153.32909      -919.406          38.501  
R24  19265505.766 5    111103.51109      -483.835          38.159  
R23  22101096.924 6   1319040.28609     -3687.224          31.029  
R17  20973154.775 5  -1401949.24009      3683.496          43.758  
R08  23235687.867 6         0.00000     -2872.726          31.194  
J03  43906617.660 5    -25838.16009       627.106          33.214  
C27         0.000 0         0.00000         0.000           0.000  
C28         0.000 0         0.00000         0.000           0.000  
C30         0.000 0         0.00000         0.000           0.000  
C32         0.000 0         0.00000         0.000           0.000  
C33         0.000 0         0.00000         0.000           0.000  
> 2023 09 07 19 36 37.0002878  0 21
G02  23329429.966 5  -1277446.66009      3410.584          30.883  
G08  22531762.574 5    150899.93909      -470.356          36.398  
G10  21174582.621 5    182063.29709      -512.104          33.405  
G18  24821729.362 6         0.00000     -3165.247          24.932  
G21  22475763.132 4  -1053344.68909      2796.033          40.609  
G23  23317028.741 6         0.00000     -1954.864          29.161  
G27  22822546.563 6    420986.94009     -2411.548          29.056  
G32  20533781.955 4   -284163.86009       703.148          39.591  
R02  20664883.294 5   -899078.59309      2302.494          39.982  
R01  19732463.698 5    337072.59909      -919.129          37.904  
R24  19265589.998 5    111587.77409      -484.451          37.458  
R23  22101842.502 7   1322728.47809     -3687.680          30.020  
R17  20972455.056 5  -1405632.73509      3683.249          42.717  
R08  23236234.687 6         0.00000     -2875.856          33.452  
J03  43906491.164 5    -26465.78809       627.586          32.490  
C25         0.000 0         0.00000         0.000           0.000  
C27         0.000 0         0.00000         0.000           0.000  
C28         0.000 0         0.00000         0.000           0.000  
C30         0.000 0         0.00000         0.000           0.000  
C32         0.000 0         0.00000         0.000           0.000  
C33         0.000 0         0.00000         0.000           0.000  
> 2023 09 07 19 36 38.0002878  0 21
G02  23328779.107 5  -1280857.11709      3409.698          31.609  
G08  22531850.418 4    151370.65009      -471.712          37.984  
G10  21174692.959 5    182575.34109      -512.458          35.503  
G18  24822328.655 7         0.00000     -3164.920          20.628  
G21  22475227.114 4  -1056140.32309      2794.553          41.993  
G23  23317381.306 6    724025.77609     -1956.309          30.028  
G27  22823000.461 5    423398.34609     -2411.753          33.836  
G32  20533652.439 4   -284867.18609       702.818          40.540  
R02  20664440.809 5   -901380.86809      2301.657          40.364  
R01  19732657.064 5    337992.38109      -920.828          38.622  
R24  19265691.628 5    112072.29009      -485.166          38.145  
R23  22102481.965 7         0.00000     -3688.855          29.726  
R17  20971752.353 5  -1409315.25309      3681.340          43.719  
R08  23236802.186 6         0.00000     -2877.153          34.241  
J03  43906369.448 5    -27092.92009       625.955          32.776  
C25         0.000 0         0.00000         0.000           0.000  
C27         0.000 0         0.00000         0.000           0.000  
C28         0.000 0         0.00000         0.000           0.000  
C30         0.000 0         0.00000         0.000           0.000  
C32         0.000 0         0.00000         0.000           0.000  
C33         0.000 0         0.00000         0.000           0.000  
> 2023 09 07 19 36 39.0002878  0 21
G02  23328139.958 5  -1284265.81409      3407.070          30.868  
G08  22531930.462 4    151841.99509      -471.636          38.161  
G10  21174789.179 5    183087.85909      -513.334          36.377  
G18  24822926.430 7         0.00000     -3161.184          20.526  
G21  22474694.376 3  -1058934.65709      2793.354          42.563  
G23  23317754.845 6    725981.96309     -1956.305          29.365  
G27  22823459.140 5    425808.91609     -2410.374          35.560  
G32  20533513.640 4   -285570.56309       702.740          40.506  
R02  20663998.307 5   -903682.91509      2301.567          40.486  
R01  19732824.639 5    338912.97709      -921.808          39.269  
R24  19265766.280 5    112556.82509      -485.240          37.262  
R23  22103218.556 6         0.00000     -3684.442          26.940  
R17  20971043.037 5  -1412996.09909      3679.436          44.108  
R08  23237334.016 6   1110394.15709     -2876.321          35.777  
J03  43906253.125 5    -27718.29809       624.446          32.260  
C25         0.000 0         0.00000         0.000           0.000  
C27         0.000 0         0.00000         0.000           0.000  
C28         0.000 0         0.00000         0.000           0.000  
C30         0.000 0         0.00000         0.000           0.000  
C32         0.000 0         0.00000         0.000           0.000  
C33         0.000 0         0.00000         0.000           0.000  
> 2023 09 07 19 36 40.0002878  0 20
G02  23327477.408 5  -1287672.83109      3405.864          31.467  
G08  22532030.295 4    152313.73609      -472.075          38.398  
G10  21174878.821 5    183602.49909      -516.207          36.354  
G18  24823532.022 6         0.00000     -3159.162          22.907  
G21  22474167.048 3  -1061727.08209      2791.338          42.746  
G23  23318130.775 5    727939.81909     -1959.665          31.674  
G27  22823913.927 5    428217.82409     -2408.072          36.239  
G32  20533388.016 4   -286273.03709       701.828          39.716  
R02  20663563.011 5   -905985.01609      2301.923          40.871  
R01  19733006.610 5    339835.97109      -924.346          39.548  
R24  19265866.706 5    113042.18409      -486.417          36.814  
R23  22103889.796 6         0.00000     -3682.208          25.322  
R17  20970353.527 5  -1416674.38309      3676.708          44.206  
R08  23237877.852 6   1113272.50609     -2879.954          34.655  
J03  43906138.599 6    -28342.59209       623.318          30.384  
C25         0.000 0         0.00000         0.000           0.000  
C27         0.000 0         0.00000         0.000           0.000  
C30         0.000 0         0.00000         0.000           0.000  
C32         0.000 0         0.00000         0.000           0.000  
C33         0.000 0         0.00000         0.000           0.000  
> 2023 09 07 19 36 41.0002878  0 21
G02  23326843.948 5  -1291078.93909      3406.605          32.667  
G08  22532114.824 4    152784.98809      -470.695          38.773  
G10  21174985.250 5    184119.41809      -517.924          36.326  
G18  24824155.588 6         0.00000     -3154.695          25.051  
G21  22473640.610 3  -1064518.58409      2791.747          42.842  
G23  23318508.223 5    729899.75009     -1961.901          32.000  
G27  22824379.202 5    430625.22509     -2406.635          36.456  
G32  20533244.715 4   -286974.46809       700.995          39.273  
R02  20663130.106 5   -908287.63109      2303.336          40.693  
R01  19733174.498 5    340761.00509      -925.577          39.240  
R24  19265966.539 6    113528.43009      -486.701          36.398  
R23  22104621.885 7         0.00000     -3685.091          28.665  
R17  20969647.508 5  -1420351.07609      3676.636          43.745  
R08  23238414.167 6         0.00000     -2883.308          32.285  
J03  43906034.875 6         0.00000       618.607          29.168  
C25         0.000 0         0.00000         0.000           0.000  
C27         0.000 0         0.00000         0.000           0.000  
C28         0.000 0         0.00000         0.000           0.000  
C30         0.000 0         0.00000         0.000           0.000  
C32         0.000 0         0.00000         0.000           0.000  
C33         0.000 0         0.00000         0.000           0.000  
> 2023 09 07 19 36 42.0002878  0 21
G02  23326188.308 5  -1294486.54009      3408.437          33.200  
G08  22532203.576 4    153254.07909      -467.679          40.922  
G10  21175076.096 5    184638.54909      -520.528          35.919  
G18  24824751.566 6         0.00000     -3154.461          27.205  
G21  22473105.185 3  -1067311.35709      2793.703          43.134  
G23  23318882.059 6         0.00000     -1965.454          30.363  
G27  22824834.287 4    433030.62309     -2404.326          36.635  
G32  20533116.700 4   -287675.30409       700.606          40.032  
R02  20662702.296 5   -910592.24209      2305.824          41.103  
R01  19733363.362 5    341687.03409      -926.035          39.158  
R24  19266051.975 6    114015.24409      -486.942          35.827  
R23  22105316.212 6   1341150.34109     -3684.948          31.521  
R17  20968956.497 5  -1424028.19609      3677.858          43.179  
R08  23238973.289 6   1119037.74409     -2885.551          34.870  
J03  43905890.370 6         0.00000       625.226          27.108  
C25         0.000 0         0.00000         0.000           0.000  
C27         0.000 0         0.00000         0.000           0.000  
C28         0.000 0         0.00000         0.000           0.000  
C30         0.000 0         0.00000         0.000           0.000  
C32         0.000 0         0.00000         0.000           0.000  
C33         0.000 0         0.00000         0.000           0.000  
> 2023 09 07 19 36 43.0002878  0 22
G02  23325533.262 5  -1297896.07909      3409.910          32.909  
G08  22532298.610 4    153720.54909      -465.306          41.415  
G10  21175179.820 5    185159.58609      -522.885          34.876  
G18  24825364.941 6         0.00000     -3156.759          25.857  
G21  22472573.041 3  -1070105.81509      2795.217          42.715  
G23  23319266.400 6         0.00000     -1968.909          28.515  
G27  22825292.372 4    435433.76409     -2402.364          37.211  
G28  23535546.859 6         0.00000      3689.431          26.519  
G32  20532979.995 4   -288375.78709       700.064          40.016  
R02  20662237.929 5   -912899.26209      2308.181          41.479  
R01  19733524.951 5    342613.66509      -926.729          39.014  
R24  19266135.632 6    114502.20409      -487.282          35.375  
R23  22106018.321 6   1344835.63509     -3685.769          32.906  
R17  20968247.774 5  -1427706.29009      3678.448          42.252  
R08  23239533.598 6         0.00000     -2887.755          33.977  
J03  43905767.451 6         0.00000       633.627          27.850  
C25         0.000 0         0.00000         0.000           0.000  
C27         0.000 0         0.00000         0.000           0.000  
C28         0.000 0         0.00000         0.000           0.000  
C30         0.000 0         0.00000         0.000           0.000  
C32         0.000 0         0.00000         0.000           0.000  
C33         0.000 0         0.00000         0.000           0.000  
> 2023 09 07 19 36 44.0002878  0 22
G02  23324895.893 5  -1301306.79909      3411.575          34.018  
G08  22532387.047 3    154184.87809      -462.714          42.482  
G10  21175272.149 5    185683.44309      -524.642          34.303  
G18  24825966.624 6         0.00000     -3158.221          21.920  
G21  22472040.024 3  -1072901.13909      2796.052          42.668  
G23  23319632.750 5    735802.36709     -1972.971          33.048  
G27  22825747.160 4    437834.83309     -2399.251          38.222  
G28  23534852.847 6         0.00000      3689.206          28.340  
G32  20532847.496 4   -289075.18509       699.594          40.316  
R02  20661811.027 5   -915208.11709      2310.440          41.366  
R01  19733715.629 5    343542.07409      -929.098          37.599  
R24  19266242.043 6    114990.21609      -487.890          34.627  
R23  22106705.441 6   1348521.94209     -3685.954          33.282  
R17  20967548.055 5  -1431384.28509      3678.015          41.716  
R08  23240078.028 6         0.00000     -2892.861          34.360  
J03  43905640.343 6         0.00000       636.471          28.656  
C25         0.000 0         0.00000         0.000           0.000  
C27         0.000 0         0.00000         0.000           0.000  
C28         0.000 0         0.00000         0.000           0.000  
C30         0.000 0         0.00000         0.000           0.000  
C32         0.000 0         0.00000         0.000           0.000  
C33         0.000 0         0.00000         0.000           0.000  
> 2023 09 07 19 36 45.0002878  0 22
G02  23324239.957 5  -1304718.58609      3412.617          33.055  
G08  22532474.281 4    154646.19909      -459.568          42.132  
G10  21175374.686 5    186209.89409      -526.987          34.113  
G18  24826566.510 6         0.00000     -3158.561          23.664  
G21  22471510.584 4  -1075697.53809      2797.296          41.542  
G23  23319994.598 5    737777.68409     -1977.143          31.125  
G27  22826196.835 4    440232.33909     -2395.322          39.124  
G28  23534161.225 6         0.00000      3685.982          28.449  
G32  20532714.979 4   -289774.54009       700.306          40.211  
R02  20661367.616 5   -917519.91309      2313.854          40.744  
R01  19733895.210 6    344471.56509      -929.140          36.052  
R24  19266321.197 6    115477.80209      -486.746          33.634  
R23  22107418.649 6         0.00000     -3686.895          30.864  
R17  20966853.152 5  -1435062.38309      3678.363          40.928  
R08  23240629.036 6   1127710.33509     -2896.618          34.614  
J03  43905533.025 5    -31490.52909       635.048          31.178  
C25         0.000 0         0.00000         0.000           0.000  
C27         0.000 0         0.00000         0.000           0.000  
C28         0.000 0         0.00000         0.000           0.000  
C30         0.000 0         0.00000         0.000           0.000  
C32         0.000 0         0.00000         0.000           0.000  
C33         0.000 0         0.00000         0.000           0.000  
> 2023 09 07 19 36 46.0002878  0 22
G02  23323587.598 5  -1308130.61709      3412.898          32.130  
G08  22532559.421 4    155105.56209      -458.206          41.869  
G10  21175478.707 5    186739.85809      -531.138          36.052  
G18  24827157.706 6         0.00000     -3158.466          24.899  
G21  22470979.347 4  -1078493.80509      2796.443          41.332  
G23  23320373.529 6         0.00000     -1979.844          30.066  
G27  22826666.612 4    442627.27009     -2393.468          40.724  
G28  23533471.104 6         0.00000      3688.357          25.511  
G32  20532580.071 4   -290472.55409       697.785          40.350  
R02  20660927.225 5   -919833.43309      2314.681          40.467  
R01  19734050.796 6         0.00000      -932.747          33.301  
R24  19266417.139 6    115966.41709      -488.228          33.419  
R23  22108060.206 6         0.00000     -3688.227          27.308  
R17  20966148.024 5  -1438739.38909      3676.624          41.114  
R08  23241183.359 6         0.00000     -2901.089          34.363  
J03  43905425.392 5    -32126.39409       636.510          30.894  
C25         0.000 0         0.00000         0.000           0.000  
C27         0.000 0         0.00000         0.000           0.000  
C28         0.000 0         0.00000         0.000           0.000  
C30         0.000 0         0.00000         0.000           0.000  
C32         0.000 0         0.00000         0.000           0.000  
C33         0.000 0         0.00000         0.000           0.000  
> 2023 09 07 19 36 47.0002878  0 22
G02  23322942.742 5  -1311542.32909      3411.071          32.062  
G08  22532644.264 4    155563.63709      -457.987          40.610  
G10  21175580.634 4    187273.02609      -535.386          37.345  
G18  24827742.306 6         0.00000     -3159.458          22.554  
G21  22470444.515 4  -1081289.65409      2795.062          40.667  
G23  23320771.045 6    741740.88709     -1985.046          30.069  
G27  22827114.803 4    445020.00909     -2392.387          41.133  
G28  23532762.101 6         0.00000      3689.941          21.091  
G32  20532450.573 4   -291169.11009       694.759          39.766  
R02  20660487.742 5   -922148.12709      2314.472          39.447  
R01  19734260.059 6    346338.56509      -936.671          31.139  
R24  19266499.277 6    116456.26609      -491.454          33.736  
R23  22108747.937 6         0.00000     -3685.402          22.684  
R17  20965455.809 5  -1442415.08709      3674.655          41.403  
R08  23241733.774 6   1133511.90809     -2904.814          36.009  
J03  43905291.391 6         0.00000       639.121          30.602  
C25         0.000 0         0.00000         0.000           0.000  
C27         0.000 0         0.00000         0.000           0.000  
C28         0.000 0         0.00000         0.000           0.000  
C30         0.000 0         0.00000         0.000           0.000  
C32         0.000 0         0.00000         0.000           0.000  
C33         0.000 0         0.00000         0.000           0.000  
> 2023 09 07 19 36 48.0002878  0 22
G02  23322294.606 6  -1314954.38109      3411.254          30.670  
G08  22532730.607 4    156019.66109      -455.500          39.537  
G10  21175687.063 4    187808.11409      -536.489          37.682  
G18  24828348.474 6         0.00000     -3160.444          25.112  
G21  22469912.092 4  -1084085.90909      2795.851          40.257  
G23  23321125.110 6         0.00000     -1990.769          29.437  
G27  22827570.184 4    447409.85109     -2388.714          40.136  
G28  23532051.895 6         0.00000      3689.572          24.257  
G32  20532316.852 4   -291865.79709       696.013          39.680  
R02  20660063.230 5   -924464.95709      2317.420          38.362  
R01  19734417.442 6    347274.46109      -937.487          31.073  
R24  19266609.300 6         0.00000      -491.877          32.946  
R23  22109444.043 6         0.00000     -3685.272          20.946  
R17  20964758.795 5  -1446090.34009      3674.565          41.172  
R08  23242296.491 6         0.00000     -2906.765          36.060  
J03  43905170.269 5    -33401.24309       638.027          31.907  
C25         0.000 0         0.00000         0.000           0.000  
C27         0.000 0         0.00000         0.000           0.000  
C28         0.000 0         0.00000         0.000           0.000  
C30         0.000 0         0.00000         0.000           0.000  
C32         0.000 0         0.00000         0.000           0.000  
C33         0.000 0         0.00000         0.000           0.000  
> 2023 09 07 19 36 49.0002878  0 21
G02  23321653.939 6         0.00000      3410.730          30.280  
G08  22532816.043 4    156474.51709      -453.344          39.163  
G10  21175784.191 5    188346.11809      -538.614          36.297  
G18  24828940.264 6         0.00000     -3163.931          24.794  
G21  22469383.263 4  -1086881.15009      2795.075          39.154  
G23  23321508.841 6         0.00000     -1991.222          28.322  
G27  22828023.471 4    449796.87809     -2384.559          38.894  
G28  23531334.778 6         0.00000      3689.905          26.000  
G32  20532180.147 4   -292561.72109       697.090          40.034  
R02  20659605.738 5   -926783.02909      2319.824          37.746  
R01  19734616.811 6    348212.82609      -939.110          30.924  
R24  19266710.023 6    117435.58709      -488.608          32.101  
R17  20964056.075 5  -1449763.53609      3672.652          40.910  
R08  23242817.520 6         0.00000     -2911.447          33.410  
J03  43905039.864 5    -34039.22909       637.947          32.243  
C25         0.000 0         0.00000         0.000           0.000  
C27         0.000 0         0.00000         0.000           0.000  
C28         0.000 0         0.00000         0.000           0.000  
C30         0.000 0         0.00000         0.000           0.000  
C32         0.000 0         0.00000         0.000           0.000  
C33         0.000 0         0.00000         0.000           0.000  
> 2023 09 07 19 36 50.0002878  0 22
G02  23320986.311 6  -1321775.21509      3409.055          30.288  
G08  22532904.481 4    156928.32009      -453.710          40.245  
G10  21175878.928 5    188887.30509      -542.770          34.188  
G18  24829554.546 6         0.00000     -3161.857          23.641  
G21  22468845.133 4  -1089675.03909      2793.062          38.530  
G23  23321908.171 6         0.00000     -1992.874          27.011  
G27  22828476.758 4    452180.97709     -2383.377          40.075  
G28  23530641.656 6         0.00000      3695.962          24.844  
G32  20532054.244 4   -293256.74309       694.521          40.343  
R02  20659176.742 5   -929102.27309      2319.208          38.229  
R01  19734765.801 7    349153.77609      -941.995          30.725  
R24  19266799.665 6         0.00000      -489.915          31.289  
R23  22110879.760 7         0.00000     -3686.325          20.557  
R17  20963356.059 5  -1453434.49409      3669.994          41.785  
R08  23243403.917 6         0.00000     -2915.757          34.330  
J03  43904931.638 5    -34676.58909       636.384          33.235  
C25         0.000 0         0.00000         0.000           0.000  
C27         0.000 0         0.00000         0.000           0.000  
C28         0.000 0         0.00000         0.000           0.000  
C30         0.000 0         0.00000         0.000           0.000  
C32         0.000 0         0.00000         0.000           0.000  
C33         0.000 0         0.00000         0.000           0.000  
> 2023 09 07 19 36 51.0002878  0 21
G02  23320337.250 6  -1325184.00109      3408.794          30.596  
G08  22532987.230 4    157382.07709      -453.596          40.610  
G10  21175985.357 5    189431.04409      -544.587          33.157  
G18  24830153.525 6         0.00000     -3163.176          23.073  
G21  22468324.698 4  -1092467.82409      2793.079          37.595  
G23  23322277.209 6         0.00000     -1994.695          29.860  
G27  22828937.845 4    454563.93809     -2383.128          40.290  
G28  23529940.454 7         0.00000      3697.599          20.676  
G32  20531922.338 4   -293950.18809       692.821          40.687  
R02  20658720.157 5   -931421.60309      2319.494          38.535  
R01  19734965.466 6    350097.28409      -943.655          31.063  
R24  19266885.398 6    118417.45209      -492.027          31.681  
R23  22111623.837 6         0.00000     -3683.271          23.180  
R17  20962652.449 5  -1457103.73709      3669.347          42.203  
R08  23243934.857 6         0.00000     -2917.411          32.043  
J03  43904812.924 5    -35314.38909       638.670          34.611  
C27         0.000 0         0.00000         0.000           0.000  
C28         0.000 0         0.00000         0.000           0.000  
C30         0.000 0         0.00000         0.000           0.000  
C32         0.000 0         0.00000         0.000           0.000  
C33         0.000 0         0.00000         0.000           0.000  
> 2023 09 07 19 36 52.0002878  0 22
G02  23319701.399 6         0.00000      3408.196          29.442  
G08  22533077.169 4    157835.03009      -452.209          39.690  
G10  21176086.097 5    189975.60809      -544.669          33.963  
G18  24830750.724 6         0.00000     -3162.212          21.846  
G21  22467784.457 4  -1095261.67009      2794.695          37.602  
G23  23322652.249 5    751701.31609     -1997.356          31.703  
G27  22829385.129 4    456946.89709     -2382.763          40.262  
G28  23529233.231 6         0.00000      3695.500          24.921  
G32  20531793.415 4   -294642.94609       692.987          41.078  
R02  20658288.159 5   -933741.47909      2320.720          39.196  
R01  19735143.528 6    351040.90109      -942.853          31.167  
R24  19266977.448 6    118910.26109      -492.581          32.383  
R23  22112328.948 6         0.00000     -3681.097          27.264  
R17  20961952.730 5  -1460773.62009      3670.791          41.756  
R08  23244480.770 7         0.00000     -2918.992          30.341  
J03  43904682.815 5    -35953.91809       640.298          33.974  
C25         0.000 0         0.00000         0.000           0.000  
C27         0.000 0         0.00000         0.000           0.000  
C28         0.000 0         0.00000         0.000           0.000  
C30         0.000 0         0.00000         0.000           0.000  
C32         0.000 0         0.00000         0.000           0.000  
C33         0.000 0         0.00000         0.000           0.000  
> 2023 09 07 19 36 53.0002878  0 22
G02  23319031.067 6         0.00000      3412.982          28.442  
G08  22533165.310 4    158287.15509      -451.086          38.859  
G10  21176205.701 5    190520.24809      -544.097          34.882  
G18  24831355.391 6         0.00000     -3164.080          22.219  
G21  22467255.924 4  -1098056.97109      2796.285          38.047  
G23  23323030.587 5    753699.38809     -1997.710          31.281  
G27  22829842.621 4    459329.82609     -2382.289          40.521  
G28  23528519.133 6         0.00000      3688.470          28.276  
G32  20531650.725 4   -295335.50509       693.147          40.497  
R02  20657838.764 5   -936062.20809      2321.746          39.838  
R01  19735309.934 6    351984.08209      -941.927          31.203  
R24  19267070.370 6    119403.59409      -492.820          32.653  
R23  22113061.631 6         0.00000     -3682.962          27.105  
R17  20961251.825 5  -1464444.78009      3672.371          40.571  
R08  23245088.753 6         0.00000     -2918.144          32.833  
J03  43904560.786 5    -36595.61209       643.182          34.894  
C25         0.000 0         0.00000         0.000           0.000  
C27         0.000 0         0.00000         0.000           0.000  
C28         0.000 0         0.00000         0.000           0.000  
C30         0.000 0         0.00000         0.000           0.000  
C32         0.000 0         0.00000         0.000           0.000  
C33         0.000 0         0.00000         0.000           0.000  
> 2023 09 07 19 36 54.0002878  0 21
G02  23318395.198 6         0.00000      3417.138          27.707  
G08  22533253.747 4    158738.17209      -451.006          38.171  
G10  21176304.329 5    191064.58309      -544.817          34.634  
G18  24831960.076 6         0.00000     -3163.900          23.637  
G21  22466717.498 4  -1100854.07109      2797.027          38.365  
G23  23323398.141 6         0.00000     -1999.258          30.472  
G27  22830300.707 4    461712.55309     -2383.197          40.365  
G28  23527815.820 6         0.00000      3682.771          27.754  
G32  20531527.509 4   -296028.34609       692.313          39.709  
R02  20657398.669 5   -938384.00609      2321.497          39.771  
R01  19735469.115 7    352926.32709      -942.095          30.439  
R24  19267161.512 6    119897.07609      -493.801          32.746  
R23  22113719.678 6         0.00000     -3685.615          27.861  
R17  20960558.999 5  -1468117.18009      3672.409          40.455  
R08  23245613.394 6         0.00000     -2916.501          34.370  
J03  43904433.678 5    -37239.24709       643.716          34.939  
C27         0.000 0         0.00000         0.000           0.000  
C28         0.000 0         0.00000         0.000           0.000  
C30         0.000 0         0.00000         0.000           0.000  
C32         0.000 0         0.00000         0.000           0.000  
C33         0.000 0         0.00000         0.000           0.000  
> 2023 09 07 19 36 55.0002878  0 22
G02  23317737.761 6         0.00000      3418.731          29.373  
G08  22533333.791 4    159188.43209      -450.032          38.223  
G10  21176403.865 5    191608.20709      -543.643          33.732  
G18  24832554.867 6         0.00000     -3165.247          22.370  
G21  22466191.060 4  -1103652.55709      2798.774          39.218  
G23  23323799.566 5         0.00000     -1998.477          32.161  
G27  22830749.492 4    464095.11509     -2382.294          40.706  
G28  23527137.687 6         0.00000      3685.888          27.678  
G32  20531393.805 4   -296721.72009       693.554          40.001  
R02  20656964.281 5   -940706.60609      2322.809          39.577  
R01  19735658.886 7    353867.63609      -941.048          30.441  
R24  19267249.357 6    120390.52809      -493.446          33.171  
R23  22114470.666 6         0.00000     -3690.665          25.900  
R17  20959868.877 5  -1471790.74009      3673.491          41.304  
R08  23246175.797 6         0.00000     -2916.356          31.767  
J03  43904311.073 5    -37884.28509       645.173          36.113  
C25         0.000 0         0.00000         0.000           0.000  
C27         0.000 0         0.00000         0.000           0.000  
C28         0.000 0         0.00000         0.000           0.000  
C30         0.000 0         0.00000         0.000           0.000  
C32         0.000 0         0.00000         0.000           0.000  
C33         0.000 0         0.00000         0.000           0.000  
> 2023 09 07 19 36 56.0002878  0 21
G02  23317079.417 6         0.00000      3415.595          27.722  
G08  22533419.228 4    159638.24009      -449.471          39.253  
G10  21176512.685 5    192151.27009      -542.834          33.615  
G18  24833170.947 6         0.00000     -3167.914          24.096  
G21  22465655.635 4  -1106451.72009      2799.397          39.178  
G23  23324176.996 5    759696.72509     -1999.013          32.443  
G27  22831200.074 4    466476.98509     -2381.911          40.222  
G28  23526437.078 6         0.00000      3691.508          25.832  
G32  20531258.898 4   -297415.84509       694.484          40.022  
R02  20656511.587 5   -943029.94209      2323.458          39.364  
R01  19735861.849 7    354808.28309      -939.892          29.762  
R24  19267376.464 6    120883.53409      -492.857          34.094  
R23  22115156.599 6         0.00000     -3684.739          24.250  
R17  20959157.170 5  -1475464.65509      3673.888          41.400  
R08  23246728.009 6         0.00000     -2916.646          34.007  
J03  43904191.748 4    -38529.88709       645.631          38.736  
C25         0.000 0         0.00000         0.000           0.000  
C27         0.000 0         0.00000         0.000           0.000  
C28         0.000 0         0.00000         0.000           0.000  
C30         0.000 0         0.00000         0.000           0.000  
C32         0.000 0         0.00000         0.000           0.000  
> 2023 09 07 19 36 57.0002878  0 22
G02  23316465.728 6         0.00000      3416.542          26.405  
G08  22533508.259 4    160088.32309      -450.016          39.022  
G10  21176620.021 5    192694.07909      -541.308          33.221  
G18  24833789.714 6         0.00000     -3169.626          25.669  
G21  22465125.009 4  -1109251.01509      2799.992          38.871  
G23  23324551.129 5    761695.77809     -1998.358          32.053  
G27  22831654.861 4    468858.92409     -2382.082          40.102  
G28  23525732.264 6         0.00000      3693.542          22.677  
G32  20531129.086 4   -298109.94709       695.063          39.448  
R02  20656067.898 5   -945353.18509      2323.632          38.945  
R01  19736021.030 7         0.00000      -940.300          29.030  
R24  19267443.019 6    121376.95709      -493.137          34.028  
R23  22115802.938 6         0.00000     -3684.829          23.790  
R17  20958464.344 5  -1479138.43809      3674.314          41.277  
R08  23247265.842 6         0.00000     -2918.693          33.456  
J03  43904065.828 4    -39175.61509       645.967          39.354  
C25         0.000 0         0.00000         0.000           0.000  
C27         0.000 0         0.00000         0.000           0.000  
C28         0.000 0         0.00000         0.000           0.000  
C30         0.000 0         0.00000         0.000           0.000  
C32         0.000 0         0.00000         0.000           0.000  
C33         0.000 0         0.00000         0.000           0.000  
> 2023 09 07 19 36 58.0002878  0 22
G02  23315811.292 6         0.00000      3416.968          24.458  
G08  22533595.806 4    160538.74409      -450.752          38.843  
G10  21176713.554 5    193236.34009      -542.430          33.813  
G18  24834381.207 6         0.00000     -3170.331          26.371  
G21  22464595.569 4  -1112050.58409      2799.260          39.164  
G23  23324929.781 6         0.00000     -1999.549          30.506  
G27  22832114.744 4    471241.23809     -2382.811          40.232  
G32  20531000.477 4   -298804.04509       693.371          39.126  
R02  20655633.789 5   -947676.26609      2322.558          39.253  
R01  19736185.306 7         0.00000      -939.283          28.695  
R24  19267553.636 6    121870.85709      -495.253          34.275  
R23  22116526.651 6         0.00000     -3686.564          23.102  
R17  20957764.346 5  -1482812.33309      3673.350          41.027  
R08  23247812.366 6   1165571.99009     -2916.804          33.795  
J03  43903948.615 4    -39821.81909       646.321          39.262  
C23         0.000 0         0.00000         0.000           0.000  
C25         0.000 0         0.00000         0.000           0.000  
C27         0.000 0         0.00000         0.000           0.000  
C28         0.000 0         0.00000         0.000           0.000  
C30         0.000 0         0.00000         0.000           0.000  
C32         0.000 0         0.00000         0.000           0.000  
C33         0.000 0         0.00000         0.000           0.000  
