     3.03           O                   M                   RINEX VERSION / TYPE
Android_Rinex                           2024-05-27 16:24:34 PGM / RUN BY / DATE
                                                            MARKER NAME
SMARTPHONE                                                  MARKER TYPE
                                                            OBSERVER / AGENCY
                                                            REC # / TYPE / VERS
                                                            ANT # / TYPE
        0.0000        0.0000        0.0000                  APPROX POSITION XYZ
        0.0000        0.0000        0.0000                  ANTENNA: DELTA H/E/N
G    8 C1C L1C D1C S1C C5Q L5Q D5Q S5Q                      SYS / # / OBS TYPES
R    4 C1C L1C D1C S1C                                      SYS / # / OBS TYPES
E    8 C1C L1C D1C S1C C5Q L5Q D5Q S5Q                      SYS / # / OBS TYPES
  2021    07    14    20    51    02.4409030                TIME OF FIRST OBS
  2021    07    14    21    10    49.4409030                TIME OF LAST OBS
  8 R10 -7 R18 -3 R09 -2 R05  1 R19  3 R03  5 R04  6 R20  2   8 R10 -7 R18 -3 R09 -2 R05  1 R19  3 R03  5 R04  6 R20  2 GLONASS SLOT / FRQ #
    GLONASS SLOT / FRQ #
                                                            GLONASS COD/PHS/BIS#
                                                            END OF HEADER
> 2021 07 14 20 51 02.4409029  0 23
G05  22232477.372 2    384841.74101     -2885.319          42.000           0.000 0         0.00000         0.000           0.000  
G10  24279476.752 6         0.00000      3433.000          23.100           0.000 0         0.00000         0.000           0.000  
G13  23397332.054 4    -31829.77309       977.187          29.900           0.000 0         0.00000         0.000           0.000  
G15  22207078.947 2   -265520.89801      1985.318          41.900           0.000 0         0.00000         0.000           0.000  
G18  20737914.229 4         0.00000       837.411          28.800           0.000 0         0.00000         0.000           0.000  
G23  21493814.227 3   -339980.49602      2556.404          36.600           0.000 0         0.00000         0.000           0.000  
G25  24265166.771 4    483155.38204     -3605.830          33.100    24262832.874 3         0.00000     -2696.537          26.900  
G29  20631037.613 3    135859.66602     -1036.855          37.800           0.000 0         0.00000         0.000           0.000  
R10  22511727.745 4         0.00000     -1159.856          29.000  
R18  22495951.178 4    305455.82309     -2288.964          31.300  
R09  23007341.640 5         0.00000     -3378.846          26.600  
R05  21597349.964 3   -534654.72902      4069.919          39.000  
R19  20192322.544 4     46659.28609      -347.713          30.700  
R03  22030991.662 4    389765.27109     -2973.639          32.000  
R04  19799345.891 3   -101143.27802       737.533          38.000  
E01  25749086.067 4    112216.81009     -1139.101          33.100    25746956.949 3         0.00000      -857.920          23.800  
E07  25648305.738 4   -286801.09909      2389.241          30.400    25646185.013 3         0.00000      1784.665          27.700  
E08  23762137.214 3    -13156.35304        96.245          38.100    23760013.767 2     -9467.70709        74.341          30.500  
E13  24542474.795 3    151977.46204     -1125.947          39.200           0.000 0         0.00000         0.000           0.000  
E26  23531716.425 4    -97869.16808       770.899          32.600    23529586.102 3         0.00000       567.315          24.600  
E33  27312448.876 6         0.00000      1887.750          21.400           0.000 0         0.00000         0.000           0.000  
G26         0.000 0         0.00000         0.000           0.000    22574738.719 3         0.00000       235.929          26.700  
E21         0.000 0         0.00000         0.000           0.000    26608213.615 3         0.00000     -2114.200          26.900  
> 2021 07 14 20 51 03.4409029  0 23
G05  22233024.192 2    387720.21801     -2880.258          44.100           0.000 0         0.00000         0.000           0.000  
G10  24278845.997 5         0.00000      3437.950          25.500           0.000 0         0.00000         0.000           0.000  
G13  23397157.883 4    -32813.58209       982.345          32.300           0.000 0         0.00000         0.000           0.000  
G15  22206696.107 2   -267512.95501      1990.160          43.000           0.000 0         0.00000         0.000           0.000  
G18  20737753.250 4   -110338.12809       843.327          32.400           0.000 0         0.00000         0.000           0.000  
G23  21493323.772 3   -342543.76602      2561.474          36.000           0.000 0         0.00000         0.000           0.000  
G25  24265849.389 3    486754.38502     -3600.634          35.700    24263514.916 2         0.00000     -2687.600          29.700  
G26  22577030.037 5         0.00000       331.850          26.800    22574674.572 3         0.00000       246.100          27.900  
G29  20631233.387 3    136888.82801     -1031.048          40.000           0.000 0         0.00000         0.000           0.000  
R10  22511929.208 4         0.00000     -1145.150          29.300  
R18  22496347.193 4    307737.69603     -2283.656          33.300  
R09  23007940.025 5         0.00000     -3365.150          27.200  
R05  21596580.392 3   -538731.56201      4075.042          40.500  
R19  20192381.892 4     46999.08504      -341.556          31.500  
R03  22031535.184 4    392732.01403     -2968.719          34.800  
R04  19799203.794 3   -101888.38101       743.005          40.200  
E01  25749303.724 4    113347.11107     -1131.882          34.100    25747173.698 3         0.00000      -846.400          28.900  
E07  25647854.248 4   -289198.64207      2396.113          34.200    25645729.614 2   -227903.94709      1788.980          32.500  
E08  23762117.722 3    -13261.01103       102.972          40.000    23759992.495 2     -9545.79504        76.925          34.600  
E13  24542684.040 3    153094.57303     -1118.633          39.900    24540561.518 3         0.00000      -838.700          22.600  
E21  26610878.158 6         0.00000     -2828.700          22.300    26608749.336 3         0.00000     -2109.250          28.800  
E26  23531567.418 4    -98648.68906       777.949          34.900    23529436.798 3         0.00000       579.950          29.100  
E33  27312079.839 5         0.00000      1904.550          24.700           0.000 0         0.00000         0.000           0.000  
> 2021 07 14 20 51 04.4409029  0 24
G05  22233572.513 2    390599.13401     -2875.449          43.300           0.000 0         0.00000         0.000           0.000  
G10  24278207.738 5         0.00000      3446.550          24.600    24275893.943 4         0.00000      2563.950          20.100  
G13  23396968.409 4    -33797.12509       987.550          31.300           0.000 0         0.00000         0.000           0.000  
G15  22206318.379 2   -269504.34501      1994.728          42.700           0.000 0         0.00000         0.000           0.000  
G18  20737605.150 4   -111182.71709       848.181          31.800           0.000 0         0.00000         0.000           0.000  
G23  21492838.411 3   -345106.46602      2566.055          35.600           0.000 0         0.00000         0.000           0.000  
G25  24266538.009 3    490353.45402     -3595.005          35.500    24264202.036 2    349636.35609     -2684.646          30.000  
G26  22576934.410 5         0.00000       332.155          27.500    22574612.815 3         0.00000       251.750          28.300  
G29  20631424.955 3    137918.71801     -1026.595          39.500           0.000 0         0.00000         0.000           0.000  
R10  22512159.149 5         0.00000     -1139.516          28.900  
R18  22496790.585 4    310020.03403     -2278.298          34.300  
R09  23008568.704 5         0.00000     -3359.100          26.000  
R05  21595816.526 3   -542807.93901      4079.859          40.100  
R19  20192464.048 4     47339.53209      -336.785          30.900  
R03  22032102.089 4    395699.60303     -2964.255          33.800  
R04  19799063.494 3   -102632.34201       747.249          39.600  
E01  25749515.378 4    114478.33809     -1128.277          33.600    25747388.039 3    110024.32509      -844.937          28.400  
E07  25647400.961 4   -291595.71507      2400.005          33.900    25645273.640 2   -229693.99309      1797.867          31.000  
E08  23762100.639 3    -13364.86204       106.641          39.100    23759973.003 2     -9623.45809        85.653          33.800  
E13  24542895.694 3    154212.13704     -1114.567          39.400    24540776.767 3         0.00000      -830.900          22.800  
E21  26611423.181 5         0.00000     -2819.150          24.100    26609287.169 3         0.00000     -2103.839          28.200  
E26  23531422.022 4    -99427.88607       782.107          34.600    23529287.512 3         0.00000       585.850          26.600  
E31  27601709.932 6         0.00000      1371.100          20.800           0.000 0         0.00000         0.000           0.000  
E33  27311731.777 5         0.00000      1910.400          25.100           0.000 0         0.00000         0.000           0.000  
> 2021 07 14 20 51 05.4409029  0 23
G05  22234121.131 2    393481.00701     -2891.816          44.400           0.000 0         0.00000         0.000           0.000  
G10  24277548.486 5         0.00000      3433.801          26.100           0.000 0         0.00000         0.000           0.000  
G13  23396780.732 4         0.00000       970.132          28.200           0.000 0         0.00000         0.000           0.000  
G15  22205940.041 2   -271492.55801      1978.241          42.100           0.000 0         0.00000         0.000           0.000  
G18  20737443.265 4   -112024.55709       831.859          34.800           0.000 0         0.00000         0.000           0.000  
G23  21492347.955 3   -347666.11402      2549.715          38.100           0.000 0         0.00000         0.000           0.000  
G25  24267230.242 3    493955.27302     -3611.645          35.300    24264887.358 2    352326.08509     -2696.986          31.600  
G26  22576923.312 5         0.00000       322.300          23.700    22574549.262 2    -32486.12205       237.678          31.000  
G29  20631618.321 3    138951.69002     -1042.884          38.600           0.000 0         0.00000         0.000           0.000  
R10  22512370.506 4    151112.34509     -1156.722          32.100  
R18  22497223.194 4    312305.30503     -2295.296          35.000  
R09  23009242.038 5         0.00000     -3378.200          27.000  
R05  21595059.553 3   -546881.22702      4063.187          39.800  
R19  20192499.716 4     47682.72109      -353.537          31.300  
R03  22032649.205 4    398670.50804     -2981.108          31.900  
R04  19798932.182 3   -103372.86602       730.178          38.400  
E01  25749731.830 3    115612.40105     -1143.641          35.800    25747604.788 3    110872.32409      -854.519          29.000  
E07  25646944.987 3   -293990.13305      2385.042          36.400    25644817.945 2   -231481.86805      1780.604          31.600  
E08  23762081.147 3    -13465.79204        91.361          38.300    23759953.512 2     -9698.71705        67.894          33.000  
E13  24543111.257 3    155332.24704     -1129.428          39.300    24540991.718 3         0.00000      -841.650          24.500  
E21  26611953.214 6         0.00000     -2838.600          22.900    26609825.893 2         0.00000     -2118.288          30.300  
E26  23531267.640 3   -100204.56605       767.453          36.400    23529140.005 3         0.00000       572.152          25.000  
E31  27601438.006 5         0.00000      1356.450          23.800           0.000 0         0.00000         0.000           0.000  
> 2021 07 14 20 51 06.4409029  0 24
G05  22234670.655 2    396377.76601     -2896.633          43.800           0.000 0         0.00000         0.000           0.000  
G10  24276885.657 5         0.00000      3421.350          25.300    24274587.742 3         0.00000      2553.200          22.100  
G13  23396596.370 4    -35742.10009       965.348          30.400           0.000 0         0.00000         0.000           0.000  
G15  22205565.001 3   -273465.72001      1973.213          41.000           0.000 0         0.00000         0.000           0.000  
G18  20737276.580 4   -112851.07903       827.140          34.900           0.000 0         0.00000         0.000           0.000  
G23  21491860.484 3   -350210.74602      2544.705          38.100           0.000 0         0.00000         0.000           0.000  
G25  24267911.970 4    497571.61303     -3616.084          34.900    24265576.275 2    355026.64405     -2700.262          32.300  
G26  22576845.658 5         0.00000       317.633          26.400    22574489.896 2    -32719.89905       233.888          31.500  
G29  20631824.879 3    139999.75501     -1048.043          40.700           0.000 0         0.00000         0.000           0.000  
R10  22512555.479 4    152275.34804     -1162.961          31.000  
R18  22497645.297 4    314605.51403     -2300.017          35.900  
R09  23009865.901 5         0.00000     -3381.600          26.400  
R05  21594290.889 3   -550939.29502      4058.142          39.500  
R19  20192554.283 4     48041.14604      -358.140          31.500  
R03  22033209.218 4    401656.99904     -2986.557          31.000  
R04  19798793.068 3   -104097.55902       724.585          38.500  
E01  25749950.673 3    116761.58705     -1149.167          36.700    25747823.038 2    111730.58809      -857.985          30.100  
E07  25646491.700 3   -296369.47105      2379.416          36.200    25644364.065 2   -233258.68509      1777.265          31.900  
E08  23762063.452 3    -13551.52804        85.734          38.600    23759938.225 2     -9762.76704        64.764          34.600  
E13  24543324.097 3    156467.11004     -1134.726          38.800           0.000 0         0.00000         0.000           0.000  
E21  26612500.348 5         0.00000     -2842.350          26.200    26610366.116 2         0.00000     -2121.516          31.300  
E26  23531124.339 4   -100966.38407       761.970          34.600    23528998.501 3         0.00000       569.212          26.500  
E31  27601184.995 6         0.00000      1357.300          22.300           0.000 0         0.00000         0.000           0.000  
E33  27311020.366 6         0.00000      1888.400          20.900           0.000 0         0.00000         0.000           0.000  
> 2021 07 14 20 51 07.4409029  0 24
G05  22235220.163 2    399274.43701     -2897.933          43.700           0.000 0         0.00000         0.000           0.000  
G10  24276228.499 5         0.00000      3420.536          26.400    24273901.513 3         0.00000      2552.500          23.100  
G13  23396415.883 4    -36707.23304       963.617          31.500           0.000 0         0.00000         0.000           0.000  
G15  22205187.867 2   -275438.80801      1971.740          41.400           0.000 0         0.00000         0.000           0.000  
G18  20737123.088 4   -113678.17003       825.940          34.500           0.000 0         0.00000         0.000           0.000  
G23  21491378.718 3   -352755.39902      2543.305          38.000           0.000 0         0.00000         0.000           0.000  
G25  24268605.686 4    501187.48003     -3617.024          35.000    24266263.098 2    357726.76505     -2700.910          31.900  
G26  22576817.179 5         0.00000       310.400          24.400    22574430.531 2    -32953.58705       232.594          32.000  
G29  20632020.933 3    141047.83601     -1049.419          39.200           0.000 0         0.00000         0.000           0.000  
R10  22512803.097 4    153438.56904     -1164.693          32.200  
R18  22498069.512 3    316905.54902     -2301.217          36.800  
R09  23010516.445 5         0.00000     -3381.800          26.200  
R05  21593526.115 3   -554997.48802      4056.848          37.900  
R20  21602370.880 6         0.00000      2372.650          20.400  
R19  20192643.924 4     48399.42804      -359.569          31.900  
R03  22033785.721 4    404642.90809     -2987.692          30.400  
R04  19798656.974 3   -104821.78901       722.640          39.100  
E01  25750169.813 3    117910.81604     -1150.572          36.800    25748043.085 2    112588.68605      -858.941          31.200  
E07  25646037.803 3   -298748.98404      2378.136          36.800    25643911.982 2   -235035.74605      1776.387          31.200  
E08  23762047.276 3    -13637.21704        84.367          38.000    23759922.939 2     -9826.77505        63.326          34.100  
E13  24543542.050 3    157601.66404     -1135.856          38.600    24541426.107 3         0.00000      -848.000          23.500  
E21  26613045.370 6         0.00000     -2844.900          23.500    26610906.637 2         0.00000     -2121.883          32.000  
E26  23530979.537 3   -101728.60505       760.839          36.000    23528852.513 3         0.00000       568.375          28.000  
E31  27600935.562 6         0.00000      1352.600          21.600           0.000 0         0.00000         0.000           0.000  
> 2021 07 14 20 51 08.4409029  0 24
G05  22235771.485 2    402173.10801     -2899.649          43.600           0.000 0         0.00000         0.000           0.000  
G10  24275589.647 5         0.00000      3418.200          24.000    24273290.249 3         0.00000      2550.450          22.700  
G13  23396237.210 4    -37670.04704       961.748          31.700           0.000 0         0.00000         0.000           0.000  
G15  22204811.326 2   -277409.63401      1969.789          42.100           0.000 0         0.00000         0.000           0.000  
G18  20736972.283 4   -114503.31703       824.202          34.400           0.000 0         0.00000         0.000           0.000  
G23  21490895.155 3   -355297.79602      2541.371          36.900           0.000 0         0.00000         0.000           0.000  
G25  24269286.506 3    504805.04402     -3618.353          35.400    24266951.736 2    360428.19309     -2702.041          31.400  
G26  22576739.247 5         0.00000       309.918          26.400    22574370.886 2    -33185.55205       231.251          31.400  
G29  20632222.692 3    142098.11901     -1051.293          39.900           0.000 0         0.00000         0.000           0.000  
R10  22513021.050 4    154604.38309     -1166.936          30.700  
R18  22498488.021 4    319207.48303     -2302.901          34.600  
R05  21592782.021 3   -559053.54802      4055.167          39.300  
R20  21602025.523 6         0.00000      2369.600          22.300  
R19  20192711.666 4     48759.79204      -361.265          31.300  
R03  22034324.444 4    407632.39907     -2990.013          30.300  
R04  19798526.569 3   -105543.29401       720.263          39.100  
E01  25750389.860 3    119062.11004     -1152.412          37.000    25748260.149 3         0.00000      -860.407          28.100  
E07  25645587.221 3   -301126.68605      2376.664          36.400    25643459.289 2   -236811.19109      1775.318          31.200  
E08  23762034.974 3    -13720.77504        82.570          38.900    23759906.745 2     -9889.19604        61.868          34.900  
E13  24543755.501 3    158737.93004     -1137.145          39.200           0.000 0         0.00000         0.000           0.000  
E21  26613568.196 5         0.00000     -2845.400          25.000    26611448.361 2         0.00000     -2122.819          31.300  
E26  23530835.032 4   -102489.02606       759.570          35.600    23528709.805 3         0.00000       567.316          26.000  
E31  27600681.033 6         0.00000      1349.450          22.500           0.000 0         0.00000         0.000           0.000  
E33  27310291.575 6         0.00000      1881.300          21.900           0.000 0         0.00000         0.000           0.000  
> 2021 07 14 20 51 09.4409029  0 25
G05  22236324.901 2    405074.69001     -2902.947          44.400           0.000 0         0.00000         0.000           0.000  
G10  24274923.519 5         0.00000      3416.482          26.400    24272638.187 3         0.00000      2552.100          23.600  
G13  23396056.146 4    -38629.70107       958.119          30.100           0.000 0         0.00000         0.000           0.000  
G15  22204439.584 2   -279377.42401      1966.316          41.800           0.000 0         0.00000         0.000           0.000  
G18  20736809.804 3   -115325.71702       821.131          35.300           0.000 0         0.00000         0.000           0.000  
G23  21490409.498 3   -357837.31202      2538.193          38.300           0.000 0         0.00000         0.000           0.000  
G25  24269973.643 3    508425.16802     -3621.403          35.700    24267642.154 2    363131.51505     -2704.173          31.900  
G26  22576674.489 5         0.00000       305.737          28.000    22574310.927 2    -33415.16005       228.413          32.100  
G29  20632416.669 3    143151.44501     -1054.798          39.200           0.000 0         0.00000         0.000           0.000  
R10  22513219.512 4    155773.50304     -1170.710          32.300  
R18  22498941.604 3    321512.31102     -2306.145          36.600  
R09  23011742.305 6         0.00000     -3385.950          22.300  
R05  21592022.954 3   -563106.73201      4051.686          41.300  
R20  21601589.337 6         0.00000      2365.050          21.900  
R19  20192782.723 4     49123.05907      -364.709          30.900  
R03  22034920.735 4    410624.49007     -2993.481          30.200  
R04  19798392.551 3   -106261.37201       716.404          39.000  
E01  25750611.705 3    120216.40305     -1155.660          36.400    25748481.086 2    114310.41005      -862.885          32.000  
E07  25645138.436 3   -303501.53504      2373.533          37.000    25643006.909 2   -238584.58705      1772.110          31.400  
E08  23762014.295 3    -13801.34504        79.215          37.100    23759890.865 1     -9949.29603        59.008          35.500  
E13  24543973.454 3    159876.82604     -1140.130          38.800    24541857.825 3         0.00000      -854.750          23.800  
E21  26614123.113 5         0.00000     -2845.950          27.700    26611989.789 2         0.00000     -2125.504          31.100  
E26  23530691.731 3   -103246.79004       756.643          37.500    23528562.909 3         0.00000       564.802          25.000  
E31  27600420.518 6         0.00000      1348.050          22.900           0.000 0         0.00000         0.000           0.000  
E33  27309945.311 6         0.00000      1883.500          21.700           0.000 0         0.00000         0.000           0.000  
> 2021 07 14 20 51 10.4409029  0 23
G05  22236878.928 2    407979.21801     -2905.502          43.300           0.000 0         0.00000         0.000           0.000  
G10  24274291.542 5         0.00000      3415.400          24.200           0.000 0         0.00000         0.000           0.000  
G13  23395882.552 4    -39586.15904       955.365          32.000           0.000 0         0.00000         0.000           0.000  
G15  22204060.339 2   -281342.08701      1963.569          41.300           0.000 0         0.00000         0.000           0.000  
G18  20736655.701 4   -116145.16003       818.484          34.400           0.000 0         0.00000         0.000           0.000  
G23  21489929.530 3   -360373.79302      2535.420          38.600           0.000 0         0.00000         0.000           0.000  
G25  24270668.860 4    512047.90903     -3623.556          34.100    24268328.384 2    365836.79805     -2705.897          31.500  
G26  22576599.244 6         0.00000       307.100          23.000    22574256.657 2    -33642.32109       226.239          30.600  
G29  20632619.318 3    144207.92502     -1057.543          38.700           0.000 0         0.00000         0.000           0.000  
R10  22513429.368 4         0.00000     -1173.807          29.900  
R18  22499375.102 3    323820.06502     -2308.674          36.400  
R05  21591259.978 3   -567156.74602      4049.011          39.400  
R19  20192845.370 4     49489.25407      -367.289          30.800  
R03  22035439.076 4    413619.84107     -2996.523          30.200  
R04  19798257.050 3   -106975.78601       713.175          39.100  
E01  25750829.362 3    121373.76605     -1158.320          36.100    25748701.133 3         0.00000      -865.039          26.900  
E07  25644684.852 3   -305873.51209      2371.156          35.800    25642555.716 2   -240355.94009      1770.044          30.300  
E08  23761999.009 3    -13878.68804        76.214          38.500    23759875.876 2    -10007.10904        56.775          34.600  
E13  24544189.610 3    161018.42004     -1142.420          37.500    24542074.574 3         0.00000      -853.134          24.200  
E21  26614653.757 6         0.00000     -2849.250          22.800    26612532.125 2         0.00000     -2127.491          30.900  
E26  23530549.337 3   -104001.86605       754.157          36.200    23528418.107 3         0.00000       563.100          25.100  
E31  27600163.599 6         0.00000      1345.900          23.100           0.000 0         0.00000         0.000           0.000  
E33  27309593.357 6         0.00000      1877.250          22.700           0.000 0         0.00000         0.000           0.000  
> 2021 07 14 20 51 11.4409029  0 25
G05  22237428.435 2    410885.19401     -2906.500          43.300           0.000 0         0.00000         0.000           0.000  
G10  24273638.904 5         0.00000      3416.900          23.700           0.000 0         0.00000         0.000           0.000  
G13  23395688.889 4    -40540.94904       954.092          31.700           0.000 0         0.00000         0.000           0.000  
G15  22203688.597 3   -283305.07401      1962.337          39.800           0.000 0         0.00000         0.000           0.000  
G18  20736504.303 3   -116963.27902       817.598          35.200           0.000 0         0.00000         0.000           0.000  
G23  21489446.263 3   -362908.61702      2534.247          37.000           0.000 0         0.00000         0.000           0.000  
G25  24271356.276 4    515671.77703     -3624.246          34.500    24269018.802 2    368542.93605     -2706.409          31.300  
G26  22576558.166 5         0.00000       301.940          26.900    22574197.605 2         0.00000       225.420          28.900  
G29  20632826.487 3    145266.03902     -1058.698          39.100           0.000 0         0.00000         0.000           0.000  
R10  22513658.123 4    158120.45907     -1175.228          30.700  
R18  22499806.210 4    326129.10703     -2309.494          35.500  
R09  23013079.673 6         0.00000     -3390.500          20.900  
R05  21590496.409 3   -571205.25602      4047.947          39.500  
R20  21600622.491 6         0.00000      2361.450          22.900  
R19  20192899.640 4     49856.96407      -368.236          30.200  
R03  22035951.432 5         0.00000     -2993.800          24.200  
R04  19798126.034 3   -107688.10202       711.471          38.800  
E01  25751050.613 3    122532.71705     -1159.627          36.700    25748920.587 3    116040.10509      -865.838          28.200  
E07  25644230.361 4   -308244.06606      2369.959          35.700    25642104.524 2   -242126.13809      1770.379          29.400  
E08  23761985.206 3    -13954.51004        75.247          37.600    23759861.182 2    -10063.69304        56.387          34.300  
E13  24544404.859 3    162161.34405     -1143.370          36.700           0.000 0         0.00000         0.000           0.000  
E26  23530403.924 4   -104755.68406       753.352          35.700    23528275.399 3         0.00000       562.581          25.400  
E31  27599896.488 6         0.00000      1341.550          23.400           0.000 0         0.00000         0.000           0.000  
E33  27309229.712 5         0.00000      1878.400          24.000           0.000 0         0.00000         0.000           0.000  
E21         0.000 0         0.00000         0.000           0.000    26613073.535 2         0.00000     -2127.615          29.800  
> 2021 07 14 20 51 12.4409029  0 24
G05  22237983.963 2    413786.31101     -2900.586          43.300           0.000 0         0.00000         0.000           0.000  
G10  24272976.058 6         0.00000      3410.600          21.800           0.000 0         0.00000         0.000           0.000  
G13  23395512.014 4    -41500.34809       959.336          31.100           0.000 0         0.00000         0.000           0.000  
G15  22203312.056 3   -285272.71201      1968.054          39.800           0.000 0         0.00000         0.000           0.000  
G18  20736336.432 4   -117786.33303       823.585          33.700           0.000 0         0.00000         0.000           0.000  
G23  21488960.292 3   -365448.19902      2540.101          37.200           0.000 0         0.00000         0.000           0.000  
G25  24272047.008 4    519290.45503     -3618.035          34.300    24269705.922 2    371245.12909     -2701.888          30.400  
G26  22576495.502 5         0.00000       308.750          26.700    22574140.630 3         0.00000       229.557          28.800  
G29  20633023.151 3    146319.46001     -1052.894          39.700           0.000 0         0.00000         0.000           0.000  
R10  22513866.775 5         0.00000     -1170.279          28.900  
R18  22500239.394 4    328433.13103     -2303.488          35.600  
R05  21589740.325 3   -575258.61201      4053.841          40.300  
R20  21600169.204 5         0.00000      2370.450          24.300  
R19  20192952.095 5         0.00000      -364.540          28.400  
R03  22036555.506 5         0.00000     -2999.100          26.400  
R04  19797985.437 3   -108404.85101       717.093          39.000  
E01  25751264.954 4    123686.88906     -1153.887          34.800    25749142.135 3         0.00000      -872.055          27.200  
E07  25643779.169 3   -310619.54005      2375.856          36.600    25641653.052 2   -243900.07709      1775.834          29.800  
E08  23761965.120 3    -14034.97204        80.583          37.500    23759845.599 2    -10123.84705        61.507          33.100  
E13  24544623.405 3    163299.13604     -1137.322          37.100    24542509.259 3         0.00000      -850.150          23.800  
E21  26615740.190 6         0.00000     -2848.900          23.200    26613616.167 2         0.00000     -2122.433          29.500  
E26  23530256.732 3   -105514.56905       759.186          36.300    23528127.910 3         0.00000       565.532          26.100  
E31  27599650.650 6         0.00000      1349.000          22.500           0.000 0         0.00000         0.000           0.000  
E33  27308859.453 5         0.00000      1886.900          26.300           0.000 0         0.00000         0.000           0.000  
> 2021 07 14 20 51 13.4409029  0 24
G05  22238539.473 2    416696.17901     -2911.781          43.500           0.000 0         0.00000         0.000           0.000  
G10  24272346.192 6         0.00000      3400.700          22.800           0.000 0         0.00000         0.000           0.000  
G13  23395325.244 4    -42450.70009       948.283          31.100           0.000 0         0.00000         0.000           0.000  
G15  22202942.408 3   -287231.43501      1956.753          40.700           0.000 0         0.00000         0.000           0.000  
G18  20736197.022 4   -118600.59103       812.484          33.200           0.000 0         0.00000         0.000           0.000  
G23  21488479.120 3   -367978.95802      2528.889          37.600           0.000 0         0.00000         0.000           0.000  
G25  24272730.236 4    522917.55703     -3628.795          33.200    24270396.043 2    373953.70909     -2709.771          30.700  
G26  22576461.631 5         0.00000       295.813          28.100    22574082.783 2    -34319.86609       220.947          30.400  
G29  20633233.007 3    147381.76101     -1064.285          40.900           0.000 0         0.00000         0.000           0.000  
R10  22514127.290 4         0.00000     -1181.417          29.200  
R18  22500674.393 3    330745.87002     -2314.615          38.200  
R05  21588991.449 2   -579303.04701      4042.457          42.300  
R20  21599801.371 5         0.00000      2357.100          24.000  
R19  20193063.323 4         0.00000      -373.544          29.400  
R03  22037113.128 4         0.00000     -3003.756          29.700  
R04  19797858.016 3   -109112.08202       705.045          38.700  
E01  25751495.506 4    124849.88507     -1164.928          33.800    25749362.182 3         0.00000      -871.000          28.500  
E07  25643332.181 3   -312986.51805      2365.191          35.800    25641202.155 2   -245667.52109      1766.106          30.600  
E08  23761957.023 3    -14106.68504        69.707          39.400    23759830.906 2    -10177.31304        51.824          34.200  
E13  24544843.453 3    164445.34204     -1148.082          38.600    24542725.118 3         0.00000      -858.100          25.600  
E21  26616275.022 5         0.00000     -2857.050          26.800    26614158.188 2         0.00000     -2131.709          29.500  
E26  23530116.432 3   -106265.02205       748.711          36.700    23527988.797 3    -77352.15709       559.046          28.300  
E31  27599374.849 5         0.00000      1342.300          24.600           0.000 0         0.00000         0.000           0.000  
E33         0.000 0         0.00000         0.000           0.000    27306368.487 3         0.00000      1404.500          23.900  
> 2021 07 14 20 51 14.4409029  0 24
G05  22239091.982 2    419605.39001     -2907.205          43.400           0.000 0         0.00000         0.000           0.000  
G10  24271708.230 6         0.00000      3410.350          21.800           0.000 0         0.00000         0.000           0.000  
G13  23395151.370 4    -43401.53209       952.808          31.500           0.000 0         0.00000         0.000           0.000  
G15  22202568.572 3   -289190.62001      1961.105          40.400           0.000 0         0.00000         0.000           0.000  
G18  20736040.826 4   -119415.66304       817.129          33.100           0.000 0         0.00000         0.000           0.000  
G23  21487995.557 3   -370510.20902      2533.262          38.000           0.000 0         0.00000         0.000           0.000  
G25  24273421.858 4    526543.63803     -3623.909          33.300    24271085.571 2    376661.50409     -2706.098          30.900  
G26  22576395.373 4    -47929.92609       300.140          29.300    22574023.417 2    -34542.65109       224.192          30.700  
G29  20633435.063 2    148443.61001     -1059.885          41.300           0.000 0         0.00000         0.000           0.000  
R10  22514321.859 4    161649.57907     -1177.021          30.000  
R18  22501101.906 3    333057.80602     -2309.819          37.700  
R05  21588233.569 2   -583348.12601      4047.148          42.500  
R20  21599267.726 5         0.00000      2358.250          24.100  
R19  20193105.902 4     50965.15709      -369.001          30.200  
R03  22037712.997 5         0.00000     -2999.173          28.900  
R04  19797725.516 3   -109819.33602       709.081          38.600  
E01  25751715.257 4    126012.42707     -1160.704          33.900    25749584.620 3         0.00000      -866.650          28.400  
E07  25642877.097 3   -315353.95205      2369.460          36.100    25640751.573 2   -247435.51209      1770.878          30.900  
E08  23761941.440 3    -14178.74304        73.925          39.200    23759817.714 2    -10231.14705        56.663          33.800  
E13  24545056.904 3    165590.78104     -1143.477          38.700    24542942.757 3         0.00000      -853.148          28.100  
E21  26616821.545 5         0.00000     -2850.500          27.000    26614699.616 2         0.00000     -2126.636          29.700  
E26  23529971.927 3   -107016.20404       753.189          36.900    23527844.902 2    -77913.24309       563.017          30.100  
E31  27599125.712 6         0.00000      1345.450          23.200           0.000 0         0.00000         0.000           0.000  
E33  27308138.463 6         0.00000      1874.000          23.100    27306009.030 3         0.00000      1403.507          25.400  
> 2021 07 14 20 51 15.4409029  0 24
G05  22239643.304 2    422513.18801     -2907.834          43.900           0.000 0         0.00000         0.000           0.000  
G10  24271040.602 6         0.00000      3410.500          23.000    24268740.297 4         0.00000      2549.850          21.000  
G13  23394976.292 4    -44353.48009       951.760          31.800           0.000 0         0.00000         0.000           0.000  
G15  22202195.626 3   -291151.01901      1960.308          40.800           0.000 0         0.00000         0.000           0.000  
G18  20735877.736 4   -120232.21404       816.540          32.700           0.000 0         0.00000         0.000           0.000  
G23  21487513.495 3   -373042.81002      2532.504          38.400           0.000 0         0.00000         0.000           0.000  
G25  24274117.372 4    530167.98504     -3624.131          32.800    24271775.395 2    379368.02105     -2706.512          31.800  
G26  22576321.331 4         0.00000       299.816          28.800    22573967.960 2    -34764.24209       221.231          30.800  
G29  20633636.526 2    149504.20001     -1060.696          41.200           0.000 0         0.00000         0.000           0.000  
R10  22514569.792 4    162827.55504     -1178.183          31.500  
R18  22501530.309 3    335368.25202     -2310.448          37.400  
R05  21587479.894 2   -587394.57401      4046.408          42.500  
R20  21598838.729 6         0.00000      2368.000          23.400  
R19  20193200.935 4         0.00000      -369.384          29.200  
R03  22038258.630 5         0.00000     -3000.257          28.900  
R04  19797594.797 3   -110527.47401       707.785          39.700  
E01  25751933.193 4    127173.59806     -1161.276          34.900    25749804.371 3         0.00000      -866.250          28.800  
E07  25642425.014 3   -317723.04605      2368.919          36.500    25640300.380 2   -249204.59105      1769.577          32.000  
E08  23761927.655 3    -14252.11504        73.185          39.600    23759803.318 2    -10285.90704        54.904          34.900  
E13  24545278.748 3    166734.50504     -1143.704          39.200    24543161.007 3         0.00000      -854.008          27.900  
E21  26617365.678 5         0.00000     -2850.650          27.200    26615242.248 2         0.00000     -2128.206          31.200  
E26  23529829.533 3   -107769.16505       752.966          36.500    23527702.508 2    -78475.49009       562.495          30.100  
E31  27598878.984 6         0.00000      1339.600          21.900           0.000 0         0.00000         0.000           0.000  
E33  27307797.294 6         0.00000      1879.850          22.500    27305651.074 3         0.00000      1402.628          26.200  
> 2021 07 14 20 51 16.4409029  0 24
G05  22240197.628 2    425420.77601     -2907.565          43.800           0.000 0         0.00000         0.000           0.000  
G10  24270385.259 5         0.00000      3412.700          24.200    24268089.438 3         0.00000      2548.469          23.000  
G13  23394790.116 4    -45305.46909       951.940          32.000           0.000 0         0.00000         0.000           0.000  
G15  22201816.101 3   -293111.43701      1960.355          40.500           0.000 0         0.00000         0.000           0.000  
G18  20735725.744 4   -121049.03104       816.891          32.500           0.000 0         0.00000         0.000           0.000  
G23  21487030.525 3   -375575.49602      2532.646          38.800           0.000 0         0.00000         0.000           0.000  
G25  24274792.503 4    533791.82104     -3623.593          32.300    24272465.813 2    382074.07909     -2705.871          31.200  
G26  22576268.562 5         0.00000       299.265          28.100    22573912.503 2         0.00000       223.628          29.800  
G29  20633836.488 3    150564.75801     -1060.659          40.800           0.000 0         0.00000         0.000           0.000  
R10  22514796.732 4    164005.72104     -1178.452          31.300  
R18  22501972.515 3    337678.39402     -2310.158          38.100  
R05  21586722.921 2   -591441.23301      4046.638          42.400  
R20  21598389.351 5         0.00000      2368.100          24.300  
R19  20193258.800 4         0.00000      -369.064          29.100  
R03  22038803.950 4         0.00000     -3000.281          29.700  
R04  19797467.690 3   -111235.27201       707.556          39.900  
E01  25752153.554 4    128334.66906     -1161.141          34.900    25750025.011 3    120412.65309      -866.914          28.600  
E07  25641976.212 4   -320092.39906      2369.477          35.600    25639849.798 2   -250973.86605      1769.142          31.500  
E08  23761915.056 3    -14325.53803        73.387          40.000    23759789.235 2    -10340.76604        55.099          34.500  
E13  24545495.497 3    167877.76104     -1143.090          39.100    24543377.756 3         0.00000      -853.433          26.300  
E21  26617903.494 5         0.00000     -2850.400          26.700    26615785.159 2         0.00000     -2127.885          30.300  
E26  23529688.622 3   -108522.50405       753.488          36.600    23527559.504 2    -79038.04509       562.756          29.700  
E31  27598622.064 6         0.00000      1345.550          22.600           0.000 0         0.00000         0.000           0.000  
E33  27307432.444 6         0.00000      1881.050          22.400    27305296.433 3         0.00000      1403.002          25.900  
> 2021 07 14 20 51 17.4409029  0 24
G05  22240751.934 2    428327.81101     -2906.475          43.300           0.000 0         0.00000         0.000           0.000  
G10  24269763.787 5         0.00000      3414.600          24.800    24267436.486 3         0.00000      2546.900          22.000  
G13  23394606.051 4    -46257.68209       952.669          31.600           0.000 0         0.00000         0.000           0.000  
G15  22201438.949 3   -295072.24101      1961.247          40.300           0.000 0         0.00000         0.000           0.000  
G18  20735569.862 4   -121866.52904       818.067          32.700           0.000 0         0.00000         0.000           0.000  
G23  21486555.652 3   -378108.60601      2533.576          39.200           0.000 0         0.00000         0.000           0.000  
G25  24275486.516 4    537414.73804     -3622.244          31.500    24273153.840 2    384779.53705     -2704.958          31.900  
G26  22576203.804 4    -48828.89909       300.252          29.900    22573853.138 2    -35211.54109       224.062          30.800  
G29  20634035.246 2    151624.91201     -1059.656          41.300           0.000 0         0.00000         0.000           0.000  
R10  22515040.163 4    165183.74804     -1177.627          32.200  
R18  22502406.310 3    339987.88102     -2308.858          38.300  
R05  21585970.433 2   -595488.39801      4047.674          42.700  
R20  21597980.720 5         0.00000      2362.100          24.700  
R19  20193331.952 4     52072.15607      -367.874          30.100  
R03  22039378.341 4    434618.51607     -2999.353          30.600  
R04  19797341.490 3   -111943.02401       708.060          39.500  
E01  25752372.990 4    129495.29807     -1160.139          34.600    25750246.263 2    121279.35809      -866.043          29.200  
E07  25641526.223 3   -322462.36405      2370.494          36.200    25639398.606 2   -252743.67105      1770.585          31.800  
E08  23761897.972 3    -14399.36204        74.216          39.500    23759775.432 2    -10395.88404        56.241          34.800  
E13  24545711.357 3    169020.27404     -1142.004          39.000    24543596.006 3         0.00000      -852.404          27.600  
E21  26618447.923 5         0.00000     -2848.300          27.100    26616327.198 2         0.00000     -2126.341          31.300  
E26  23529542.931 3   -109276.67105       754.732          36.700    23527415.906 3    -79601.20109       563.892          28.800  
E31  27598378.040 6         0.00000      1346.600          22.900           0.000 0         0.00000         0.000           0.000  
E33  27307067.909 5         0.00000      1881.200          25.200    27304936.976 3         0.00000      1404.362          26.400  
> 2021 07 14 20 51 18.4409029  0 24
G05  22241305.647 2    431234.80701     -2906.545          43.100           0.000 0         0.00000         0.000           0.000  
G10  24269100.644 5         0.00000      3416.400          23.500    24266788.943 3         0.00000      2545.450          21.900  
G13  23394428.861 4    -47209.72504       952.208          31.900           0.000 0         0.00000         0.000           0.000  
G15  22201073.507 3   -297032.87001      1960.920          40.100           0.000 0         0.00000         0.000           0.000  
G18  20735404.067 4   -122684.06304       817.914          31.700           0.000 0         0.00000         0.000           0.000  
G23  21486070.885 3   -380641.65002      2533.452          39.100           0.000 0         0.00000         0.000           0.000  
G25  24276167.353 4    541037.30704     -3621.992          30.500    24273842.758 2    387484.67805     -2704.685          31.900  
G26  22576141.455 4         0.00000       299.621          28.300    22573796.477 2    -35435.13309       223.762          31.200  
G29  20634240.600 2    152685.21901     -1059.912          41.200           0.000 0         0.00000         0.000           0.000  
R10  22515238.921 4    166362.18504     -1178.191          32.000  
R18  22502843.106 3    342297.23402     -2308.870          37.900  
R05  21585208.958 2   -599535.53801      4047.590          42.500  
R20  21597552.020 6         0.00000      2369.150          23.200  
R19  20193396.395 5         0.00000      -367.998          28.900  
R03  22039896.403 4    437618.61607     -2999.694          30.000  
R04  19797202.673 3   -112650.21401       707.327          39.200  
E01  25752590.350 4    130656.04108     -1160.464          33.300    25750467.514 2    122146.15209      -866.371          29.200  
E07  25641074.141 3   -324832.44605      2370.580          36.200    25638948.617 2   -254513.54405      1770.810          31.800  
E08  23761887.781 3    -14473.06904        73.947          39.200    23759761.350 2    -10450.90304        55.790          34.200  
E13  24545931.404 3    170162.47104     -1141.786          38.400    24543812.459 3    122780.83309      -852.375          28.200  
E21  26618991.148 5         0.00000     -2848.300          27.200    26616870.423 2         0.00000     -2126.379          31.300  
E26  23529402.317 3   -110031.08105       754.912          36.600    23527271.104 3    -80164.50609       563.772          28.500  
E31  27598123.511 6         0.00000      1345.400          23.400           0.000 0         0.00000         0.000           0.000  
E33  27306729.131 5         0.00000      1879.700          24.600    27304578.723 3         0.00000      1404.305          25.600  
> 2021 07 14 20 51 19.4409029  0 24
G05  22241858.173 2    434137.92801     -2898.044          42.300           0.000 0         0.00000         0.000           0.000  
G10  24268443.800 5         0.00000      3417.550          23.800           0.000 0         0.00000         0.000           0.000  
G13  23394256.191 4    -48164.35909       959.544          30.200           0.000 0         0.00000         0.000           0.000  
G15  22200702.969 3   -298997.18501      1969.272          40.900           0.000 0         0.00000         0.000           0.000  
G18  20735249.074 4   -123505.54704       826.696          31.300           0.000 0         0.00000         0.000           0.000  
G23  21485590.935 3   -383178.41102      2541.812          38.200           0.000 0         0.00000         0.000           0.000  
G25  24276861.069 4         0.00000     -3612.854          28.800    24274532.582 3         0.00000     -2698.094          28.600  
G26  22576104.286 5         0.00000       307.862          27.200    22573738.019 2    -35661.27109       229.896          30.300  
G29  20634441.766 3    153741.87001     -1051.619          40.200           0.000 0         0.00000         0.000           0.000  
R10  22515461.359 4         0.00000     -1169.829          29.000  
R18  22503271.509 4    344602.57903     -2300.080          34.600  
R05  21584450.501 3   -603586.56201      4056.143          41.800  
R20  21597046.575 6         0.00000      2370.500          22.000  
R19  20193456.651 5         0.00000      -359.264          28.300  
R03  22040482.783 4    440615.13709     -2991.426          33.200  
R04  19797075.269 3   -113360.67302       715.378          37.500  
E01  25752811.584 4    131812.96109     -1152.305          31.900    25750688.154 3         0.00000      -858.408          27.000  
E07  25640623.558 4   -327206.36506      2378.641          35.200    25638496.237 2   -256286.31609      1780.323          30.700  
E08  23761874.292 3    -14550.37104        81.892          37.400    23759746.360 2    -10507.73309        65.004          32.800  
E13  24546143.947 4    171300.75706     -1133.668          34.900    24544029.819 3         0.00000      -845.106          27.200  
E21  26619534.670 5         0.00000     -2837.400          25.700    26617410.647 2         0.00000     -2117.008          30.400  
E26  23529255.735 4   -110789.46706       763.122          35.300    23527127.803 2    -80730.96509       572.187          29.300  
E31  27597851.602 5         0.00000      1354.850          24.100           0.000 0         0.00000         0.000           0.000  
E33         0.000 0         0.00000         0.000           0.000    27304223.472 3         0.00000      1411.900          23.700  
> 2021 07 14 20 51 20.4409029  0 24
G05  22242408.588 2    437041.25401     -2910.817          43.600           0.000 0         0.00000         0.000           0.000  
G10  24267785.752 5         0.00000      3410.800          23.900           0.000 0         0.00000         0.000           0.000  
G13  23394077.815 4    -49120.13709       948.113          31.400           0.000 0         0.00000         0.000           0.000  
G15  22200328.522 2   -300961.08901      1956.332          41.400           0.000 0         0.00000         0.000           0.000  
G18  20735107.274 4   -124326.90304       813.871          32.100           0.000 0         0.00000         0.000           0.000  
G23  21485107.354 3   -385714.91002      2528.969          38.700           0.000 0         0.00000         0.000           0.000  
G25  24277545.799 4    548272.90909     -3625.053          30.300    24275220.313 2         0.00000     -2707.432          29.800  
G26  22576027.540 5         0.00000       296.350          27.900    22573682.248 2    -35887.15605       219.993          31.900  
G29  20634646.527 3    154798.82401     -1064.602          40.600           0.000 0         0.00000         0.000           0.000  
R10  22515694.598 4    168712.67809     -1183.452          31.800  
R18  22503702.303 4    346907.89603     -2312.951          35.300  
R05  21583686.618 3   -607637.35801      4043.154          41.600  
R20  21596653.543 6         0.00000      2355.150          23.500  
R19  20193504.918 5         0.00000      -365.552          28.600  
R03  22041050.299 4    443612.06309     -3004.315          32.000  
R04  19796935.563 3   -114070.45102       701.838          37.900  
E01  25753034.336 4    132970.12408     -1164.570          33.300    25750909.702 3         0.00000      -871.450          29.100  
E07  25640174.163 3   -329580.36005      2366.704          35.800    25638043.840 2   -258060.05309      1767.405          31.200  
E08  23761858.395 3    -14627.54704        69.674          38.200    23759731.667 2    -10565.25904        52.244          34.700  
E13  24546361.604 3    172438.66905     -1145.251          36.200    24544245.957 3         0.00000      -856.200          28.500  
E21  26620068.001 6         0.00000     -2851.700          23.000    26617954.169 2         0.00000     -2129.858          30.300  
E26  23529115.732 3   -111548.10205       751.357          36.600    23526983.891 2         0.00000       560.900          29.800  
E31  27597609.655 5         0.00000      1333.150          23.900           0.000 0         0.00000         0.000           0.000  
E33  27306007.844 6         0.00000      1880.550          23.300    27303862.514 3         0.00000      1401.200          23.400  
> 2021 07 14 20 51 21.4409029  0 23
G05  22242963.802 2    439952.66901     -2911.857          43.900           0.000 0         0.00000         0.000           0.000  
G13  23393885.636 4    -50066.99309       946.282          30.500           0.000 0         0.00000         0.000           0.000  
G15  22199956.484 2   -302916.71701      1955.114          41.800           0.000 0         0.00000         0.000           0.000  
G18  20734939.385 4   -125140.28704       812.865          32.100           0.000 0         0.00000         0.000           0.000  
G23  21484627.700 3   -388243.20502      2527.854          39.000           0.000 0         0.00000         0.000           0.000  
G25  24278235.920 4    551898.94109     -3626.164          29.600    24275911.324 2    395596.39205     -2707.965          31.200  
G26  22575984.071 5         0.00000       293.233          27.700    22573624.697 2    -36106.70405       219.179          31.700  
G29  20634848.287 3    155864.02601     -1065.725          41.100           0.000 0         0.00000         0.000           0.000  
R10  22515905.659 4    169896.86304     -1184.823          31.300  
R18  22504131.910 4    349221.35903     -2313.944          35.400  
R05  21582934.147 3   -611679.89101      4042.066          41.300  
R20  21596176.873 6         0.00000      2361.150          22.400  
R19  20193605.362 4     53535.60009      -373.096          30.100  
R03  22041603.715 4    446617.50904     -3005.945          32.200  
R04  19796809.956 3   -114771.34802       700.257          37.800  
E01  25753251.085 4    134135.59308     -1165.778          33.500    25751130.657 2    124732.60209      -870.636          29.500  
E07  25639722.377 3   -331946.23805      2365.573          36.600    25637593.258 2   -259826.76205      1766.334          32.300  
E08  23761841.311 3    -14696.38604        68.515          38.400    23759719.085 2    -10616.66604        50.749          34.400  
E13  24546581.651 3    173584.56404     -1146.043          37.100    24544465.708 3    125322.28109      -856.055          28.700  
E21  26620630.108 6         0.00000     -2850.950          23.400    26618497.394 2         0.00000     -2130.567          29.900  
E26  23528971.523 3   -112298.79604       750.514          36.900    23526839.107 3         0.00000       558.750          28.900  
E31  27597356.644 6         0.00000      1336.150          23.500           0.000 0         0.00000         0.000           0.000  
E33  27305623.503 6         0.00000      1876.250          22.000    27303505.762 3         0.00000      1401.132          26.200  
> 2021 07 14 20 51 22.4409029  0 24
G05  22243519.923 2    442863.81701     -2910.008          43.700           0.000 0         0.00000         0.000           0.000  
G13  23393707.260 4    -51013.95509       947.919          30.400           0.000 0         0.00000         0.000           0.000  
G15  22199586.836 2   -304872.44201      1956.824          41.700           0.000 0         0.00000         0.000           0.000  
G18  20734772.404 4   -125953.96704       814.862          31.600           0.000 0         0.00000         0.000           0.000  
G23  21484147.418 3   -390771.62801      2529.470          39.200           0.000 0         0.00000         0.000           0.000  
G25  24278917.351 4         0.00000     -3624.028          28.900    24276602.649 2    398303.62209     -2706.186          30.300  
G26  22575911.513 5         0.00000       296.000          25.100    22573568.036 2    -36326.29109       220.357          30.000  
G29  20635045.841 3    156929.15001     -1064.079          40.400           0.000 0         0.00000         0.000           0.000  
R10  22516105.027 4    171081.14404     -1183.398          31.100  
R18  22504560.016 4    351534.44703     -2311.921          35.000  
R05  21582184.364 3   -615722.60801      4043.866          40.700  
R20  21595777.542 6         0.00000      2360.150          23.900  
R19  20193657.224 4     53908.21107      -371.470          30.100  
R03  22042172.417 4    449622.94004     -3004.312          32.200  
R04  19796672.344 3   -115471.99602       701.546          37.500  
E01  25753475.635 4    135300.90908     -1164.366          33.200    25751351.908 3    125602.68909      -869.054          28.500  
E07  25639270.887 3   -334312.37805      2367.162          36.500    25637143.270 2   -261593.73305      1767.860          31.300  
E08  23761833.214 3    -14765.26304        69.787          38.900    23759705.282 2    -10668.13605        52.532          33.500  
E13  24546797.493 3    174729.99405     -1144.295          36.600    24544683.958 3         0.00000      -854.073          27.600  
E21  26621170.331 6         0.00000     -2849.550          23.300    26619038.212 2         0.00000     -2129.108          30.600  
E26  23528828.815 3   -113049.90705       752.186          36.700    23526698.789 2    -82438.90809       561.944          29.700  
E31  27597103.023 6         0.00000      1341.750          21.800           0.000 0         0.00000         0.000           0.000  
E33  27305296.730 5         0.00000      1881.350          24.100    27303148.119 3         0.00000      1402.851          24.600  
G10         0.000 0         0.00000         0.000           0.000    24264192.142 3         0.00000      2549.650          22.700  
> 2021 07 14 20 51 23.4409029  0 24
G05  22244074.840 2    445772.44101     -2907.089          43.300           0.000 0         0.00000         0.000           0.000  
G13  23393533.979 4    -51963.11009       950.595          32.200           0.000 0         0.00000         0.000           0.000  
G15  22199212.092 3   -306830.51101      1959.514          41.000           0.000 0         0.00000         0.000           0.000  
G18  20734621.617 4   -126770.22504       817.770          31.900           0.000 0         0.00000         0.000           0.000  
G23  21483670.154 3   -393302.49201      2532.308          39.900           0.000 0         0.00000         0.000           0.000  
G25  24279598.782 4    559146.88609     -3620.915          29.400    24277290.066 2    401008.73905     -2703.899          31.700  
G26  22575866.544 4    -50629.22709       297.472          29.600    22573512.265 2    -36547.49609       222.332          31.500  
G29  20635249.712 2    157991.93401     -1061.365          41.300           0.000 0         0.00000         0.000           0.000  
R10  22516337.656 4    172263.33704     -1180.742          31.100  
R18  22504993.811 3    353844.81802     -2308.828          37.000  
R05  21581422.889 3   -619767.85101      4046.776          41.700  
R20  21595335.354 6         0.00000      2364.450          23.900  
R19  20193745.051 5         0.00000      -368.332          28.900  
R03  22042742.324 4    452626.10307     -3001.576          30.000  
R04  19796547.627 3   -116174.60702       703.892          38.400  
E01  25753693.885 4    136463.74808     -1161.316          32.000    25751574.346 2    126471.09909      -867.088          29.800  
E07  25638822.399 3   -336681.19104      2370.151          36.800    25636692.984 2   -263362.67405      1770.275          31.400  
E08  23761817.020 3    -14836.62604        72.670          39.700    23759692.701 1    -10721.38203        54.656          35.300  
E13  24547016.354 3    175872.62304     -1141.127          38.500    24544900.707 3         0.00000      -851.890          27.600  
E21  26621700.975 5         0.00000     -2847.200          27.200    26619581.437 2         0.00000     -2126.314          32.300  
E26  23528683.717 3   -113803.89804       755.569          36.900    23526554.895 2    -83001.92709       564.400          29.900  
E31  27596849.384 6         0.00000      1345.400          22.700           0.000 0         0.00000         0.000           0.000  
E33  27304941.182 6         0.00000      1882.200          21.700    27302789.256 3         0.00000      1405.188          25.800  
G10         0.000 0         0.00000         0.000           0.000    24263539.800 3         0.00000      2555.650          22.300  
> 2021 07 14 20 51 24.4409029  0 24
G05  22244626.755 2    448678.32001     -2905.001          43.500           0.000 0         0.00000         0.000           0.000  
G13  23393354.416 4    -52914.29904       952.364          33.000           0.000 0         0.00000         0.000           0.000  
G15  22198843.055 2   -308791.05801      1961.303          41.500           0.000 0         0.00000         0.000           0.000  
G18  20734462.418 4   -127589.28004       819.956          32.000           0.000 0         0.00000         0.000           0.000  
G23  21483185.998 3   -395835.94101      2534.253          39.900           0.000 0         0.00000         0.000           0.000  
G25  24280304.486 4    562766.32304     -3618.450          30.600    24277979.297 2    403711.56505     -2701.998          31.500  
G26  22575808.382 5         0.00000       299.300          27.200    22573455.308 2    -36770.54609       223.601          32.800  
G29  20635455.066 2    159052.18501     -1059.489          41.300           0.000 0         0.00000         0.000           0.000  
R10  22516572.693 4    173443.19709     -1179.245          32.100  
R18  22505427.902 3    356152.32602     -2306.541          36.500  
R05  21580671.308 3   -623815.80001      4048.830          40.800  
R20  21594864.373 5         0.00000      2368.550          24.700  
R19  20193792.725 5         0.00000      -366.454          28.600  
R03  22043313.732 4    455626.77007     -2999.788          30.500  
R04  19796404.936 3   -116879.39602       705.349          38.600  
E01  25753917.527 4    137623.99409     -1159.740          33.400    25751795.894 3    127337.54109      -865.612          28.400  
E07  25638370.020 3   -339052.81904      2372.299          37.000    25636241.791 2   -265133.67505      1772.174          31.700  
E08  23761802.938 3    -14910.51004        74.491          39.500    23759678.304 2    -10776.57004        56.480          34.700  
E13  24547233.993 3    177012.32304     -1138.990          38.700    24545117.456 3    127881.93009      -850.084          28.300  
E21  26622242.700 5         0.00000     -2844.000          26.100    26620122.568 2         0.00000     -2123.846          31.700  
E26  23528540.730 3   -114560.77205       757.734          36.500    23526411.000 2    -83567.16009       566.110          29.600  
E31  27596611.659 6         0.00000      1342.150          22.700           0.000 0         0.00000         0.000           0.000  
E33  27304562.233 5         0.00000      1882.200          24.700    27302432.817 3         0.00000      1407.180          25.400  
G10         0.000 0         0.00000         0.000           0.000    24262892.240 3         0.00000      2551.659          23.200  
> 2021 07 14 20 51 25.4409029  0 23
G05  22245178.967 2    451584.44901     -2909.305          43.600           0.000 0         0.00000         0.000           0.000  
G10  24264567.775 6         0.00000      3409.800          22.300           0.000 0         0.00000         0.000           0.000  
G13  23393169.741 4    -53865.48104       947.963          31.700           0.000 0         0.00000         0.000           0.000  
G15  22198468.608 2   -310751.22201      1956.925          41.500           0.000 0         0.00000         0.000           0.000  
G18  20734313.429 4   -128408.21104       815.841          32.300           0.000 0         0.00000         0.000           0.000  
G23  21482702.417 3   -398369.06001      2529.837          40.300           0.000 0         0.00000         0.000           0.000  
G25  24280990.105 4    566385.67404     -3622.435          31.500    24278667.324 2    406414.34805     -2705.048          31.000  
G26  22575750.221 5         0.00000       295.179          26.500    22573399.851 2    -36993.13305       220.074          32.500  
G29  20635655.324 2    160112.80001     -1063.831          41.300           0.000 0         0.00000         0.000           0.000  
R10  22516801.134 4    174623.70904     -1183.920          31.100  
R18  22505858.713 4    358459.99603     -2310.818          35.800  
R05  21579903.533 3   -627863.46401      4044.408          40.700  
R20  21594391.908 5         0.00000      2361.350          24.100  
R19  20193861.077 4         0.00000      -370.442          29.300  
R03  22043850.361 4    458627.99204     -3004.523          31.600  
R04  19796279.016 3   -117583.31301       700.445          39.600  
E01  25754137.871 4    138784.47708     -1163.090          33.100    25752016.238 2    128204.15909      -869.038          29.800  
E07  25637911.934 4   -341424.31606      2368.749          35.600    25635792.099 2   -266904.52109      1768.514          31.600  
E08  23761786.744 3    -14984.04704        70.609          39.000    23759663.925 2    -10831.42104        52.139          34.200  
E13  24547450.149 3    178151.93204     -1142.315          38.600    24545335.112 2    128732.93609      -853.239          29.200  
E21  26622787.722 5         0.00000     -2848.700          26.600    26620664.886 2         0.00000     -2127.783          31.800  
E26  23528397.725 3   -115317.66004       754.160          37.000    23526265.588 3    -84132.30109       562.988          29.000  
E33  27304218.079 5         0.00000      1874.750          27.200    27302073.954 3         0.00000      1403.851          25.200  
> 2021 07 14 20 51 26.4409029  0 23
G05  22245732.383 2    454496.39201     -2912.112          43.100           0.000 0         0.00000         0.000           0.000  
G10  24263899.240 5         0.00000      3409.304          27.800    24261558.171 3         0.00000      2549.550          22.300  
G13  23392985.065 4    -54810.59704       944.670          32.800           0.000 0         0.00000         0.000           0.000  
G15  22198097.774 2   -312705.37701      1953.865          41.300           0.000 0         0.00000         0.000           0.000  
G18  20734154.527 3   -129221.43402       813.010          35.700           0.000 0         0.00000         0.000           0.000  
G23  21482220.652 3   -400896.23802      2526.921          38.100           0.000 0         0.00000         0.000           0.000  
G25  24281679.633 4    570010.59004     -3624.870          32.600    24279357.149 2    409121.21705     -2706.979          31.000  
G26  22575688.464 5         0.00000       291.295          27.900    22573345.284 2    -37211.20505       217.805          33.500  
G29  20635855.880 3    161179.42001     -1066.878          40.200           0.000 0         0.00000         0.000           0.000  
R10  22517002.300 5         0.00000     -1187.209          27.800  
R18  22506305.997 4    360773.40504     -2313.441          31.700  
R05  21579144.466 3   -631905.15702      4041.541          37.600  
R20  21593989.890 6         0.00000      2361.350          22.600  
R19  20193946.217 4     55385.90909      -373.470          30.300  
R03  22044437.054 4         0.00000     -3007.761          29.400  
R04  19796146.813 3   -118280.78802       697.012          37.600  
E01  25754359.122 3    139951.05505     -1166.972          36.500    25752240.788 2    129075.35509      -871.119          30.500  
E07  25637463.150 4   -343789.95406      2365.350          34.900    25635341.221 2   -268671.14609      1766.885          31.000  
E08  23761772.959 3    -15051.51504        67.208          37.300    23759653.420 1    -10881.88203        50.429          36.100  
E13  24547668.398 3    179297.22304     -1145.560          37.600    24545553.362 3    129588.21709      -855.251          28.200  
E26  23528252.016 4   -116068.94306       751.156          35.100    23526122.601 3         0.00000       561.068          26.600  
E33  27303869.424 5         0.00000      1876.900          25.400           0.000 0         0.00000         0.000           0.000  
E21         0.000 0         0.00000         0.000           0.000    26621206.610 2         0.00000     -2129.406          32.100  
> 2021 07 14 20 51 27.4409029  0 23
G05  22246286.114 2    457405.05601     -2901.155          43.000           0.000 0         0.00000         0.000           0.000  
G10  24263265.186 6         0.00000      3420.150          23.000           0.000 0         0.00000         0.000           0.000  
G13  23392804.298 4    -55759.27709       956.250          32.200           0.000 0         0.00000         0.000           0.000  
G15  22197726.922 3   -314662.64801      1964.800          41.000           0.000 0         0.00000         0.000           0.000  
G18  20734007.038 3   -130037.51202       822.160          36.500           0.000 0         0.00000         0.000           0.000  
G23  21481743.685 3   -403426.17002      2535.824          37.700           0.000 0         0.00000         0.000           0.000  
G25  24282396.436 4    573632.14409     -3615.212          34.500    24280047.270 2    411825.60609     -2699.345          31.500  
G26  22575631.210 4         0.00000       298.975          28.500    22573287.733 2         0.00000       223.740          29.700  
G29  20636059.751 3    162243.09102     -1056.603          38.800           0.000 0         0.00000         0.000           0.000  
R10  22517195.073 5         0.00000     -1180.002          27.600  
R18  22506737.402 4         0.00000     -2300.150          31.200  
R05  21578396.480 3   -635949.95302      4051.515          39.300  
R20  21593547.998 6         0.00000      2367.000          23.800  
R19  20194014.569 4     55755.94709      -362.537          30.600  
R03  22044956.582 4         0.00000     -2996.900          29.000  
R04  19796016.390 3   -118980.88702       707.277          38.200  
E01  25754580.373 4    141114.99906     -1159.160          35.200    25752458.741 3    129944.41609      -860.034          28.400  
E07  25637013.754 4   -346158.89706      2375.333          35.200    25634891.232 2   -270440.19309      1779.213          31.900  
E08  23761762.157 3    -15122.24304        77.584          37.800    23759638.134 2    -10934.70204        63.531          34.400  
E13  24547888.446 3    180439.07204     -1135.040          38.600    24545770.705 3    130442.00309      -853.509          28.300  
E26  23528106.324 4   -116823.38206       759.936          35.100    23525979.596 3         0.00000       570.100          29.000  
E33  27303497.071 5         0.00000      1884.950          25.600    27301359.559 4         0.00000      1404.900          21.800  
E21         0.000 0         0.00000         0.000           0.000    26621749.242 2         0.00000     -2118.637          31.600  
> 2021 07 14 20 51 28.4409029  0 26
G05  22246836.825 2    460306.83601     -2906.638          42.900           0.000 0         0.00000         0.000           0.000  
G10  24262660.204 5         0.00000      3408.750          24.700           0.000 0         0.00000         0.000           0.000  
G13  23392609.728 4    -56715.39209       951.675          29.800           0.000 0         0.00000         0.000           0.000  
G15  22197352.492 2   -316626.96001      1960.049          41.400           0.000 0         0.00000         0.000           0.000  
G16  23838740.477 6         0.00000      2189.900          22.200           0.000 0         0.00000         0.000           0.000  
G18  20733847.839 4   -130856.60703       811.783          34.100           0.000 0         0.00000         0.000           0.000  
G23  21481252.933 3   -405958.62802      2525.367          38.300           0.000 0         0.00000         0.000           0.000  
G25  24283066.472 4    577249.60409     -3623.641          34.000    24280735.280 2    414527.00909     -2705.710          30.700  
G26  22575564.655 4    -52107.18909       286.645          32.800    22573234.667 3         0.00000       215.250          27.300  
G29  20636261.196 3    163301.14602     -1063.480          38.500           0.000 0         0.00000         0.000           0.000  
R10  22517437.299 5         0.00000     -1186.708          27.200  
R18  22507168.213 4    365389.39307     -2308.791          30.500  
R09  23023822.428 6         0.00000     -3395.400          20.200  
R05  21577643.398 2   -639999.41201      4043.639          43.000  
R20  21593121.096 5         0.00000      2354.300          25.300  
R19  20194081.421 4     56119.54704      -369.161          31.800  
R03  22045539.088 4    467643.58703     -3003.527          35.400  
R04  19795882.686 3   -119686.94802       700.636          38.700  
E01  25754804.312 4    142277.88407     -1170.971          33.900    25752680.585 3    130812.89309      -874.342          29.100  
E07  25636563.469 4   -348534.50606      2370.961          34.800    25634441.243 2   -272214.02209      1769.909          33.200  
E08  23761747.481 3    -15200.42804        73.921          38.200    23759623.441 2    -10993.06909        54.748          33.200  
E13  24548104.584 3    181573.50704     -1138.991          38.100    24545985.657 3         0.00000      -844.100          22.800  
E21  26624434.185 6         0.00000     -2857.600          20.000    26622290.060 2         0.00000     -2131.287          31.700  
E26  23527958.817 3   -117581.17105       751.023          36.300    23525834.498 3         0.00000       561.050          28.800  
E31  27595559.987 5         0.00000      1335.600          25.900           0.000 0         0.00000         0.000           0.000  
E33  27303126.237 6         0.00000      1875.800          23.000           0.000 0         0.00000         0.000           0.000  
> 2021 07 14 20 51 29.4409029  0 27
G05  22247391.149 3    463213.60901     -2905.020          39.400           0.000 0         0.00000         0.000           0.000  
G10  24261970.676 5         0.00000      3412.910          25.700    24259615.211 3         0.00000      2539.450          22.400  
G13  23392433.150 5         0.00000       953.274          27.000           0.000 0         0.00000         0.000           0.000  
G15  22196978.935 3   -318587.91102      1964.158          38.800           0.000 0         0.00000         0.000           0.000  
G16  23838310.870 5         0.00000      2184.857          27.000           0.000 0         0.00000         0.000           0.000  
G18  20733701.851 4   -131667.18609       810.367          31.500           0.000 0         0.00000         0.000           0.000  
G20  24936505.807 5         0.00000     -3385.300          23.600           0.000 0         0.00000         0.000           0.000  
G23  21480773.854 3   -408482.38302      2524.754          37.500           0.000 0         0.00000         0.000           0.000  
G25  24283764.690 3    580873.42109     -3621.587          37.300    24281423.603 1    417233.06903     -2704.242          35.100  
G26  22575519.983 4    -52390.21209       281.678          32.600    22573178.600 2    -37859.68205       210.569          33.400  
G29  20636451.875 4    164364.88009     -1062.208          31.200           0.000 0         0.00000         0.000           0.000  
R10  22517668.148 4    179369.97709     -1197.744          32.900  
R18  22507578.013 4    367694.67809     -2300.349          31.800  
R09  23024450.200 6         0.00000     -3393.200          23.700  
R05  21576882.831 2   -644042.97501      4046.254          44.400  
R20  21592698.382 6         0.00000      2352.050          22.200  
R19  20194158.464 4     56489.32804      -368.220          31.600  
R03  22046072.419 4    470647.30509     -3002.341          32.900  
R04  19795757.376 2   -120387.34101       702.469          41.400  
E01  25755029.455 4    143452.55709     -1174.673          30.000    25752905.431 3         0.00000      -877.624          27.100  
E07  25636111.979 3   -350905.99509      2374.713          36.600    25633988.549 2   -273984.96405      1774.248          31.700  
E08  23761735.179 3    -15274.67204        76.537          37.700    23759609.952 1    -11048.53802        57.977          39.700  
E13  24548319.239 3    182712.63204     -1137.036          39.200    24546200.015 3         0.00000      -848.250          28.500  
E21  26624961.217 6         0.00000     -2851.650          23.000    26622832.395 3         0.00000     -2130.067          28.600  
E26  23527813.719 4   -118329.30108       748.274          33.700    23525694.494 3         0.00000       556.900          28.000  
E31  27595319.541 6         0.00000      1330.000          22.800           0.000 0         0.00000         0.000           0.000  
E33         0.000 0         0.00000         0.000           0.000    27300647.538 4         0.00000      1398.450          21.500  
> 2021 07 14 20 51 30.4409029  0 25
G05  22247943.361 3    466118.78502     -2905.130          36.600           0.000 0         0.00000         0.000           0.000  
G10  24261321.930 5         0.00000      3411.832          27.100    24258963.166 3         0.00000      2540.450          22.300  
G13  23392262.260 4    -58622.69509       959.123          31.900           0.000 0         0.00000         0.000           0.000  
G15  22196600.004 4   -320554.17403      1968.391          33.700           0.000 0         0.00000         0.000           0.000  
G16  23837901.959 5         0.00000      2180.050          24.100           0.000 0         0.00000         0.000           0.000  
G18  20733545.061 4   -132474.48503       806.763          33.200           0.000 0         0.00000         0.000           0.000  
G20  24937136.877 6         0.00000     -3381.300          21.000           0.000 0         0.00000         0.000           0.000  
G23  21480292.699 3   -411007.10702      2525.867          36.200           0.000 0         0.00000         0.000           0.000  
G25  24284446.714 4    584493.24309     -3616.702          34.400    24282112.835 1    419936.20903     -2700.985          36.400  
G26  22575468.120 3    -52669.37402       278.009          37.600    22573126.144 2         0.00000       208.294          29.700  
G29  20636659.323 3    165427.56309     -1059.966          36.800           0.000 0         0.00000         0.000           0.000  
R10  22517885.491 4    180571.52209     -1203.431          30.800  
R18  22508022.017 4    369993.28809     -2295.515          32.600  
R09  23025132.521 6         0.00000     -3399.800          21.700  
R05  21576124.653 3   -648090.86902      4050.318          38.400  
R19  20194231.615 4     56857.74904      -368.463          31.200  
R03  22046637.527 5         0.00000     -3006.750          25.200  
R04  19795625.173 2   -121090.62601       704.405          44.300  
E01  25755251.596 4    144628.57906     -1177.651          34.900    25753128.166 2    132569.99409      -879.248          34.300  
E07  25635658.989 3   -353283.08004      2379.296          39.700    25633537.357 2   -275760.15105      1776.389          33.000  
E08  23761720.800 3    -15352.57704        78.758          38.300    23759594.962 1    -11106.67102        58.537          40.100  
E13  24548534.802 3    183848.84304     -1135.720          38.500    24546412.855 2    132993.12809      -847.618          30.000  
E21  26625498.143 4      1513.99209     -2851.299          30.600    26623374.713 2    330829.62809     -2129.310          31.600  
E26  23527675.216 3   -119075.62909       745.532          37.100    23525553.881 2         0.00000       559.250          29.600  
E33  27302418.124 5         0.00000      1864.900          23.900    27300291.693 3         0.00000      1391.250          23.100  
> 2021 07 14 20 51 31.4409029  0 27
G05  22248498.871 4    469019.82009     -2900.403          32.500           0.000 0         0.00000         0.000           0.000  
G10  24260653.988 3   -544185.31209      3412.887          35.600    24258312.308 3         0.00000      2549.506          28.600  
G13  23392072.192 4    -59583.94109       963.418          29.300           0.000 0         0.00000         0.000           0.000  
G15  22196227.965 3   -322526.39301      1975.318          39.400           0.000 0         0.00000         0.000           0.000  
G16  23837505.630 6         0.00000      2185.350          22.700           0.000 0         0.00000         0.000           0.000  
G18  20733383.175 4   -133282.41609       807.374          33.100           0.000 0         0.00000         0.000           0.000  
G20  24937772.728 5         0.00000     -3377.569          27.000           0.000 0         0.00000         0.000           0.000  
G23  21479809.433 3   -413536.06001      2530.537          40.600           0.000 0         0.00000         0.000           0.000  
G25  24285146.433 4    588105.49803     -3609.074          34.400    24282799.361 1    422633.69303     -2694.998          35.000  
G26  22575422.244 5         0.00000       279.420          26.300    22573070.373 3         0.00000       206.895          27.900  
G29  20636861.082 3    166484.41402     -1055.214          38.500           0.000 0         0.00000         0.000           0.000  
R10  22518104.927 5         0.00000     -1203.264          28.900  
R18  22508447.732 4    372285.98509     -2291.149          33.200  
R09  23025745.303 5         0.00000     -3395.200          26.300  
R05  21575370.385 3         0.00000      4059.050          39.900  
R20  21591842.780 6         0.00000      2348.550          20.100  
R19  20194282.290 4     57224.54304      -366.423          32.900  
R03  22047208.638 4         0.00000     -3000.500          29.300  
R04  19795492.063 2   -121797.87601       708.758          42.100  
E01  25755473.755 4    145805.17108     -1177.034          33.300    25753350.918 2    133448.81104      -879.064          34.500  
E07  25635205.405 3   -355667.40305      2387.259          36.000    25633084.977 3         0.00000      1783.591          26.500  
E08  23761704.606 3    -15434.10409        82.913          36.100    23759579.379 1    -11167.63902        62.000          40.900  
E13  24548750.347 3    184981.89404     -1132.084          39.400    24546628.714 2    133839.15804      -845.848          35.000  
E21  26626040.164 3      4361.99905     -2845.570          36.400    26623916.437 1    332955.96803     -2124.216          36.200  
E26  23527528.617 4   -119821.80707       745.539          34.100    23525410.597 3    -87459.72309       557.229          28.600  
E31  27594806.905 6         0.00000      1321.100          23.300           0.000 0         0.00000         0.000           0.000  
E33  27302060.168 5         0.00000      1863.000          25.200    27299936.442 3         0.00000      1388.950          22.400  
> 2021 07 14 20 51 32.4409029  0 25
G05  22249049.303 4    471924.37209     -2905.510          34.800           0.000 0         0.00000         0.000           0.000  
G10  24260000.442 3   -547600.39209      3417.851          37.800    24257661.764 1   -399807.46609      2552.241          36.000  
G13  23391898.911 4    -60548.46009       964.477          33.500           0.000 0         0.00000         0.000           0.000  
G15  22195853.222 3   -324503.16901      1978.598          40.000           0.000 0         0.00000         0.000           0.000  
G16  23837094.014 5         0.00000      2185.150          24.500           0.000 0         0.00000         0.000           0.000  
G18  20733244.672 5         0.00000       806.950          28.000           0.000 0         0.00000         0.000           0.000  
G23  21479331.559 4   -416067.08709      2532.899          30.000           0.000 0         0.00000         0.000           0.000  
G25  24285825.770 3    591711.73901     -3602.317          39.700    24283485.591 1    425326.61803     -2690.146          37.400  
G26  22575358.690 4    -53225.20209       274.737          33.800    22573018.511 1    -38482.68003       204.917          36.300  
G29  20637063.156 4    167539.04903     -1053.421          33.200           0.000 0         0.00000         0.000           0.000  
R10  22518339.982 4         0.00000     -1208.038          29.500  
R18  22508884.825 4    374575.81009     -2288.727          31.400  
R09  23026379.374 5         0.00000     -3397.759          28.600  
R05  21574614.302 3   -656199.92702      4064.247          39.800  
R20  21591381.396 6         0.00000      2348.200          22.600  
R19  20194371.025 4     57592.17007      -368.064          30.400  
R03  22047809.117 5         0.00000     -3006.000          25.000  
R04  19795367.050 2   -122506.94401       709.988          42.900  
E01  25755697.100 4    146983.01809     -1177.129          31.700    25753575.467 2    134328.55505      -878.484          33.600  
E07  25634759.919 5         0.00000      2390.100          26.600    25632628.689 2         0.00000      1787.130          32.300  
E08  23761687.522 4    -15516.65306        82.522          35.600    23759563.482 1    -11229.36903        62.204          38.800  
E13  24548967.393 3    186114.36603     -1132.475          40.100    24546844.556 1    134684.86103      -845.000          38.000  
E21  26626579.498 4      7205.41809     -2840.965          33.200    26624457.254 1    335079.32303     -2120.766          36.100  
E26  23527388.317 4   -120565.68006       743.550          34.800    23525266.388 2    -88015.45209       555.783          30.700  
E33  27301704.009 5         0.00000      1860.600          27.800           0.000 0         0.00000         0.000           0.000  
> 2021 07 14 20 51 33.4409029  0 27
G05  22249600.015 3    474830.95409     -2908.499          39.500           0.000 0         0.00000         0.000           0.000  
G10  24259351.695 3   -551020.46009      3421.483          37.400    24257011.220 1   -402361.30503      2554.930          38.000  
G13  23391699.560 3    -61512.36109       962.019          36.700           0.000 0         0.00000         0.000           0.000  
G15  22195475.180 4   -326482.86103      1979.928          33.300           0.000 0         0.00000         0.000           0.000  
G16  23836653.623 4    -78378.73109      2168.220          30.100           0.000 0         0.00000         0.000           0.000  
G18  20733081.583 4         0.00000       804.450          34.600           0.000 0         0.00000         0.000           0.000  
G20  24939097.217 6         0.00000     -3383.150          20.000           0.000 0         0.00000         0.000           0.000  
G23  21478844.994 3   -418601.95109      2536.119          40.700           0.000 0         0.00000         0.000           0.000  
G25  24286507.794 3    595311.29002     -3597.827          36.800    24284172.100 2    428014.63104     -2686.587          34.500  
G26  22575311.330 4    -53498.86709       272.389          33.600    22572966.353 1    -38686.97003       203.339          37.200  
G29  20637258.319 5         0.00000     -1054.733          26.400           0.000 0         0.00000         0.000           0.000  
R10  22518554.026 5         0.00000     -1211.018          28.300  
R18  22509310.820 4    376864.11909     -2289.304          33.500  
R09  23026988.840 4    495665.72309     -3393.459          31.900  
R05  21573846.231 2   -660266.86501      4068.257          42.700  
R20  21590933.502 5         0.00000      2340.483          27.900  
R19  20194430.076 4         0.00000      -370.603          29.200  
R03  22048335.852 5         0.00000     -3012.946          28.700  
R04  19795228.844 2   -123217.19201       709.477          43.900  
E01  25755929.432 5         0.00000     -1177.700          27.200    25753799.406 1         0.00000      -879.612          36.500  
E07  25634296.441 4     -1450.00907      2395.443          34.400    25632172.401 2   -281114.35309      1788.749          34.300  
E08  23761674.923 4    -15598.88009        81.690          31.300    23759547.899 1    -11290.83102        60.663          39.200  
E13  24549184.438 3    187247.18103     -1134.026          40.900    24547059.822 1    135530.72002      -846.529          39.400  
E21  26627117.924 4     10043.18408     -2836.555          33.600    26624998.089 1    337198.49603     -2118.187          37.300  
E26  23527246.813 4   -121308.57308       741.678          33.300    23525128.183 3         0.00000       553.475          26.200  
E31  27594308.946 6         0.00000      1329.050          20.400           0.000 0         0.00000         0.000           0.000  
E33  27301350.852 4     -2972.63609      1862.500          29.200           0.000 0         0.00000         0.000           0.000  
> 2021 07 14 20 51 34.4409029  0 25
G05  22250149.540 3    477741.49509     -2912.156          36.100           0.000 0         0.00000         0.000           0.000  
G10  24258697.539 3   -554444.39109      3427.119          37.100    24256359.768 1   -404918.13003      2559.115          37.100  
G13  23391522.684 3    -62472.68209       958.640          37.200           0.000 0         0.00000         0.000           0.000  
G15  22195098.343 3   -328462.19501      1978.423          41.000           0.000 0         0.00000         0.000           0.000  
G16  23836252.495 5         0.00000      2168.106          26.100           0.000 0         0.00000         0.000           0.000  
G18  20732928.981 4   -135679.33209       804.372          32.300           0.000 0         0.00000         0.000           0.000  
G20  24939731.881 6         0.00000     -3387.350          21.000           0.000 0         0.00000         0.000           0.000  
G23  21478363.525 3   -421139.80609      2539.976          38.700           0.000 0         0.00000         0.000           0.000  
G25  24287190.115 3    598906.92602     -3592.842          36.900    24284853.845 2         0.00000     -2683.219          29.200  
G26  22575259.468 4    -53771.53109       274.513          33.500    22572914.787 2    -38890.42504       204.915          34.300  
G29  20637463.080 3         0.00000     -1053.600          35.300           0.000 0         0.00000         0.000           0.000  
R10  22518783.671 4    185398.95104     -1207.834          32.400  
R18  22509737.426 3    379155.24502     -2292.655          38.000  
R09  23027628.896 3    499058.23102     -3389.289          38.100  
R05  21573087.461 3   -664336.74601      4071.327          40.200  
R19  20194520.626 4     58333.37604      -373.407          31.200  
R03  22048903.961 4    485688.70209     -3016.173          35.500  
R04  19795095.140 2   -123925.68301       707.837          43.800  
E01  25756144.384 4         0.00000     -1172.650          34.800    25754023.048 2         0.00000      -876.153          34.100  
E07  25633839.856 3     -3846.04704      2396.177          38.600    25631716.723 2   -282903.51005      1789.250          33.200  
E08  23761660.841 4    -15679.30109        79.014          31.700    23759532.612 1    -11350.04503        58.145          37.200  
E13  24549399.687 3    188382.75203     -1136.622          40.500    24547275.664 1    136378.63503      -848.685          35.500  
E21  26627656.351 3     12877.34904     -2831.448          37.700    26625537.423 1    339314.81503     -2114.006          35.700  
E26  23527106.810 4   -122049.79509       742.182          29.600    23524984.585 2    -89123.34609       554.377          33.700  
E33  27300988.114 6         0.00000      1867.550          22.100    27298873.078 3         0.00000      1391.950          25.300  
> 2021 07 14 20 51 35.4409029  0 27
G05  22250707.440 3    480652.56809     -2908.074          38.900           0.000 0         0.00000         0.000           0.000  
G10  24258047.588 3   -557876.81809      3439.541          38.900    24255707.409 2   -407481.32805      2568.519          33.200  
G13  23391364.394 5         0.00000       959.450          28.000           0.000 0         0.00000         0.000           0.000  
G15  22194725.694 3   -330441.87702      1983.316          37.800           0.000 0         0.00000         0.000           0.000  
G16  23835833.393 4         0.00000      2178.850          28.600           0.000 0         0.00000         0.000           0.000  
G18  20732770.986 3   -136487.20609       813.495          35.900           0.000 0         0.00000         0.000           0.000  
G20  24940363.230 5         0.00000     -3385.335          26.400           0.000 0         0.00000         0.000           0.000  
G23  21477872.476 3   -423684.15809      2550.539          37.400           0.000 0         0.00000         0.000           0.000  
G25  24287881.144 3    602495.61102     -3582.640          36.400    24285539.761 3         0.00000     -2674.535          25.800  
G26  22575214.796 4         0.00000       285.650          30.600    22572860.517 1    -39099.10103       213.690          37.300  
G29  20637668.137 3    170691.43909     -1047.823          37.500           0.000 0         0.00000         0.000           0.000  
R10  22519004.608 4         0.00000     -1196.695          29.300  
R18  22510151.153 5         0.00000     -2287.950          27.400  
R09  23028264.154 4    502441.53403     -3375.626          35.900  
R05  21572309.198 3   -668411.31102      4080.068          36.300  
R20  21590059.315 6         0.00000      2351.450          20.300  
R19  20194592.573 5         0.00000      -367.917          27.500  
R03  22049464.863 4    488703.40809     -3011.402          35.400  
R04  19794962.030 3   -124634.59301       712.603          39.100  
E01  25756366.822 3    150465.99605     -1162.655          36.400    25754245.800 1    136958.43003      -862.700          35.800  
E07  25633381.177 3     -6244.19805      2401.821          36.300    25631261.342 1   -284694.44902      1799.156          39.900  
E08  23761644.350 3    -15757.42304        80.648          37.000    23759517.919 2    -11408.54304        65.191          34.700  
E13  24549614.045 3    189518.61804     -1132.738          38.800    24547490.912 2    137226.68809      -840.195          30.500  
E21  26628193.276 3     15703.52604     -2820.381          37.200    26626074.942 1    341425.26303     -2100.568          37.700  
E26  23526961.712 5         0.00000       754.000          28.500    23524841.877 1         0.00000       566.242          36.100  
E31  27593803.501 5         0.00000      1323.900          24.000           0.000 0         0.00000         0.000           0.000  
E33         0.000 0         0.00000         0.000           0.000    27298517.512 3         0.00000      1403.250          28.000  
> 2021 07 14 20 51 36.4409029  0 25
G05  22251262.061 3    483566.36209     -2920.819          36.500           0.000 0         0.00000         0.000           0.000  
G10  24257400.342 3   -561312.71702      3429.738          36.500    24255052.067 2   -410047.01209      2561.025          31.700  
G13  23391170.714 4    -64382.41209       950.021          29.500           0.000 0         0.00000         0.000           0.000  
G15  22194341.963 4   -332419.02603      1969.938          34.700           0.000 0         0.00000         0.000           0.000  
G16  23835414.884 4         0.00000      2168.050          31.200           0.000 0         0.00000         0.000           0.000  
G18  20732622.590 4   -137296.35109       800.641          29.700           0.000 0         0.00000         0.000           0.000  
G20  24941011.994 5         0.00000     -3396.650          25.200           0.000 0         0.00000         0.000           0.000  
G23  21477392.508 4   -426230.85609      2540.704          34.900           0.000 0         0.00000         0.000           0.000  
G25  24288555.071 4    606082.79703     -3593.788          35.100    24286220.598 3         0.00000     -2684.450          28.300  
G26  22575164.731 5         0.00000       277.702          26.400    22572808.062 1    -39310.12803       206.748          37.000  
G29  20637863.597 3    171744.33902     -1059.531          37.700           0.000 0         0.00000         0.000           0.000  
R18  22510618.225 5         0.00000     -2301.050          26.300  
R09  23028883.236 4    505819.58109     -3390.372          31.400  
R05  21571558.821 3   -672486.44302      4068.078          39.100  
R20  21589571.844 6         0.00000      2338.400          22.400  
R03  22050029.971 3    491721.60802     -3024.529          36.100  
R04  19794822.027 3   -125341.57201       699.869          39.600  
E01  25756588.073 3    151630.57105     -1170.359          36.600    25754467.348 2    137828.24805      -875.473          31.400  
E07  25632921.887 4     -8641.42009      2390.111          29.700    25630805.351 1   -286484.48803      1783.736          39.100  
E08  23761629.657 3    -15832.62004        68.634          38.700    23759504.430 2    -11464.56704        50.207          35.100  
E13  24549830.201 3    190656.10704     -1143.832          37.800    24547707.365 2    138076.27809      -855.625          32.800  
E21  26628734.093 4     18526.14609     -2828.440          32.800    26626611.868 2    343533.35609     -2113.133          30.900  
E26  23526827.415 4   -123542.83407       741.925          34.000    23524700.984 2    -90238.34705       553.674          33.500  
E31  27593550.472 4      -806.20909      1311.085          30.100           0.000 0         0.00000         0.000           0.000  
E33  27300280.298 4         0.00000      1869.250          31.100    27298161.074 2         0.00000      1393.999          30.900  
> 2021 07 14 20 51 37.4409029  0 27
G05  22251816.681 3    486484.79609     -2915.507          35.300           0.000 0         0.00000         0.000           0.000  
G10  24256736.902 4   -564742.30009      3430.110          31.700    24254401.522 2         0.00000      2560.236          29.700  
G13  23390985.445 4    -65329.48909       948.757          32.300           0.000 0         0.00000         0.000           0.000  
G15  22193963.328 4         0.00000      1972.150          30.400           0.000 0         0.00000         0.000           0.000  
G16  23835006.863 4    -87033.39809      2171.435          33.400           0.000 0         0.00000         0.000           0.000  
G18  20732475.397 4         0.00000       801.685          28.900           0.000 0         0.00000         0.000           0.000  
G20  24941655.942 5         0.00000     -3395.723          26.200           0.000 0         0.00000         0.000           0.000  
G23  21476914.634 4   -428773.06209      2541.095          33.800           0.000 0         0.00000         0.000           0.000  
G25  24289245.192 3    609676.28201     -3594.781          39.800    24286907.718 3         0.00000     -2684.292          28.500  
G26  22575104.475 5         0.00000       274.897          27.100    22572754.699 1    -39517.72203       207.416          37.200  
G29  20638065.653 3    172802.48702     -1057.312          38.600           0.000 0         0.00000         0.000           0.000  
R10  22519487.281 6         0.00000     -1199.400          22.900  
R18  22511046.017 4    386046.53009     -2299.763          33.000  
R09  23029528.091 4         0.00000     -3385.550          33.500  
R05  21570801.848 3   -676554.95702      4067.730          37.200  
R20  21589150.037 6         0.00000      2345.800          22.300  
R19  20194712.194 5         0.00000      -376.100          24.600  
R03  22050590.280 4    494742.90809     -3019.561          35.300  
R04  19794706.297 3   -126042.88402       702.110          37.300  
E01  25756811.715 3    152800.50304     -1170.596          37.900    25754690.397 2    138701.85809      -873.984          29.300  
E07  25632476.401 5         0.00000      2385.900          24.200    25630350.860 2         0.00000      1784.953          33.000  
E08  23761614.964 3    -15902.57504        71.672          37.500    23759491.238 2    -11516.83504        54.455          34.200  
E13  24550048.748 3    191798.12704     -1140.395          39.700    24547925.318 2    138928.95705      -850.447          31.400  
E21  26629271.037 4     21355.59709     -2830.965          34.900    26627149.998 2    345646.01009     -2113.147          32.500  
E26  23526683.503 4   -124286.37608       744.732          33.100    23524560.073 2    -90793.63605       557.260          32.900  
E31  27593300.446 5         0.00000      1312.550          28.100           0.000 0         0.00000         0.000           0.000  
E33  27299925.640 4     -2985.21808      1868.927          32.500    27297805.508 2   -106323.01705      1397.005          31.600  
> 2021 07 14 20 51 38.4409029  0 26
G05  22252372.802 4    489399.78209     -2913.168          34.000           0.000 0         0.00000         0.000           0.000  
G10  24256092.640 3   -568169.30309      3423.039          38.400    24253748.273 2   -415165.69604      2555.813          34.200  
G13  23390795.080 4    -66279.86209       950.543          32.500           0.000 0         0.00000         0.000           0.000  
G15  22193595.478 4         0.00000      1969.346          28.800           0.000 0         0.00000         0.000           0.000  
G16  23834607.236 5         0.00000      2187.500          24.400           0.000 0         0.00000         0.000           0.000  
G18  20732317.403 4   -138902.12209       807.066          34.900           0.000 0         0.00000         0.000           0.000  
G20  24942305.596 6         0.00000     -3384.550          22.500           0.000 0         0.00000         0.000           0.000  
G23  21476428.977 4   -431310.37409      2535.727          34.500           0.000 0         0.00000         0.000           0.000  
G25  24289925.733 3    613274.15802     -3600.481          37.800    24287589.446 2    441419.12609     -2688.747          30.800  
G26  22575052.910 4    -54879.02609       277.124          30.100    22572702.540 1    -39724.16903       207.039          35.700  
G29  20638265.022 3    173860.69102     -1057.803          36.600           0.000 0         0.00000         0.000           0.000  
R10  22519674.958 4         0.00000     -1204.814          29.200  
R18  22511469.325 4    388344.60309     -2297.062          33.800  
R09  23030189.733 4         0.00000     -3390.761          29.000  
R05  21570044.561 4   -680618.84809      4061.125          32.200  
R19  20194780.843 4         0.00000      -373.145          29.600  
R03  22051161.984 3    497761.43509     -3015.146          36.400  
R04  19794567.202 3   -126744.14509       697.759          35.900  
E01  25757034.764 3    153973.04205     -1172.766          36.200    25754913.428 2    139577.45504      -875.414          34.400  
E07  25632027.616 5         0.00000      2387.850          25.500    25629895.182 3         0.00000      1783.765          29.100  
E08  23761601.179 4    -15975.02009        72.151          31.900    23759476.545 1    -11570.91003        55.082          36.600  
E13  24550266.387 3    192937.40205     -1138.102          36.500    24548142.364 1    139779.76603      -849.369          35.700  
E21  26629811.260 3     24189.34004     -2835.774          39.500    26627690.832 1    347762.11403     -2117.511          38.600  
E26  23526544.111 4   -125030.55709       745.452          33.600    23524417.069 2    -91349.53305       557.635          32.200  
E31  27593050.122 5         0.00000      1318.100          25.500           0.000 0         0.00000         0.000           0.000  
E33  27299570.999 5         0.00000      1877.550          24.100    27297450.553 2         0.00000      1395.421          30.300  
> 2021 07 14 20 51 39.4409029  0 27
G05  22252924.717 4    492311.24109     -2909.337          34.700           0.000 0         0.00000         0.000           0.000  
G10  24255435.203 3   -571590.04509      3420.393          35.400    24253098.323 1   -417720.03303      2553.697          36.300  
G13  23390614.610 4    -67231.45309       952.160          30.400           0.000 0         0.00000         0.000           0.000  
G15  22193221.345 4   -338321.24109      1964.337          30.500           0.000 0         0.00000         0.000           0.000  
G16  23834179.740 5         0.00000      2190.209          26.100           0.000 0         0.00000         0.000           0.000  
G18  20732163.614 3   -139710.25909       809.438          36.100           0.000 0         0.00000         0.000           0.000  
G20  24942970.240 6         0.00000     -3395.500          21.500           0.000 0         0.00000         0.000           0.000  
G23  21475946.897 4   -433844.16609      2533.013          34.100           0.000 0         0.00000         0.000           0.000  
G25  24290622.747 4    616877.48309     -3605.184          34.600    24288276.566 3         0.00000     -2692.121          25.000  
G26  22574997.750 4    -55157.82409       280.008          33.500    22572650.678 1    -39931.96903       208.855          36.600  
G29  20638474.268 4    174919.68009     -1059.043          32.700           0.000 0         0.00000         0.000           0.000  
R10  22519909.088 4    191414.25209     -1202.752          33.900  
R18  22511907.936 4    390642.86509     -2299.199          31.700  
R09  23030798.013 4    516002.88809     -3391.618          35.100  
R05  21569281.289 3   -684678.43409      4057.429          40.600  
R19  20194850.993 5         0.00000      -370.985          26.500  
R03  22051718.716 3    500773.64709     -3012.550          36.800  
R04  19794428.996 4         0.00000       699.700          29.800  
E01  25757259.313 3    155145.50904     -1171.844          37.600    25755136.180 2    140452.93605      -874.587          33.100  
E03  28689985.921 5         0.00000     -2045.000          27.500           0.000 0         0.00000         0.000           0.000  
E07  25631565.325 5         0.00000      2382.400          28.700    25629441.005 3         0.00000      1778.650          26.800  
E08  23761593.675 4    -16047.93709        72.767          29.900    23759462.759 2    -11625.74805        55.382          31.800  
E13  24550483.747 4    194075.74509     -1138.104          32.800    24548359.410 2    140629.01505      -848.285          33.400  
E21  26630349.076 3     27027.40504     -2838.957          37.800    26628231.056 1    349881.45703     -2120.259          35.800  
E26  23526398.401 4   -125778.07808       748.500          33.000    23524275.879 3         0.00000       567.450          23.700  
E31  27592810.880 5         0.00000      1338.750          25.700    27590676.055 3         0.00000       986.615          27.700  
E33  27299222.640 4     -1117.81509      1871.447          29.000    27297094.412 2   -109114.75809      1397.988          30.900  
> 2021 07 14 20 51 40.4409029  0 27
G05  22253479.931 4         0.00000     -2906.700          30.700           0.000 0         0.00000         0.000           0.000  
G10  24254785.549 3   -575010.34609      3420.750          35.200    24252446.871 1   -420273.86203      2554.169          35.000  
G13  23390434.437 4    -68183.79909       952.319          34.800           0.000 0         0.00000         0.000           0.000  
G15  22192845.398 4   -340285.04409      1962.942          29.800           0.000 0         0.00000         0.000           0.000  
G16  23833777.408 5         0.00000      2197.252          25.700           0.000 0         0.00000         0.000           0.000  
G18  20732010.715 4   -140521.17809       813.221          34.800           0.000 0         0.00000         0.000           0.000  
G20  24943588.711 5         0.00000     -3381.750          24.000           0.000 0         0.00000         0.000           0.000  
G23  21475463.945 3   -436377.13009      2533.124          37.500           0.000 0         0.00000         0.000           0.000  
G25  24291292.783 5         0.00000     -3605.750          25.000    24288958.590 3         0.00000     -2693.450          24.700  
G26  22574940.478 4    -55439.13509       282.620          34.400    22572596.111 1    -40142.11603       211.255          35.800  
G29  20638670.931 4    175979.29609     -1059.836          33.200           0.000 0         0.00000         0.000           0.000  
R10  22520161.819 4         0.00000     -1197.382          29.000  
R18  22512326.741 3    392942.57209     -2298.894          38.900  
R09  23031443.165 3    519393.63002     -3390.103          37.200  
R05  21568523.723 3   -688734.76802      4056.431          39.600  
R19  20194892.961 5         0.00000      -364.150          24.700  
R03  22052281.416 3    503785.83609     -3010.547          37.800  
R04  19794307.874 4   -128125.42803       700.200          32.900  
E01  25757481.454 4    156315.98209     -1169.160          31.600    25755359.525 2    141327.10409      -873.643          32.500  
E03  28690372.653 6         0.00000     -2043.100          22.000           0.000 0         0.00000         0.000           0.000  
E07  25631115.947 4         0.00000      2379.550          30.200    25628986.514 2         0.00000      1780.107          30.700  
E08  23761576.295 5         0.00000        74.100          27.500    23759448.066 2         0.00000        56.806          30.500  
E13  24550698.088 4    195211.79507     -1135.774          34.500    24548575.269 2    141477.41805      -847.759          32.900  
E21  26630891.115 4     29866.78906     -2838.767          35.600    26628770.372 2    352001.79304     -2119.979          34.200  
E26  23526260.492 4   -126528.69809       758.304          32.000    23524133.468 3         0.00000       561.524          27.100  
E31  27592550.365 5         0.00000      1335.350          25.300    27590425.732 3         0.00000       990.146          25.200  
E33  27298876.672 5         0.00000      1885.800          27.000    27296738.253 3         0.00000      1393.979          25.200  
> 2021 07 14 20 51 41.4409029  0 27
G05  22254039.647 4    498121.11509     -2909.325          32.500           0.000 0         0.00000         0.000           0.000  
G10  24254132.004 4   -578430.95709      3421.320          34.800    24251796.920 1   -422828.10303      2555.295          36.100  
G13  23390252.762 4    -69134.47909       948.800          34.300           0.000 0         0.00000         0.000           0.000  
G15  22192470.061 3   -342248.79409      1964.031          36.900           0.000 0         0.00000         0.000           0.000  
G16  23833361.604 5         0.00000      2190.283          28.100           0.000 0         0.00000         0.000           0.000  
G18  20731858.427 4   -141334.63109       812.525          32.800           0.000 0         0.00000         0.000           0.000  
G20  24944214.964 6         0.00000     -3383.100          20.500           0.000 0         0.00000         0.000           0.000  
G23  21474983.663 3   -438910.06209      2533.502          39.000           0.000 0         0.00000         0.000           0.000  
G25  24291990.687 4         0.00000     -3603.568          29.100    24289649.619 2    449496.24909     -2692.779          30.300  
G26  22574883.521 4    -55723.75009       285.882          32.000    22572541.544 1    -40353.40903       211.856          35.800  
G29  20638875.989 4    177039.94809     -1062.811          30.300           0.000 0         0.00000         0.000           0.000  
R10  22520363.579 4    193808.23509     -1192.442          31.500  
R18  22512752.143 3    395241.91409     -2301.382          38.600  
R09  23032078.423 4    522783.30309     -3388.182          32.300  
R05  21567761.043 3   -692790.45702      4056.107          37.100  
R19  20194975.099 5         0.00000      -373.400          24.200  
R03  22052846.524 4    506795.07809     -3013.494          32.600  
R04  19794202.352 4   -128824.60809       696.929          30.300  
E01  25757705.707 4    157484.30709     -1166.934          32.000    25755581.073 2    142200.28709      -871.697          34.700  
E07  25630656.064 3         0.00000      2380.950          38.400    25628534.117 2         0.00000      1779.435          31.100  
E08  23761562.806 4    -16189.39509        69.721          31.600    23759435.484 2    -11735.50209        53.812          31.800  
E13  24550913.650 5         0.00000     -1135.650          28.700    24548792.315 3         0.00000      -846.200          26.300  
E15  28498206.301 6         0.00000     -1936.750          23.400    28496088.856 3         0.00000     -1445.491          27.600  
E21  26631428.337 3     32706.84409     -2839.385          35.800    26629310.003 1    354121.63409     -2117.419          36.300  
E26  23526107.908 4         0.00000       752.350          30.700    23523989.277 2         0.00000       561.860          33.200  
E31  27592298.245 5         0.00000      1328.800          28.200    27590173.908 3         0.00000       990.673          27.800  
E33  27298513.917 5         0.00000      1881.900          27.000    27296381.204 3         0.00000      1399.900          27.000  
> 2021 07 14 20 51 42.4409029  0 26
G05  22254613.148 5         0.00000     -2908.984          28.100           0.000 0         0.00000         0.000           0.000  
G10  24253483.257 3   -581854.29709      3425.976          40.300    24251145.172 1   -425385.06803      2558.566          35.400  
G13  23390071.088 3    -70080.65109       943.380          35.300           0.000 0         0.00000         0.000           0.000  
G15  22192104.025 3   -344211.03602      1958.996          37.400           0.000 0         0.00000         0.000           0.000  
G16  23832928.403 4    -97969.26009      2185.799          31.900           0.000 0         0.00000         0.000           0.000  
G18  20731697.728 3   -142148.40102       814.567          37.300           0.000 0         0.00000         0.000           0.000  
G23  21474501.897 3   -441445.15109      2535.830          35.500           0.000 0         0.00000         0.000           0.000  
G25  24292668.227 4    627692.27903     -3603.110          34.100    24290336.738 3         0.00000     -2692.025          27.200  
G26  22574835.864 4    -56010.59909       288.293          32.200    22572487.885 1    -40566.76903       214.924          36.100  
G29  20639075.654 3    178102.38309     -1063.109          36.200           0.000 0         0.00000         0.000           0.000  
R10  22520596.818 4    195003.12209     -1194.556          31.200  
R18  22513176.654 3    397545.00709     -2307.629          36.200  
R09  23032693.299 4    526169.23609     -3382.780          35.000  
R05  21567005.571 3   -696846.98009      4055.700          37.000  
R20  21586984.343 6         0.00000      2359.250          22.200  
R03  22053402.645 4    509812.43409     -3016.483          30.700  
R04  19794052.158 4   -129519.92409       692.768          34.800  
E01  25757922.753 4    158650.28809     -1164.631          33.500    25755802.621 1    143070.80709      -868.983          35.400  
E07  25630203.370 4     -8526.67906      2378.740          35.500    25628081.738 1   -297155.52703      1775.958          36.900  
E08  23761547.816 4    -16258.21009        64.842          30.000    23759422.292 2    -11786.89309        50.088          31.800  
E13  24551131.289 5         0.00000     -1144.100          28.700    24549008.470 3         0.00000      -847.217          28.100  
E15  28498571.132 6         0.00000     -1947.550          23.100    28496456.707 3         0.00000     -1458.674          24.200  
E21  26631972.156 3     35542.33104     -2834.398          37.800    26629850.838 1    356239.19603     -2116.804          36.700  
E26  23525966.997 4         0.00000       753.050          30.700    23523845.679 2         0.00000       563.078          34.400  
E31  27592046.421 5         0.00000      1329.700          26.100    27589921.787 3         0.00000       993.150          22.900  
E33  27298153.867 5         0.00000      1886.100          25.700    27296022.654 3         0.00000      1406.315          25.400  
> 2021 07 14 20 51 43.4409029  0 25
G05  22255148.277 5         0.00000     -2909.439          26.000           0.000 0         0.00000         0.000           0.000  
G10  24252830.008 3   -585286.78401      3440.096          39.700    24250492.831 3         0.00000      2564.871          28.800  
G13  23389909.202 4    -71023.71809       948.990          30.100           0.000 0         0.00000         0.000           0.000  
G15  22191727.484 4   -346170.30409      1964.171          33.600           0.000 0         0.00000         0.000           0.000  
G16  23832530.276 4         0.00000      2201.100          30.700           0.000 0         0.00000         0.000           0.000  
G18  20731536.139 3   -142967.78509       826.751          37.000           0.000 0         0.00000         0.000           0.000  
G23  21474015.333 3   -443986.46909      2548.772          36.200           0.000 0         0.00000         0.000           0.000  
G25  24293349.361 4         0.00000     -3595.968          28.700    24291019.967 3         0.00000     -2681.300          26.600  
G26  22574772.293 4    -56305.72009       303.320          34.700    22572430.928 1    -40786.96802       226.474          39.100  
G29  20639273.226 3    179163.91309     -1055.926          37.700           0.000 0         0.00000         0.000           0.000  
R10  22520822.258 4         0.00000     -1177.000          31.700  
R18  22513601.445 4         0.00000     -2306.650          32.000  
R09  23033337.247 3    529544.39702     -3366.553          37.400  
R05  21566255.491 4         0.00000      4062.450          32.700  
R03  22053989.042 5         0.00000     -3010.140          28.800  
R04  19793914.249 3   -130214.26309       699.353          39.700  
E01  25758144.004 3    159807.67404     -1149.020          37.500    25756021.465 1    143934.13103      -852.169          38.900  
E07  25629754.882 4    -10905.00509      2380.598          29.100    25627629.044 2   -298933.29005      1786.998          33.600  
E08  23761529.528 4    -16324.92409        70.484          31.100    23759412.084 3         0.00000        52.671          25.400  
E13  24551349.853 4    198623.16409     -1133.795          30.500    24549225.220 2         0.00000      -841.877          31.200  
E15  28498949.174 6         0.00000     -1939.850          22.800    28496827.245 3         0.00000     -1446.100          24.900  
E21  26632509.692 4     38372.65609     -2826.176          31.900    26630390.451 3    358351.39609     -2101.503          28.900  
E26  23525824.307 3         0.00000       766.300          36.500    23523701.767 2         0.00000       576.399          32.200  
E31  27591789.501 5         0.00000      1343.850          28.100    27589663.367 2         0.00000      1004.600          29.400  
E33  27297785.126 5         0.00000      1903.500          27.800    27295661.400 3         0.00000      1422.600          28.600  
> 2021 07 14 20 51 44.4409029  0 26
G05  22255707.678 4         0.00000     -2913.209          28.300           0.000 0         0.00000         0.000           0.000  
G10  24252179.464 3   -588725.13501      3435.425          40.300    24249836.580 2   -430512.51909      2564.604          33.700  
G13  23389714.022 4    -71972.54909       940.024          32.500           0.000 0         0.00000         0.000           0.000  
G15  22191356.039 3   -348129.31509      1954.124          35.200           0.000 0         0.00000         0.000           0.000  
G16  23832098.872 3   -102356.76409      2196.478          35.200           0.000 0         0.00000         0.000           0.000  
G18  20731383.851 3   -143792.83609       821.334          39.100           0.000 0         0.00000         0.000           0.000  
G23  21473530.880 3   -446532.89909      2542.751          40.900           0.000 0         0.00000         0.000           0.000  
G25  24294026.587 5         0.00000     -3601.250          25.100    24291702.288 2    457566.48505     -2687.741          32.800  
G26  22574714.742 3    -56607.27409       299.457          39.200    22572373.970 1    -41012.34602       223.633          41.300  
G29  20639483.379 3    180224.09109     -1066.093          37.300           0.000 0         0.00000         0.000           0.000  
R10  22521034.505 4         0.00000     -1181.800          33.800  
R18  22514057.140 3         0.00000     -2314.050          36.300  
R09  23033976.396 3    532911.91601     -3369.621          40.500  
R05  21565480.823 4   -704955.62804      4054.650          31.800  
R20  21586070.265 5         0.00000      2370.850          25.300  
R19  20195187.049 6         0.00000      -370.150          20.100  
R03  22054540.347 6         0.00000     -3009.350          23.400  
R04  19793786.252 4   -130908.42109       687.840          32.400  
E01  25758361.050 4    160956.79206     -1151.158          35.600    25756241.215 2    144792.39505      -859.899          32.400  
E07  25629296.797 4    -13285.55409      2375.615          32.700    25627175.461 1   -300711.01003      1773.798          37.300  
E08  23761524.729 5         0.00000        61.750          28.600    23759398.298 2         0.00000        43.550          31.100  
E13  24551574.996 5         0.00000     -1145.950          28.400    24549441.969 3         0.00000      -852.450          25.900  
E21  26633045.414 4     41197.95609     -2827.491          33.300    26630925.282 1    360459.58203     -2109.668          36.500  
E26  23525678.004 3   -129514.50904       761.239          37.400    23523556.075 1    -94730.35202       569.010          39.800  
E31  27591525.968 4         0.00000      1341.250          33.300    27589407.634 2         0.00000      1000.684          31.400  
E33  27297422.371 4     -3093.67308      1898.277          32.800    27295299.849 2   -116128.15505      1418.192          33.300  
> 2021 07 14 20 51 45.4409029  0 26
G05  22256251.218 3    509769.46709     -2924.137          37.000           0.000 0         0.00000         0.000           0.000  
G10  24251523.214 4         0.00000      3439.426          28.800    24249182.127 1   -433079.62203      2568.134          35.700  
G13  23389537.146 4    -72905.21209       928.791          29.400           0.000 0         0.00000         0.000           0.000  
G15  22190986.688 3   -350081.10909      1948.274          35.600           0.000 0         0.00000         0.000           0.000  
G16  23831678.862 4   -104554.89509      2197.375          31.900           0.000 0         0.00000         0.000           0.000  
G18  20731224.967 3   -144615.15909       822.014          37.700           0.000 0         0.00000         0.000           0.000  
G23  21473046.113 2   -449076.84809      2544.329          41.400           0.000 0         0.00000         0.000           0.000  
G25  24294730.494 5         0.00000     -3601.350          24.300    24292387.924 2    460253.44809     -2685.700          29.900  
G26  22574660.175 3    -56908.62309       302.033          36.500    22572315.808 2    -41237.54905       225.690          33.500  
G29  20639682.433 4    181291.36609     -1068.716          34.700           0.000 0         0.00000         0.000           0.000  
R10  22521251.254 3    198577.41009     -1178.175          38.200  
R18  22514520.024 5         0.00000     -2323.287          28.500  
R09  23034601.463 3    536278.95801     -3365.415          41.300  
R05  21564753.830 5         0.00000      4057.314          28.000  
R20  21585622.685 5         0.00000      2372.510          26.800  
R19  20195290.791 5         0.00000      -379.206          28.600  
R03  22055086.573 5         0.00000     -3004.700          24.900  
R04  19793663.019 3   -131594.61909       684.112          37.200  
E01  25758582.301 3    162106.14003     -1148.475          40.100    25756460.058 2    145650.40405      -856.864          33.800  
E07  25628845.918 3    -15658.10105      2371.751          35.800    25626723.378 2   -302483.22205      1771.131          33.500  
E08  23761502.550 6         0.00000        58.400          23.400    23759386.013 3         0.00000        40.581          28.900  
E13  24551781.554 5         0.00000     -1146.000          27.200    24549661.109 3         0.00000      -859.179          25.600  
E21  26633585.045 4     44022.78808     -2823.306          32.600    26631463.709 1    362568.79702     -2107.871          39.300  
E26  23525536.204 4   -130276.77308       761.806          33.300    23523410.680 1    -95299.63403       569.169          36.200  
E31  27591281.037 5         0.00000      1341.450          28.600    27589153.419 3         0.00000      1001.793          25.200  
E33  27297060.838 3     -4994.52404      1901.792          39.600    27294938.298 1   -117547.62003      1420.652          36.400  
> 2021 07 14 20 51 46.4409029  0 26
G05  22256807.321 4    512694.67809     -2926.357          34.800           0.000 0         0.00000         0.000           0.000  
G10  24250872.059 4   -595605.70009      3445.825          30.800    24248527.378 1   -435650.46303      2573.367          35.400  
G13  23389366.570 4         0.00000       926.283          29.000           0.000 0         0.00000         0.000           0.000  
G15  22190611.351 4   -352028.83209      1947.272          32.500           0.000 0         0.00000         0.000           0.000  
G16  23831245.957 4         0.00000      2199.350          29.300           0.000 0         0.00000         0.000           0.000  
G18  20731075.069 3   -145437.95809       823.875          37.200           0.000 0         0.00000         0.000           0.000  
G23  21472562.846 3   -451623.81309      2549.394          39.500           0.000 0         0.00000         0.000           0.000  
G25  24295393.934 5         0.00000     -3595.450          24.300    24293071.153 2    462937.12609     -2682.478          30.000  
G26  22574600.216 3    -57212.50309       305.815          36.600    22572258.240 1    -41464.40203       228.333          35.000  
G29  20639890.492 3    182359.98309     -1068.363          37.500           0.000 0         0.00000         0.000           0.000  
R10  22521477.304 3    199754.01102     -1174.171          38.400  
R18  22514923.543 5         0.00000     -2323.204          27.400  
R09  23035234.940 3    539640.73001     -3358.242          41.100  
R05  21563984.851 4   -713071.48809      4060.968          30.000  
R20  21585191.874 5         0.00000      2374.868          28.800  
R19  20195347.138 5         0.00000      -381.766          28.700  
R03  22055683.161 6         0.00000     -3014.800          23.700  
R04  19793537.709 3   -132277.75402       683.390          38.600  
E01  25758800.237 3    163251.71504     -1143.270          38.200    25756679.216 2    146505.90205      -853.325          33.000  
E07  25628389.926 5         0.00000      2377.900          26.900    25626273.389 3         0.00000      1775.050          26.000  
E08  23761503.737 5         0.00000        53.050          25.600    23759378.824 3         0.00000        40.150          25.800  
E13  24552006.994 5         0.00000     -1150.850          28.200    24549880.563 2         0.00000      -858.984          31.100  
E21  26634115.985 4     46842.72709     -2817.008          30.400    26631999.745 1    364674.56202     -2102.854          39.900  
E26  23525386.899 4   -131039.33606       763.469          35.300    23523266.175 1    -95869.06203       570.491          35.900  
E31  27591017.835 5         0.00000      1340.000          26.600    27588897.686 3         0.00000      1004.185          27.600  
E33  27296696.879 3     -6899.08604      1906.943          39.700    27294574.950 1   -118969.85103      1424.898          37.000  
> 2021 07 14 20 51 47.4409029  0 26
G05  22257373.633 4    515621.24709     -2925.341          33.100           0.000 0         0.00000         0.000           0.000  
G10  24250215.512 4   -599056.11709      3455.189          31.500    24247870.237 1   -438227.12003      2580.083          35.500  
G13  23389193.883 5         0.00000       934.100          23.800           0.000 0         0.00000         0.000           0.000  
G15  22190262.085 5         0.00000      1953.150          24.000           0.000 0         0.00000         0.000           0.000  
G16  23830836.453 4         0.00000      2205.500          31.100           0.000 0         0.00000         0.000           0.000  
G18  20730911.980 3   -146264.11709       829.011          37.200           0.000 0         0.00000         0.000           0.000  
G23  21472076.875 3   -454176.65609      2556.751          38.000           0.000 0         0.00000         0.000           0.000  
G25  24296116.442 5         0.00000     -3582.900          24.800    24293755.882 2    465616.66309     -2676.502          30.200  
G26  22574537.570 3    -57521.48709       312.517          35.700    22572197.985 2    -41695.13009       233.415          32.400  
G29  20640094.956 3    183427.23209     -1064.977          35.600           0.000 0         0.00000         0.000           0.000  
R10  22521693.146 3    200924.81102     -1167.215          37.200  
R18  22515346.240 4    409107.81809     -2321.573          30.700  
R09  23035845.907 3    542994.30102     -3348.841          37.600  
R05  21563211.702 4         0.00000      4065.655          29.600  
R20  21584753.280 4   -404388.32209      2380.289          30.200  
R19  20195426.292 5         0.00000      -380.208          27.800  
R03  22056254.569 6         0.00000     -3010.750          21.500  
R04  19793405.802 3   -132961.65602       685.623          36.600  
E01  25759016.986 3    164391.07704     -1136.072          38.200    25756895.371 2    147356.66405      -846.186          31.500  
E07  25627942.642 4    -20407.41309      2378.723          31.600    25625819.806 3   -306029.91209      1769.656          28.500  
E08  23761489.951 5         0.00000        55.950          28.600    23759365.928 3         0.00000        40.233          25.200  
E13  24552220.741 5         0.00000     -1147.350          28.300    24550097.905 3         0.00000      -857.039          28.300  
E21  26634661.601 5         0.00000     -2810.250          27.900    26632534.873 1         0.00000     -2095.394          39.500  
E26  23525241.208 4   -131804.99807       767.969          34.400    23523120.465 1    -96440.84103       574.809          35.400  
E31  27590760.008 4      -787.58509      1348.679          31.600    27588640.470 2     -8477.56509      1008.105          30.900  
E33  27296334.438 3     -8810.13704      1914.596          39.200    27294211.601 1   -120396.94203      1431.545          36.700  
> 2021 07 14 20 51 48.4409029  0 26
G05  22257920.156 4    518549.82403     -2933.428          35.000           0.000 0         0.00000         0.000           0.000  
G10  24249555.667 4   -602509.27604      3449.423          31.600    24247213.097 2   -440806.11504      2575.936          34.000  
G13  23389001.721 5         0.00000       925.200          24.900           0.000 0         0.00000         0.000           0.000  
G15  22189865.162 4         0.00000      1943.300          33.000           0.000 0         0.00000         0.000           0.000  
G16  23830418.538 4   -111123.14604      2197.333          30.800           0.000 0         0.00000         0.000           0.000  
G18  20730757.894 3   -147090.69902       822.164          38.100           0.000 0         0.00000         0.000           0.000  
G23  21471588.217 3   -456731.48402      2550.499          36.800           0.000 0         0.00000         0.000           0.000  
G25  24296769.081 5         0.00000     -3590.150          25.600    24294434.905 3         0.00000     -2680.596          28.500  
G26  22574488.692 3    -57831.01502       305.485          35.800    22572140.416 2    -41926.74109       227.978          31.400  
G29  20640293.121 3    184494.88402     -1072.241          36.000           0.000 0         0.00000         0.000           0.000  
R10  22521906.300 3    202094.54702     -1174.344          37.100  
R18  22515771.658 4         0.00000     -2328.428          29.000  
R09  23036490.763 4    546344.94803     -3354.834          35.900  
R05  21562478.409 5         0.00000      4064.055          28.500  
R20  21584299.697 4   -406766.31909      2373.764          30.000  
R19  20195507.837 5         0.00000      -386.573          27.700  
R03  22056778.895 5         0.00000     -3027.750          24.900  
R04  19793278.695 3   -133644.38202       677.958          37.300  
E01  25759233.439 3    165528.31304     -1140.893          38.900    25757111.213 2    148205.99709      -852.664          29.800  
E07  25627490.856 4    -22782.93009      2372.193          32.200    25625366.816 3   -307802.05009      1770.886          28.200  
E08  23761480.057 5         0.00000        46.400          26.800    23759356.924 3         0.00000        33.121          26.300  
E13  24552442.883 4    204420.01809     -1155.452          29.400    24550320.954 3         0.00000      -863.949          27.500  
E21  26635193.134 5         0.00000     -2812.450          26.500    26633069.705 1         0.00000     -2101.446          37.300  
E26  23525096.406 4   -132571.11806       762.407          35.200    23522975.070 2    -97012.85705       567.942          33.700  
E31  27590509.685 4     -2133.05509      1341.285          31.200    27588384.458 3         0.00000      1001.170          27.700  
E33  27295968.681 3    -10723.29603      1909.660          40.000    27293847.659 1   -121825.48403      1424.766          35.700  
> 2021 07 14 20 51 49.4409029  0 26
G05  22258481.966 3    521484.40102     -2931.928          35.800           0.000 0         0.00000         0.000           0.000  
G10  24248897.322 4   -605957.96309      3448.487          31.500    24246556.847 2   -443381.06605      2576.075          33.600  
G13  23388848.822 5         0.00000       923.000          24.800           0.000 0         0.00000         0.000           0.000  
G15  22189492.530 4   -357885.19709      1944.127          33.500           0.000 0         0.00000         0.000           0.000  
G16  23830003.921 4   -113318.78504      2197.440          30.900           0.000 0         0.00000         0.000           0.000  
G18  20730603.198 3   -147911.28602       822.568          38.300           0.000 0         0.00000         0.000           0.000  
G23  21471107.044 3   -459280.51402      2550.602          37.900           0.000 0         0.00000         0.000           0.000  
G25  24297473.005 5         0.00000     -3590.550          23.500    24295118.133 2    470975.61209     -2679.784          30.300  
G26  22574434.143 4    -58134.71403       304.930          35.000    22572081.958 2    -42153.51305       228.037          31.300  
G29  20640499.662 3    185568.62002     -1071.537          35.900           0.000 0         0.00000         0.000           0.000  
R10  22522131.443 3    203270.81002     -1174.977          36.000  
R18  22516188.666 5         0.00000     -2324.700          25.400  
R09  23037109.827 3    549701.07502     -3354.989          38.900  
R05  21561698.035 4   -725261.40809      4060.038          30.800  
R20  21583863.790 5         0.00000      2373.465          28.500  
R19  20195552.806 5         0.00000      -386.363          26.700  
R03  22057359.010 5         0.00000     -3036.250          25.100  
R04  19793156.980 3   -134320.50502       678.262          37.300  
E01  25759452.893 4    166671.86906     -1142.313          35.600    25757328.556 3         0.00000      -852.956          27.700  
E07  25627038.756 4    -25152.90309      2371.935          31.300    25624915.030 3         0.00000      1771.484          26.700  
E08  23761472.570 5         0.00000        53.350          25.600    23759348.530 3         0.00000        34.280          23.900  
E13  24552662.337 5         0.00000     -1153.400          26.600    24550539.500 3         0.00000      -862.883          26.600  
E21  26635730.060 5         0.00000     -2815.950          28.500    26633605.130 1         0.00000     -2100.561          36.600  
E26  23524950.103 3   -133331.14105       761.621          35.800    23522829.378 2    -97580.56109       569.587          32.500  
E31  27590252.154 4     -3472.24509      1340.357          30.300    27588129.318 3         0.00000      1001.503          26.600  
E33  27295608.037 3    -12630.55904      1908.156          37.100    27293485.201 2   -123249.84909      1425.388          33.500  
> 2021 07 14 20 51 50.4409029  0 25
G05  22259038.384 3    524408.16102     -2923.669          36.600           0.000 0         0.00000         0.000           0.000  
G10  24248239.589 4   -609410.85409      3450.247          31.900    24245900.003 2   -445960.96405      2576.774          33.600  
G15  22189145.358 4   -359836.50209      1950.228          32.700           0.000 0         0.00000         0.000           0.000  
G16  23829589.914 4   -115523.20309      2201.600          32.200           0.000 0         0.00000         0.000           0.000  
G18  20730439.812 3   -148740.54702       827.367          37.800           0.000 0         0.00000         0.000           0.000  
G23  21470618.089 3   -461836.69802      2552.713          36.400           0.000 0         0.00000         0.000           0.000  
G25  24298142.133 5         0.00000     -3588.300          27.700    24295801.955 2    473651.38709     -2678.373          34.200  
G26  22574373.870 5         0.00000       315.150          27.400    22572024.407 3         0.00000       227.150          24.900  
G29  20640700.531 3    186632.99602     -1065.780          36.200           0.000 0         0.00000         0.000           0.000  
R10  22522336.814 5         0.00000     -1162.574          28.300  
R18  22516650.033 4    416083.38504     -2316.072          32.500  
R09  23037732.206 3    553050.67602     -3354.004          39.300  
R05  21560922.181 4   -729327.85509      4066.449          32.600  
R20  21583414.412 5         0.00000      2378.472          27.200  
R19  20195635.852 5         0.00000      -378.527          27.100  
R03  22057900.421 5         0.00000     -3027.150          27.800  
R04  19793026.871 3   -135006.11702       684.505          36.400  
E01  25759670.235 4    167808.51409     -1140.468          32.400    25757545.305 3         0.00000      -847.650          26.200  
E07  25626586.376 4    -27532.13008      2377.460          33.400    25624463.243 3         0.00000      1775.150          27.900  
E08  23761460.879 5         0.00000        55.400          25.100    23759337.449 3         0.00000        39.550          26.000  
E13  24552888.387 5         0.00000     -1147.200          27.900    24550758.954 3         0.00000      -856.400          26.100  
E21  26636272.675 5         0.00000     -2812.700          27.800    26634140.555 1         0.00000     -2099.143          36.400  
E26  23524807.709 3   -134100.25905       767.327          36.200    23522682.779 2    -98154.91105       573.241          32.800  
E31  27589995.235 4     -4819.85709      1345.607          30.800    27587872.712 3         0.00000      1003.250          27.600  
E33  27295245.282 5         0.00000      1912.350          25.900    27293120.055 3         0.00000      1424.100          22.300  
> 2021 07 14 20 51 51.4409029  0 25
G05  22259597.489 3    527336.58802     -2925.821          35.900           0.000 0         0.00000         0.000           0.000  
G10  24247591.435 4   -612850.00309      3433.839          30.700    24245245.864 1   -448529.12603      2564.434          35.900  
G13  23388482.490 5         0.00000       935.600          24.700           0.000 0         0.00000         0.000           0.000  
G15  22188758.330 4   -361780.23509      1944.402          35.100           0.000 0         0.00000         0.000           0.000  
G16  23829170.498 4         0.00000      2192.107          29.000           0.000 0         0.00000         0.000           0.000  
G18  20730287.506 3   -149559.63502       817.908          38.700           0.000 0         0.00000         0.000           0.000  
G23  21470135.120 3   -464379.00702      2538.626          38.400           0.000 0         0.00000         0.000           0.000  
G25  24298823.268 5         0.00000     -3604.250          27.400    24296486.387 1    476337.56003     -2689.209          34.900  
G26  22574359.787 5         0.00000       294.800          23.800           0.000 0         0.00000         0.000           0.000  
G29  20640904.681 3    187705.96709     -1072.855          36.200           0.000 0         0.00000         0.000           0.000  
R10  22522569.443 5         0.00000     -1190.300          26.200  
R18  22517111.120 4    418405.17509     -2326.203          30.000  
R09  23038371.966 3    556416.46401     -3370.864          40.400  
R05  21560158.908 4   -733384.41309      4051.294          34.300  
R19  20195682.007 5         0.00000      -382.691          27.300  
R03  22058499.714 4         0.00000     -3030.675          29.900  
R04  19792897.059 3   -135683.36302       677.432          37.300  
E01  25759889.689 4         0.00000     -1155.400          31.600    25757765.963 3         0.00000      -860.950          26.200  
E07  25626134.294 4    -29902.13607      2368.721          34.500    25624013.848 2   -313126.27409      1769.199          30.300  
E08  23761458.767 5         0.00000        64.300          26.000    23759330.242 3         0.00000        37.600          26.300  
E13  24553098.836 5         0.00000     -1140.600          26.600    24550977.501 3         0.00000      -860.500          27.200  
E21  26636803.912 4      7087.63909     -2831.904          29.100    26634677.481 1    375179.78203     -2111.553          38.400  
E26  23524660.499 4   -134859.98006       758.508          35.500    23522539.181 2    -98722.18604       566.819          34.500  
E31  27589751.804 5         0.00000      1335.150          26.000    27587618.184 3         0.00000       997.362          24.000  
E33  27294875.634 5         0.00000      1898.150          26.200    27292760.301 3         0.00000      1417.701          25.600  
> 2021 07 14 20 51 52.4409029  0 25
G05  22260154.814 3    530258.00709     -2918.531          35.800           0.000 0         0.00000         0.000           0.000  
G10  24246934.295 4         0.00000      3422.240          28.200    24244593.209 1   -451090.22903      2557.665          37.200  
G13  23388307.709 4     -1425.60409       934.123          29.600           0.000 0         0.00000         0.000           0.000  
G15  22188388.385 3   -363726.38509      1946.945          35.400           0.000 0         0.00000         0.000           0.000  
G16  23828744.486 5         0.00000      2188.100          23.300           0.000 0         0.00000         0.000           0.000  
G18  20730128.622 3   -150377.67102       817.456          38.900           0.000 0         0.00000         0.000           0.000  
G23  21469654.558 3   -466914.54501      2532.223          39.500           0.000 0         0.00000         0.000           0.000  
G25  24299539.163 5         0.00000     -3611.250          24.000    24297170.802 1    479028.81503     -2693.931          35.100  
G26  22574280.336 5         0.00000       288.650          24.500    22571914.087 3         0.00000       212.750          22.000  
G29  20641110.646 3    188777.78609     -1071.514          37.200           0.000 0         0.00000         0.000           0.000  
R10  22522810.169 5         0.00000     -1190.750          26.400  
R18  22517519.141 5         0.00000     -2309.150          27.700  
R09  23038986.842 3    559792.03202     -3380.077          36.100  
R05  21559417.222 4   -737433.53303      4046.543          35.200  
R19  20195776.745 5         0.00000      -376.890          28.200  
R03  22059073.512 4    539988.65509     -3018.432          30.200  
R04  19792767.247 3   -136362.64502       679.754          37.500  
E01  25760107.642 3    170128.12504     -1160.363          37.200    25757985.417 2    151602.03209      -866.992          30.200  
E07  25625684.602 4    -32271.69206      2369.298          35.200    25623561.468 2   -314895.75005      1770.587          31.700  
E08  23761452.485 4       -76.53609        56.590          28.800    23759318.865 3         0.00000        40.650          26.800  
E13  24553327.574 6         0.00000     -1140.450          22.200    24551193.657 3         0.00000      -854.577          26.900  
E21  26637341.745 4      9919.10109     -2835.604          29.700    26635216.518 1    377294.18802     -2116.913          39.900  
E26  23524516.901 3   -135619.39405       758.964          35.900    23522394.082 1    -99289.19403       567.450          35.300  
E31  27589482.582 5         0.00000      1332.000          25.400    27587364.859 3         0.00000       996.915          24.900  
E33  27294529.980 5         0.00000      1889.800          27.000    27292397.250 3         0.00000      1413.889          23.200  
> 2021 07 14 20 51 53.4409029  0 25
G05  22260703.431 3    533174.59009     -2916.334          35.300           0.000 0         0.00000         0.000           0.000  
G10  24246283.437 4         0.00000      3418.332          28.300    24243941.757 1   -453644.74403      2553.691          36.200  
G13  23388155.700 5         0.00000       937.500          25.500           0.000 0         0.00000         0.000           0.000  
G15  22188018.737 3   -365673.47109      1946.922          36.300           0.000 0         0.00000         0.000           0.000  
G16  23828323.587 6         0.00000      2189.950          20.500           0.000 0         0.00000         0.000           0.000  
G18  20729973.333 3   -151193.72202       815.786          37.600           0.000 0         0.00000         0.000           0.000  
G23  21469171.885 3   -469443.45101      2528.128          39.600           0.000 0         0.00000         0.000           0.000  
G25  24300198.415 5         0.00000     -3613.600          25.000    24297857.328 2    481725.02604     -2696.737          34.700  
G26  22574209.593 5         0.00000       287.437          27.600    22571858.927 3         0.00000       212.600          24.600  
G29  20641313.907 3    189849.60309     -1071.947          37.400           0.000 0         0.00000         0.000           0.000  
R10  22523014.633 5         0.00000     -1193.400          25.100  
R18  22517963.441 4    423045.07209     -2313.842          31.200  
R09  23039630.493 3    563176.78302     -3385.572          38.300  
R05  21558654.543 3   -741477.49702      4043.359          37.100  
R19  20195805.520 5         0.00000      -375.750          28.200  
R03  22059624.834 4    543003.77109     -3017.818          30.100  
R04  19792638.028 3   -137042.47002       679.447          36.500  
E01  25760328.580 3    171292.50204     -1165.034          38.300    25758206.057 2    152471.48509      -870.172          33.500  
E07  25625232.815 3    -34639.74805      2368.031          35.800    25623111.183 2   -316664.08609      1767.798          33.100  
E08  23761434.791 5         0.00000        61.650          28.300    23759307.766 3         0.00000        44.321          28.300  
E21  26637878.374 4     12758.83609     -2840.531          29.600    26635756.742 1    379414.63702     -2121.443          39.400  
E26  23524375.712 4   -136377.49806       758.172          35.700    23522249.874 2    -99855.27404       565.535          34.700  
E31  27589231.369 5         0.00000      1335.000          23.900    27587110.627 3         0.00000       995.574          24.300  
E33  27294160.036 4         0.00000      1889.700          34.300    27292038.403 2         0.00000      1410.843          32.500  
E13         0.000 0         0.00000         0.000           0.000    24551413.407 3         0.00000      -852.991          26.900  
> 2021 07 14 20 51 54.4409029  0 24
G05  22261268.242 3    536094.78302     -2923.022          36.200           0.000 0         0.00000         0.000           0.000  
G10  24245632.596 5         0.00000      3419.472          26.900    24243291.510 1   -456198.93503      2556.551          35.300  
G13  23387965.039 5         0.00000       938.102          26.200           0.000 0         0.00000         0.000           0.000  
G15  22187654.796 4   -367617.22103      1942.861          33.600           0.000 0         0.00000         0.000           0.000  
G18  20729817.729 4   -152007.67709       814.523          34.200           0.000 0         0.00000         0.000           0.000  
G23  21468689.229 3   -471971.09301      2529.487          40.200           0.000 0         0.00000         0.000           0.000  
G25  24300877.141 5         0.00000     -3615.800          23.700    24298545.356 1    484421.77603     -2695.059          35.200  
G26  22574144.242 4    -59623.59309       285.008          30.100    22571802.859 2    -43258.71905       214.760          30.900  
G29  20641517.167 3    190924.20009     -1075.370          36.500           0.000 0         0.00000         0.000           0.000  
R10  22523240.980 4    209179.61003     -1195.161          33.100  
R18  22518408.631 4    425362.16209     -2318.511          31.500  
R09  23040260.045 3    566562.05709     -3382.439          36.700  
R05  21557901.182 3   -745519.82602      4043.475          38.400  
R19  20195905.370 4         0.00000      -381.420          29.600  
R03  22060193.537 4    546027.78509     -3026.451          30.400  
R04  19792522.612 3   -137718.99002       674.838          36.900  
E01  25760551.035 3    172458.08604     -1163.788          39.200    25758428.495 2    153341.90905      -868.940          31.400  
E07  25624784.327 3    -37005.75905      2365.888          36.600    25622662.398 2   -318430.94405      1766.536          32.100  
E08  23761425.193 5         0.00000        56.400          26.800    23759299.076 3         0.00000        39.422          29.000  
E13  24553768.872 6         0.00000     -1148.750          20.100    24551630.453 3         0.00000      -857.180          26.800  
E21  26638418.301 4     15598.85809     -2837.865          31.200    26636297.262 1    381535.50202     -2119.150          39.800  
E26  23524224.907 4   -137133.70608       756.183          33.300    23522105.369 2   -100419.85105       563.689          32.600  
E31  27588987.624 6         0.00000      1325.700          22.400    27586858.802 3         0.00000       993.838          23.800  
E33  27293801.189 4     -4924.69807      1891.272          34.000    27291679.557 2   -130356.86809      1411.008          30.200  
> 2021 07 14 20 51 55.4409029  0 25
G05  22261815.359 3    539021.66002     -2929.372          35.200           0.000 0         0.00000         0.000           0.000  
G10  24244988.927 4   -626535.65409      3427.534          31.300    24242638.261 1   -458757.64403      2561.609          36.100  
G13  23387797.150 5         0.00000       940.972          25.900           0.000 0         0.00000         0.000           0.000  
G15  22187283.647 3   -369558.21909      1939.006          35.200           0.000 0         0.00000         0.000           0.000  
G16  23827520.144 5         0.00000      2187.800          24.300           0.000 0         0.00000         0.000           0.000  
G18  20729664.848 3   -152822.11209       814.614          37.400           0.000 0         0.00000         0.000           0.000  
G23  21468208.965 3   -474502.42301      2533.999          41.000           0.000 0         0.00000         0.000           0.000  
G25  24301580.455 5         0.00000     -3612.147          27.000    24299231.882 1    487115.30603     -2691.340          36.300  
G26  22574092.677 4    -59911.94409       290.196          33.300    22571746.495 2    -43473.13809       215.653          34.100  
G29  20641718.019 3    192001.23609     -1077.318          36.000           0.000 0         0.00000         0.000           0.000  
R10  22523461.027 3    210372.94902     -1191.107          38.700  
R18  22518828.937 4    427684.61309     -2325.746          33.000  
R09  23040911.199 4    569941.19303     -3375.109          35.200  
R05  21557144.191 3   -749564.58109      4046.491          37.300  
R19  20196003.388 4         0.00000      -385.817          29.000  
R03  22060759.255 4    549058.28709     -3033.755          30.000  
R04  19792384.720 3   -138391.47802       671.485          37.900  
E01  25760770.175 3    173619.72504     -1158.759          39.700    25758649.450 2    154209.27505      -864.642          33.000  
E07  25624333.431 3    -39370.68405      2365.218          36.300    25622212.410 2   -320196.93109      1766.113          33.000  
E08  23761412.001 4      -251.75809        47.198          29.800    23759287.070 2    -12344.04409        34.849          29.500  
E21  26638960.322 4     18433.37107     -2831.053          33.900    26636836.299 1    383652.21502     -2113.853          40.200  
E26  23524081.012 4   -137889.11506       756.019          35.200    23521962.381 1   -100986.15509       566.171          37.100  
E31  27588728.611 5         0.00000      1333.000          25.100    27586604.588 2         0.00000       990.124          30.100  
E33  27293441.732 3     -6817.55804      1895.680          36.800    27291318.006 1   -131770.56103      1415.826          37.200  
E13         0.000 0         0.00000         0.000           0.000    24551848.406 3         0.00000      -862.009          24.700  
> 2021 07 14 20 51 56.4409029  0 25
G05  22262372.667 4         0.00000     -2922.350          32.500           0.000 0         0.00000         0.000           0.000  
G10  24244327.285 4   -629971.82809      3440.363          34.000    24241985.012 1   -461323.47803      2569.204          35.000  
G13  23387605.582 5         0.00000       926.100          27.800           0.000 0         0.00000         0.000           0.000  
G15  22186919.705 4   -371498.40009      1943.968          31.100           0.000 0         0.00000         0.000           0.000  
G16  23827077.345 5         0.00000      2195.479          27.600           0.000 0         0.00000         0.000           0.000  
G18  20729509.558 3   -153639.92709       821.679          38.400           0.000 0         0.00000         0.000           0.000  
G23  21467724.198 3   -477041.00101      2542.824          40.200           0.000 0         0.00000         0.000           0.000  
G25  24302264.590 4    678053.17309     -3589.552          31.600    24299917.205 2    489802.86304     -2684.430          34.300  
G26  22574034.515 3    -60206.10109       297.968          36.200    22571690.742 2    -43692.80604       222.623          34.000  
G29  20641925.188 3    193076.46209     -1071.726          37.300           0.000 0         0.00000         0.000           0.000  
R10  22523687.671 3    211560.33502     -1183.494          38.300  
R18  22519269.328 4    430009.62609     -2321.741          33.900  
R09  23041531.467 3    573310.47302     -3364.667          37.700  
R05  21556395.019 4         0.00000      4054.900          35.300  
R19  20196056.157 4         0.00000      -382.245          29.800  
R03  22061327.958 4         0.00000     -3024.956          29.400  
R04  19792270.195 4   -139064.49603       676.347          33.400  
E01  25760990.833 3    174773.90203     -1150.488          40.300    25758869.497 2    155071.01309      -851.644          29.400  
E07  25623881.348 4    -41738.53206      2371.173          34.900    25621759.419 2   -321965.25409      1776.646          31.000  
E08  23761402.107 5         0.00000        51.800          28.700    23759278.083 3         0.00000        42.600          24.000  
E13  24554184.380 6         0.00000     -1141.850          21.100           0.000 0         0.00000         0.000           0.000  
E21  26639496.358 4     21259.07106     -2821.719          34.900    26637373.522 1    385762.16303     -2100.665          38.800  
E26  23523936.211 4   -138648.40006       762.675          35.600    23521817.580 1   -101553.16303       576.159          37.500  
E31  27588471.691 4      -787.81609      1338.435          30.300    27586350.059 2    -17466.67509      1005.821          33.200  
E33  27293078.087 3     -8717.79303      1903.975          39.800    27290956.752 1   -133189.75303      1428.410          35.600  
> 2021 07 14 20 51 57.4409029  0 26
G05  22262931.178 4    544886.76109     -2936.832          32.300           0.000 0         0.00000         0.000           0.000  
G10  24243671.052 3   -633407.11409      3427.370          35.500    24241331.170 2   -463888.74704      2559.337          34.100  
G13  23387417.922 5         0.00000       912.423          27.100           0.000 0         0.00000         0.000           0.000  
G15  22186543.164 4   -373438.84809      1932.109          30.400           0.000 0         0.00000         0.000           0.000  
G16  23826674.419 4   -130853.42009      2181.885          31.200           0.000 0         0.00000         0.000           0.000  
G18  20729359.661 3   -154457.05309       809.793          38.000           0.000 0         0.00000         0.000           0.000  
G23  21467242.729 3   -479578.84901      2530.021          41.000           0.000 0         0.00000         0.000           0.000  
G25  24302943.317 4         0.00000     -3606.650          32.500    24300601.934 2    492490.87005     -2693.703          33.500  
G26  22573980.856 3    -60499.12109       285.306          37.100    22571634.971 2    -43911.60404       213.046          34.200  
G29  20642128.744 3    194152.73209     -1083.590          36.600           0.000 0         0.00000         0.000           0.000  
R10  22523919.409 3    212749.02102     -1196.674          39.900  
R18  22519709.126 4    432335.89709     -2333.361          34.900  
R09  23042170.931 3    576680.45902     -3378.005          36.400  
R05  21555617.960 4   -757634.98009      4042.020          35.700  
R20  21580308.256 4   -428163.19309      2362.377          30.600  
R19  20196117.914 5         0.00000      -392.367          28.400  
R03  22061878.669 5         0.00000     -3039.100          26.900  
R04  19792130.785 4   -139736.03903       663.892          33.700  
E01  25761211.177 3    175928.54903     -1161.871          41.500    25759089.841 2    155933.37909      -868.618          31.100  
E07  25623433.454 3    -44105.57805      2360.076          35.800    25621310.321 2   -323732.89105      1762.181          31.800  
E08  23761393.713 4      -344.43509        39.693          30.000    23759269.097 3         0.00000        29.010          26.200  
E21  26640035.081 4     24085.12709     -2833.434          32.800    26637911.948 1    387872.61103     -2116.087          38.600  
E26  23523796.504 4   -139407.09906       752.039          35.200    23521673.371 1   -102119.70403       561.190          37.000  
E31  27588217.773 5         0.00000      1326.250          28.500    27586096.734 2         0.00000       990.144          30.200  
E33  27292720.428 3    -10617.69504      1892.920          39.000    27290595.200 2   -134608.39504      1412.920          34.600  
E13         0.000 0         0.00000         0.000           0.000    24552286.389 4         0.00000      -858.600          22.100  
> 2021 07 14 20 51 58.4409029  0 26
G05  22263493.302 4    547822.42309     -2931.746          33.600           0.000 0         0.00000         0.000           0.000  
G10  24243022.602 3   -636834.21709      3429.507          35.200    24240679.422 2   -466448.01205      2561.186          33.200  
G13  23387248.829 5         0.00000       918.550          25.500           0.000 0         0.00000         0.000           0.000  
G15  22186162.139 4   -375370.29909      1933.900          29.200           0.000 0         0.00000         0.000           0.000  
G16  23826243.329 4   -133035.46709      2185.188          31.600           0.000 0         0.00000         0.000           0.000  
G18  20729200.759 3   -155267.21509       813.399          37.600           0.000 0         0.00000         0.000           0.000  
G23  21466756.461 2   -482108.72101      2532.495          42.000           0.000 0         0.00000         0.000           0.000  
G25  24303628.046 4    685237.12309     -3604.484          32.100    24301288.757 2    495184.66305     -2691.788          32.100  
G26  22573925.696 3    -60784.25509       287.958          36.400    22571579.514 2    -44124.51704       214.887          34.400  
G29  20642335.599 3    195235.79909     -1079.826          36.600           0.000 0         0.00000         0.000           0.000  
R10  22524135.862 3    213945.87702     -1194.122          39.600  
R18  22520140.827 4    434668.10703     -2328.292          34.700  
R09  23042791.513 3    580058.68002     -3375.816          38.000  
R05  21554878.664 3   -761676.91302      4044.773          36.000  
R20  21579875.054 4   -430525.84609      2366.040          31.100  
R19  20196207.852 5         0.00000      -387.641          27.900  
R03  22062460.267 5         0.00000     -3036.904          28.100  
R04  19792011.181 3   -140400.40602       667.671          35.000  
E01  25761433.615 3    177091.54203     -1161.078          40.600    25759309.592 2    156801.70009      -864.557          31.500  
E07  25622981.668 4    -46465.72506      2362.627          35.700    25620860.332 2   -325495.35409      1767.251          31.900  
E08  23761388.321 4      -384.03209        42.499          29.900    23759261.000 3         0.00000        32.997          26.900  
E13  24554640.075 6         0.00000     -1144.350          20.500    24552507.047 4         0.00000      -859.700          22.100  
E21  26640572.600 4     26919.37409     -2832.304          32.300    26638450.671 1    389988.96903     -2112.876          38.600  
E26  23523652.906 4   -140158.98706       754.511          35.200    23521529.773 1   -102681.28003       565.868          37.100  
E31  27587964.134 5         0.00000      1332.300          27.500    27585842.502 2         0.00000       994.988          30.000  
E33  27292356.189 3    -12509.87204      1894.231          39.100    27290234.557 2   -136021.56405      1417.033          33.600  
> 2021 07 14 20 51 59.4409029  0 26
G05  22264047.312 4    550752.26209     -2929.849          32.300           0.000 0         0.00000         0.000           0.000  
G10  24242366.055 3   -640263.81709      3427.926          35.900    24240026.469 1   -469009.07403      2559.782          36.200  
G13  23387088.148 4     -7927.09209       918.762          29.800           0.000 0         0.00000         0.000           0.000  
G15  22185817.671 4         0.00000      1937.965          28.600           0.000 0         0.00000         0.000           0.000  
G16  23825845.202 4   -135221.71209      2185.095          31.500           0.000 0         0.00000         0.000           0.000  
G18  20729042.171 3   -156081.76709       813.709          36.500           0.000 0         0.00000         0.000           0.000  
G23  21466278.290 2   -484641.51501      2531.272          42.400           0.000 0         0.00000         0.000           0.000  
G25  24304303.770 5         0.00000     -3604.340          26.400    24301976.191 2    497876.06809     -2692.445          33.200  
G26  22573870.518 3    -61072.62609       287.019          36.600    22571526.151 2    -44339.83504       214.312          34.500  
G29  20642538.859 3    196314.32109     -1079.330          36.500           0.000 0         0.00000         0.000           0.000  
R10  22524364.896 3    215139.67901     -1195.370          40.900  
R18  22520580.624 4    436994.42209     -2326.425          34.200  
R09  23043433.367 3    583434.39502     -3377.305          36.900  
R05  21554112.984 4   -765722.18403      4044.007          34.700  
R20  21579430.161 4         0.00000      2366.561          29.700  
R19  20196269.905 5         0.00000      -387.500          26.200  
R03  22063017.593 5         0.00000     -3037.283          28.500  
R04  19791889.762 4   -141069.20703       668.005          34.700  
E01  25761653.976 3    178251.29003     -1161.524          40.100    25759530.232 2    157667.81709      -866.967          30.500  
E07  25622531.679 4    -48830.33206      2363.550          35.000    25620410.343 2   -327261.06605      1765.747          32.400  
E08  23761380.835 4      -429.58509        45.140          30.300    23759252.903 3         0.00000        33.426          27.300  
E21  26641108.636 4     29750.68909     -2833.198          31.000    26638990.302 1    392103.27502     -2114.959          39.400  
E26  23523504.510 4   -140915.78908       755.740          33.700    23521385.582 1   -103246.32603       564.850          36.900  
E31  27587713.514 4     -4780.42109      1329.788          29.200    27585589.177 2    -20447.69909       994.025          30.500  
E33  27291996.436 3    -14405.92505      1894.416          36.100    27289874.210 2   -137437.25005      1414.894          32.100  
E13         0.000 0         0.00000         0.000           0.000    24552729.485 3         0.00000      -862.150          23.300  
> 2021 07 14 20 52 00.4409029  0 25
G05  22264606.731 4         0.00000     -2928.154          29.100           0.000 0         0.00000         0.000           0.000  
G10  24241714.900 3   -643690.74302      3425.963          35.400    24239374.128 1   -471568.07103      2558.279          35.100  
G13  23386910.976 4         0.00000       920.446          28.600           0.000 0         0.00000         0.000           0.000  
G15  22185428.846 5         0.00000      1936.516          27.200           0.000 0         0.00000         0.000           0.000  
G16  23825420.691 4   -137406.75509      2184.938          31.200           0.000 0         0.00000         0.000           0.000  
G18  20728888.383 3   -156894.89002       813.678          36.500           0.000 0         0.00000         0.000           0.000  
G23  21465794.134 2   -487171.94601      2529.755          42.900           0.000 0         0.00000         0.000           0.000  
G25  24305004.083 4         0.00000     -3605.612          28.600    24302660.902 2         0.00000     -2693.323          29.800  
G26  22573821.064 3    -61358.88202       285.656          37.700    22571471.881 2    -44553.62904       213.331          34.600  
G29  20642748.419 3    197393.48602     -1079.127          37.000           0.000 0         0.00000         0.000           0.000  
R10  22524584.350 2    216335.74401     -1196.789          42.600  
R18  22521016.531 4    439320.24603     -2324.978          35.400  
R09  23044059.027 4    586812.97104     -3379.499          32.700  
R05  21553358.716 3   -769765.49902      4042.724          36.900  
R20  21578994.569 4   -435259.91409      2366.626          30.600  
R19  20196351.747 6         0.00000      -385.200          23.700  
R03  22063567.100 5         0.00000     -3034.782          28.300  
R04  19791767.140 4   -141737.23803       668.004          34.900  
E01  25761873.412 3    179413.44803     -1162.987          40.700    25759751.483 2    158535.72005      -868.135          31.500  
E07  25622083.784 4    -51194.04406      2363.713          35.000    25619960.965 2   -329026.17405      1765.291          32.100  
E08  23761370.033 4      -475.62809        47.228          29.100    23759246.900 3         0.00000        34.737          26.500  
E21  26641652.455 4     32584.35909     -2834.348          29.700    26639529.025 1    394219.41803     -2116.125          39.100  
E26  23523361.208 4   -141671.89106       755.914          35.100    23521242.577 1   -103810.93403       565.090          36.500  
E31  27587462.580 4     -6110.55009      1330.092          30.500    27585338.260 2    -21440.91609       994.189          29.200  
E33  27291635.181 4    -16300.08208      1893.872          33.200    27289512.955 3         0.00000      1414.026          27.600  
> 2021 07 14 20 52 01.4409029  0 26
G05  22265170.635 4    556608.95809     -2926.114          30.300           0.000 0         0.00000         0.000           0.000  
G10  24241058.353 4   -647116.34503      3426.381          34.500    24238721.769 2   -474126.22409      2558.707          32.400  
G13  23386716.109 4     -9767.21509       923.154          29.200           0.000 0         0.00000         0.000           0.000  
G15  22185063.386 4         0.00000      1939.224          28.200           0.000 0         0.00000         0.000           0.000  
G16  23825012.670 4   -139591.22109      2185.560          30.900           0.000 0         0.00000         0.000           0.000  
G18  20728735.484 3   -157708.61802       814.883          35.800           0.000 0         0.00000         0.000           0.000  
G23  21465317.464 2   -489701.36501      2530.262          42.800           0.000 0         0.00000         0.000           0.000  
G25  24305685.514 5         0.00000     -3606.107          27.800    24303348.929 1    503262.23803     -2692.606          35.200  
G26  22573759.011 3    -61644.24602       286.212          38.100    22571416.721 2    -44766.73509       213.706          34.100  
G29  20642948.381 3    198472.16302     -1077.343          35.200           0.000 0         0.00000         0.000           0.000  
R10  22524806.788 3    217532.84401     -1196.380          41.900  
R18  22521445.824 4    441644.23303     -2322.225          35.100  
R09  23044696.082 3    590193.03902     -3379.307          39.300  
R05  21552604.744 3   -773808.41902      4043.943          37.500  
R20  21578549.379 4   -437626.93109      2368.413          30.300  
R19  20196421.897 6         0.00000      -384.900          23.100  
R03  22064177.194 4    567249.48704     -3031.557          31.100  
R04  19791635.827 3   -142405.58702       669.626          36.300  
E01  25762094.960 3    180576.70504     -1162.667          37.800    25759973.031 2    159404.43209      -867.768          31.300  
E07  25621631.701 4    -53558.15009      2365.217          34.600    25619511.866 2   -330792.58109      1766.252          32.600  
E08  23761363.140 5         0.00000        49.500          26.300    23759239.117 3         0.00000        36.960          25.800  
E13  24555297.808 6         0.00000     -1145.700          21.500    24553167.486 4         0.00000      -861.300          21.900  
E21  26642191.178 4     35419.15109     -2833.871          30.800    26640068.952 1    396336.38003     -2116.349          37.900  
E26  23523220.298 3   -142428.37805       757.742          36.400    23521098.072 1   -104375.84103       565.932          36.400  
E31  27587208.069 4     -7440.62109      1331.140          29.700    27585083.435 3    -22433.21109       994.358          29.000  
E33  27291277.539 4    -18193.52209      1894.880          34.000    27289155.296 2   -140265.57609      1414.858          30.200  
> 2021 07 14 20 52 02.4409029  0 26
G05  22265726.441 4    559535.30709     -2925.283          30.400           0.000 0         0.00000         0.000           0.000  
G10  24240415.609 4   -650540.86203      3424.831          34.300    24238069.724 2   -476683.47505      2557.517          33.100  
G13  23386547.017 4         0.00000       922.316          29.000           0.000 0         0.00000         0.000           0.000  
G15  22184700.945 5         0.00000      1939.369          28.000           0.000 0         0.00000         0.000           0.000  
G16  23824581.580 4   -141775.51009      2184.776          31.000           0.000 0         0.00000         0.000           0.000  
G18  20728578.100 3   -158522.19802       814.073          35.600           0.000 0         0.00000         0.000           0.000  
G23  21464834.197 2   -492229.73001      2528.640          42.800           0.000 0         0.00000         0.000           0.000  
G25  24306369.649 5         0.00000     -3605.745          28.000    24304033.362 2    505956.01205     -2693.483          32.000  
G26  22573705.038 3    -61928.52302       284.429          38.200    22571363.655 1    -44979.03903       212.543          34.900  
G29  20643163.019 4    199550.90903     -1078.062          33.500           0.000 0         0.00000         0.000           0.000  
R10  22525031.651 3    218731.33702     -1198.242          39.500  
R18  22521901.815 4    443967.33209     -2322.062          35.000  
R09  23045324.743 3    593574.31901     -3381.109          40.600  
R05  21551839.063 3   -777850.46602      4042.511          38.300  
R20  21578102.688 4   -439993.89604      2367.715          31.300  
R19  20196534.625 6         0.00000      -382.600          22.000  
R03  22064726.702 4         0.00000     -3031.816          29.900  
R04  19791516.223 3   -143073.61802       668.574          35.100  
E01  25762317.712 3    181741.30004     -1164.227          38.100    25760194.283 3         0.00000      -869.378          28.000  
E07  25621183.807 4    -55922.31107      2364.709          34.300    25619061.581 2   -332558.04005      1767.591          32.100  
E08  23761348.744 5         0.00000        47.900          27.100    23759227.129 3         0.00000        36.811          28.100  
E13  24555532.548 6         0.00000     -1146.700          22.100    24553384.828 3         0.00000      -858.600          23.600  
E21  26642727.214 4     38255.04209     -2835.622          30.400    26640608.583 1    398454.00103     -2115.715          36.200  
E26  23523076.107 3   -143184.90305       757.295          36.400    23520954.178 2   -104940.82804       567.139          35.100  
E31  27586954.744 4     -8770.34909      1330.324          30.200    27584831.611 3         0.00000       993.482          28.000  
E33  27290912.079 4    -20086.78509      1893.818          30.700    27288794.949 3         0.00000      1414.408          27.600  
> 2021 07 14 20 52 03.4409029  0 25
G05  22266274.762 4    562457.81509     -2920.170          31.100           0.000 0         0.00000         0.000           0.000  
G10  24239758.748 4   -653967.71303      3428.273          34.100    24237417.976 2   -479242.44209      2559.803          34.200  
G13  23386379.739 4    -11614.70009       927.646          29.400           0.000 0         0.00000         0.000           0.000  
G15  22184345.990 5         0.00000      1940.984          26.900           0.000 0         0.00000         0.000           0.000  
G16  23824173.855 4         0.00000      2189.346          29.100           0.000 0         0.00000         0.000           0.000  
G18  20728422.200 3   -159338.77402       818.090          36.200           0.000 0         0.00000         0.000           0.000  
G23  21464350.634 2   -494760.40201      2531.907          42.200           0.000 0         0.00000         0.000           0.000  
G25  24307073.853 4         0.00000     -3602.300          30.000    24304720.482 2    508647.81004     -2690.651          34.400  
G26  22573652.879 3    -62215.22102       287.769          36.700    22571308.495 2    -45193.06804       214.896          33.900  
G29  20643359.090 4    200626.56203     -1074.087          34.600           0.000 0         0.00000         0.000           0.000  
R10  22525257.981 3    219927.42302     -1194.942          39.300  
R18  22522315.525 4    446286.43109     -2317.194          34.700  
R09  23045951.014 3    596953.33501     -3377.683          40.300  
R05  21551088.093 4   -781895.18603      4046.123          35.700  
R20  21577673.989 4   -442364.17009      2372.461          30.100  
R03  22065276.820 4    573312.76609     -3028.678          30.100  
R04  19791387.894 4   -143744.90809       672.247          32.500  
E01  25762536.259 5         0.00000     -1160.350          28.000    25760417.925 3         0.00000      -860.250          24.700  
E07  25620732.020 4    -58289.64606      2368.812          35.000    25618610.702 2   -334325.81405      1773.875          33.200  
E08  23761338.553 5         0.00000        54.050          28.200    23759216.327 3         0.00000        43.650          26.700  
E21  26643270.439 4     41088.37808     -2832.186          33.600    26641147.306 1    400569.75302     -2110.160          39.500  
E26  23522926.209 4   -143944.73508       761.234          33.300    23520809.376 2   -105508.18404       573.221          35.000  
E31  27586703.810 4    -10103.17809      1334.253          30.200    27584576.785 3    -24421.41909       998.957          28.200  
E33  27290554.437 4    -21982.73109      1897.504          30.700    27288433.101 3         0.00000      1416.750          28.000  
E13         0.000 0         0.00000         0.000           0.000    24553603.078 3         0.00000      -845.950          23.900  
> 2021 07 14 20 52 04.4409029  0 26
G05  22266833.291 4         0.00000     -2940.000          34.700           0.000 0         0.00000         0.000           0.000  
G10  24239112.095 4   -657387.47803      3409.075          34.100    24236768.322 2   -481796.22605      2545.863          33.700  
G13  23386202.253 4         0.00000       912.600          29.800           0.000 0         0.00000         0.000           0.000  
G15  22183956.553 4         0.00000      1923.750          32.800           0.000 0         0.00000         0.000           0.000  
G16  23823758.645 4         0.00000      2170.000          33.800           0.000 0         0.00000         0.000           0.000  
G18  20728268.411 4   -160148.96103       799.558          34.700           0.000 0         0.00000         0.000           0.000  
G23  21463875.168 2   -497284.07801      2512.928          43.100           0.000 0         0.00000         0.000           0.000  
G25  24307741.795 4         0.00000     -3621.600          30.700    24305407.305 2    511344.44504     -2704.509          34.100  
G26  22573604.315 4    -62494.72209       268.739          34.100    22571255.743 2    -45401.73705       200.673          33.300  
G29  20643566.852 4    201708.79804     -1092.877          32.900           0.000 0         0.00000         0.000           0.000  
R10  22525485.828 3    221131.02602     -1214.639          36.700  
R18  22522753.822 4    448611.68903     -2335.845          35.200  
R09  23046597.074 3    600339.52801     -3397.090          40.500  
R05  21550338.013 3   -785933.08802      4026.893          37.200  
R20  21577222.796 4         0.00000      2352.000          31.300  
R19  20196643.759 6         0.00000      -386.250          21.100  
R03  22065867.719 5         0.00000     -3038.479          28.100  
R04  19791261.694 3   -144408.47502       652.909          36.600  
E01  25762760.808 5         0.00000     -1181.450          27.800    25760639.769 3         0.00000      -871.500          23.400  
E07  25620285.940 3    -60650.65204      2351.205          37.300    25618161.603 2   -336088.87405      1754.160          32.100  
E08  23761331.660 5         0.00000        35.250          28.600    23759210.324 3         0.00000        24.900          29.100  
E13  24555949.556 6         0.00000     -1158.400          21.700    24553821.939 3         0.00000      -869.450          28.700  
E21  26643809.459 4     43928.47306     -2849.994          35.400    26641688.140 1    402690.72503     -2129.452          38.800  
E26  23522787.707 4   -144698.05409       742.796          33.000    23520666.965 1   -106070.87903       554.235          35.900  
E31  27586450.485 4    -11429.39309      1316.343          30.700    27584323.757 2    -25414.71909       980.862          30.300  
E33  27290192.886 4    -23872.02109      1879.039          31.700    27288073.051 2   -144498.14309      1402.849          29.200  
> 2021 07 14 20 52 05.4409029  0 25
G05  22267392.990 4    568286.56309     -2938.906          34.300           0.000 0         0.00000         0.000           0.000  
G10  24238461.848 4   -660796.30909      3413.400          33.400    24236119.872 2   -484342.09805      2549.255          32.500  
G13  23386032.584 4    -13450.88009       907.961          31.100           0.000 0         0.00000         0.000           0.000  
G15  22183595.299 4   -388928.26109      1925.388          33.300           0.000 0         0.00000         0.000           0.000  
G16  23823348.233 4         0.00000      2169.800          31.700           0.000 0         0.00000         0.000           0.000  
G18  20728122.109 4   -160948.08309       800.609          30.400           0.000 0         0.00000         0.000           0.000  
G23  21463394.886 2   -499796.83201      2516.600          43.800           0.000 0         0.00000         0.000           0.000  
G25  24308436.104 4         0.00000     -3618.158          28.900    24306096.536 1    514048.94503     -2701.264          35.200  
G26  22573559.346 4         0.00000       271.403          29.000    22571203.863 2    -45601.98109       202.924          32.000  
G29  20643778.505 4         0.00000     -1093.417          28.200           0.000 0         0.00000         0.000           0.000  
R10  22525719.068 4    222346.19609     -1211.744          33.800  
R18  22523203.497 4    450947.12609     -2333.786          34.700  
R09  23047229.627 3    603736.36001     -3392.413          41.900  
R05  21549584.931 3   -789959.68702      4030.135          38.800  
R20  21576761.412 5         0.00000      2355.687          27.800  
R03  22066443.611 5         0.00000     -3051.049          27.800  
R04  19791139.682 3   -145060.08302       653.662          36.400  
E01  25762984.450 4    185252.68306     -1176.918          34.900    25760864.615 2         0.00000      -877.400          29.200  
E07  25619833.858 4    -63000.30606      2351.992          35.100    25617715.209 2   -337843.54105      1756.552          32.900  
E08  23761331.957 5         0.00000        39.200          26.200    23759199.837 3         0.00000        26.131          26.900  
E13  24556164.508 5         0.00000     -1157.150          25.200    24554041.986 2         0.00000      -866.969          29.700  
E21  26644353.888 4     46779.14607     -2846.554          34.100    26642229.865 1    404819.42603     -2125.492          38.800  
E26  23522644.109 4   -145440.50509       744.305          31.300    23520526.072 2   -106625.19309       556.105          33.700  
E31  27586187.562 5         0.00000      1319.050          27.400    27584074.934 3         0.00000       983.428          28.800  
E33  27289831.335 5         0.00000      1880.450          26.800    27287715.705 3         0.00000      1406.089          25.000  
> 2021 07 14 20 52 06.4409029  0 25
G05  22267956.911 4    571224.52703     -2939.057          34.600           0.000 0         0.00000         0.000           0.000  
G10  24237810.100 4   -664214.73203      3422.169          34.000    24235468.717 2   -486895.11304      2555.642          33.900  
G13  23385855.395 5         0.00000       909.066          27.600           0.000 0         0.00000         0.000           0.000  
G15  22183226.855 4   -390855.46509      1927.121          34.000           0.000 0         0.00000         0.000           0.000  
G16  23822928.224 5         0.00000      2175.300          24.800           0.000 0         0.00000         0.000           0.000  
G18  20727967.709 4   -161751.53904       806.567          32.100           0.000 0         0.00000         0.000           0.000  
G23  21462916.715 2   -502317.67101      2523.358          43.500           0.000 0         0.00000         0.000           0.000  
G25  24309124.742 5         0.00000     -3612.850          25.500    24306783.656 2    516746.95005     -2695.905          33.800  
G26  22573495.478 3    -63038.28609       277.207          36.100    22571152.315 1    -45807.57309       207.081          35.700  
G29  20643979.654 4         0.00000     -1088.703          28.800           0.000 0         0.00000         0.000           0.000  
R10  22525936.724 4    223554.26709     -1205.885          33.500  
R18  22523619.318 4    453281.46709     -2334.605          32.900  
R09  23047855.287 2    607123.69301     -3383.959          43.100  
R05  21548817.750 3   -793993.78601      4036.113          40.400  
R20  21576359.394 5         0.00000      2360.194          26.500  
R03  22067001.826 5         0.00000     -3038.050          25.800  
R04  19791017.949 3   -145715.57802       655.478          35.700  
E01  25763205.702 3    186424.53304     -1169.867          38.200    25761086.163 2    163745.29705      -872.850          32.900  
E07  25619387.760 4    -65355.72906      2356.229          35.200    25617266.425 2   -339602.46505      1759.869          33.100  
E08  23761318.171 4       -31.95109        34.359          29.500    23759195.038 3    -12687.13909        26.464          28.600  
E13  24556392.949 6         0.00000     -1156.500          21.500    24554264.127 2         0.00000      -865.945          32.500  
E21  26644894.112 4     49620.67208     -2838.379          32.300    26642770.682 1    406941.18703     -2119.448          38.700  
E26  23522509.795 4   -146188.83209       749.162          29.000    23520383.974 2   -107184.02609       558.505          29.300  
E31  27585955.823 6         0.00000      1322.300          23.100    27583823.407 3         0.00000       985.755          23.900  
E33  27289475.786 4    -27636.05609      1888.420          30.400    27287357.138 3   -147309.74309      1410.176          28.900  
> 2021 07 14 20 52 07.4409029  0 22
G05  22268514.812 4    574166.23403     -2942.388          33.500           0.000 0         0.00000         0.000           0.000  
G10  24237152.959 3   -667639.55402      3429.748          35.200    24234816.969 2   -489452.72605      2561.407          33.600  
G15  22182868.009 4   -392781.70804      1926.769          32.600           0.000 0         0.00000         0.000           0.000  
G18  20727812.420 4   -162557.95203       808.036          34.700           0.000 0         0.00000         0.000           0.000  
G23  21462434.356 2   -504842.74701      2528.776          43.400           0.000 0         0.00000         0.000           0.000  
G25  24309799.874 5         0.00000     -3607.600          23.500    24307470.182 1    519441.24003     -2691.280          35.700  
G26  22573440.929 4    -63316.44609       281.947          33.200    22571099.842 2    -46015.44909       209.688          31.000  
G29  20644174.835 4         0.00000     -1088.522          28.500           0.000 0         0.00000         0.000           0.000  
R10  22526169.650 5         0.00000     -1201.748          27.700  
R18  22524055.207 4    455617.87309     -2337.643          32.800  
R09  23048498.641 2    610504.86201     -3376.175          44.000  
R05  21548069.781 3   -798031.05602      4040.405          39.100  
R20  21575904.013 5         0.00000      2361.288          28.100  
R03  22067598.118 6         0.00000     -3028.000          22.900  
R04  19790912.725 3   -146369.35102       654.188          35.100  
E01  25763428.140 3    187592.32904     -1164.828          36.800    25761307.415 2    164617.18509      -867.174          29.400  
E07  25618937.772 4    -67711.82406      2357.411          35.200    25616819.141 2   -341361.84605      1762.350          33.600  
E08  23761319.375 5         0.00000        34.600          27.300    23759188.145 2         0.00000        23.816          29.500  
E13  24556622.297 6         0.00000     -1163.500          23.700    24554486.268 2         0.00000      -866.436          32.000  
E21  26645428.944 4     52456.24609     -2832.087          30.400    26643310.313 1    409058.69303     -2112.489          38.400  
E26  23522359.304 4   -146937.16909       750.410          33.500    23520240.673 1   -107743.72803       562.514          36.000  
E33  27289109.733 6         0.00000      1900.500          23.000           0.000 0         0.00000         0.000           0.000  
> 2021 07 14 20 52 08.4409029  0 22
G05  22269073.027 4    577110.82809     -2947.847          32.200           0.000 0         0.00000         0.000           0.000  
G10  24236507.214 4   -671073.37204      3435.802          33.000    24234163.737 2   -492016.81205      2565.693          33.500  
G15  22182498.064 4   -394707.99203      1924.494          34.800           0.000 0         0.00000         0.000           0.000  
G18  20727661.022 4   -163367.11903       808.554          34.100           0.000 0         0.00000         0.000           0.000  
G23  21461953.794 2   -507374.57001      2532.721          43.500           0.000 0         0.00000         0.000           0.000  
G26  22573392.661 4    -63600.57709       283.496          33.300    22571045.590 2    -46225.73909       210.207          30.900  
G29  20644395.772 4    206072.05109     -1089.517          30.000           0.000 0         0.00000         0.000           0.000  
R10  22526395.700 4    225956.51209     -1197.158          34.800  
R18  22524503.398 4    457956.33809     -2341.111          30.200  
R09  23049125.523 2    613877.09101     -3370.399          43.400  
R05  21547314.902 3   -802074.00802      4043.300          39.300  
R20  21575463.604 6         0.00000      2363.300          23.400  
R03  22068164.430 5         0.00000     -3048.700          26.000  
R04  19790772.128 4   -147023.08109       651.598          33.600  
E01  25763651.485 3    188752.99504     -1160.089          38.200    25761529.259 2    165484.08109      -866.452          30.600  
E07  25618489.580 4    -70070.67206      2358.176          35.200    25616369.152 2   -343123.24405      1761.088          32.200  
E08  23761310.981 5         0.00000        28.250          28.600    23759183.346 3         0.00000        19.707          28.700  
E13  24556831.543 5         0.00000     -1161.450          24.500    24554706.926 2         0.00000      -870.433          31.800  
E21  26645964.072 4     55283.18009     -2825.253          30.100    26643848.442 1    411169.89403     -2109.681          38.200  
E26  23522217.207 4   -147689.23507       751.160          34.100    23520097.372 1   -108305.22703       561.116          36.200  
E33  27288758.670 4     -1134.56909      1896.671          30.500    27286636.147 3         0.00000      1418.000          24.600  
G25         0.000 0         0.00000         0.000           0.000    24308155.801 1    522130.05903     -2687.805          36.400  
> 2021 07 14 20 52 09.4409029  0 24
G05  22269632.149 4    580056.41609     -2945.330          31.300           0.000 0         0.00000         0.000           0.000  
G10  24235853.058 4   -674516.13604      3447.051          32.400    24233507.190 2   -494587.72005      2573.874          31.300  
G15  22182127.230 4   -396636.59409      1929.766          33.100           0.000 0         0.00000         0.000           0.000  
G16  23821694.267 5         0.00000      2185.317          26.000           0.000 0         0.00000         0.000           0.000  
G18  20727501.841 4   -164180.32403       815.333          33.600           0.000 0         0.00000         0.000           0.000  
G23  21461469.621 2   -509913.66201      2542.463          42.900           0.000 0         0.00000         0.000           0.000  
G25  24311222.677 6         0.00000     -3599.050          20.000    24308838.733 1    524812.94303     -2680.202          36.300  
G26  22573336.890 4    -63889.51609       291.625          34.700    22570990.115 1    -46441.65609       217.771          35.400  
G29  20644608.333 5         0.00000     -1082.543          27.500           0.000 0         0.00000         0.000           0.000  
R10  22526615.154 3    227150.45809     -1191.170          40.300  
R18  22524944.697 5         0.00000     -2337.149          27.500  
R09  23049758.373 2    617240.25501     -3359.050          42.000  
R05  21546556.132 3   -806123.35502      4052.342          37.900  
R20  21575035.201 5         0.00000      2369.400          28.800  
R03  22068684.272 5         0.00000     -3049.700          26.500  
R04  19790636.034 4   -147678.70109       655.837          30.400  
E01  25763873.033 3    189906.66004     -1150.111          37.800    25761748.696 2    166345.67309      -857.550          33.100  
E07  25618040.499 3    -72433.18604      2364.814          36.900    25615919.756 2   -344887.43509      1767.381          33.200  
E08  23761300.791 5         0.00000        28.950          27.700    23759176.750 3         0.00000        22.684          28.600  
E13  24557064.782 6         0.00000     -1160.250          23.200    24554927.567 2         0.00000      -867.059          32.300  
E21  26646507.594 5         0.00000     -2816.000          28.700    26644384.775 1         0.00000     -2099.983          38.000  
E26  23522071.498 4   -148445.18108       758.293          33.200    23519953.163 1   -108869.65703       567.075          35.800  
E31  27585195.256 6         0.00000      1329.300          20.700           0.000 0         0.00000         0.000           0.000  
E33  27288394.728 4     -3038.43106      1907.095          35.300    27286273.096 2   -151552.37409      1426.374          30.800  
> 2021 07 14 20 52 10.4409029  0 24
G05  22270190.661 4    583004.19309     -2947.616          32.500           0.000 0         0.00000         0.000           0.000  
G10  24235193.509 4   -677962.11504      3444.615          31.200    24232851.830 2   -497160.96805      2572.437          33.200  
G15  22181754.580 4   -398563.53109      1926.585          34.900           0.000 0         0.00000         0.000           0.000  
G16  23821286.560 5         0.00000      2182.310          27.600           0.000 0         0.00000         0.000           0.000  
G18  20727342.956 4   -164994.13803       813.412          33.700           0.000 0         0.00000         0.000           0.000  
G23  21460986.965 2   -512454.84501      2540.143          42.900           0.000 0         0.00000         0.000           0.000  
G25  24311858.842 5         0.00000     -3590.700          24.800    24309522.851 1    527493.87203     -2681.745          35.300  
G26  22573273.633 3    -64179.75009       289.155          35.600    22570935.566 1    -46658.37203       215.945          36.000  
G29  20644796.900 5         0.00000     -1088.446          27.000           0.000 0         0.00000         0.000           0.000  
R10  22526840.593 3    228343.74602     -1193.779          39.200  
R18  22525370.116 4         0.00000     -2340.364          29.300  
R09  23050388.238 3    620600.13901     -3361.126          40.200  
R05  21545797.641 3   -810174.16302      4049.909          38.500  
R20  21574581.321 4   -458898.61807      2367.190          30.400  
R03  22069309.932 5         0.00000     -3051.750          26.200  
R04  19790532.292 4   -148332.13403       653.251          34.400  
E01  25764090.079 3    191058.18404     -1152.383          38.600    25761968.150 2    167205.56605      -857.980          32.400  
E07  25617592.307 3    -74795.97404      2362.228          37.000    25615470.064 2   -346651.86705      1766.988          33.700  
E08  23761296.288 5         0.00000        25.100          27.200    23759173.452 2         0.00000        20.900          29.600  
E21  26647036.126 4     60917.00309     -2816.306          29.800    26644920.793 1    415376.98603     -2100.509          38.800  
E26  23521933.292 4   -149201.56007       756.165          34.700    23519809.566 2   -109434.53004       566.858          35.000  
E31  27584946.136 5         0.00000      1321.450          26.000    27582814.906 3         0.00000       989.150          22.400  
E33  27288034.084 3     -4944.58404      1905.525          39.300    27285910.951 1   -152975.75003      1425.103          36.500  
E13         0.000 0         0.00000         0.000           0.000    24555150.022 2         0.00000      -866.632          31.800  
> 2021 07 14 20 52 11.4409029  0 25
G05  22270748.876 4    585957.02209     -2952.106          31.100           0.000 0         0.00000         0.000           0.000  
G10  24234541.168 4   -681399.05304      3432.550          32.700    24232198.581 2   -499727.56804      2563.471          34.400  
G15  22181392.733 4   -400483.98809      1919.693          34.400           0.000 0         0.00000         0.000           0.000  
G16  23820855.749 4         0.00000      2173.137          28.300           0.000 0         0.00000         0.000           0.000  
G18  20727199.655 4   -165800.98203       805.046          34.500           0.000 0         0.00000         0.000           0.000  
G20  24963655.013 5         0.00000     -3420.150          24.300           0.000 0         0.00000         0.000           0.000  
G23  21460503.088 2   -514987.39101      2529.055          42.900           0.000 0         0.00000         0.000           0.000  
G25  24312550.464 5         0.00000     -3606.150          25.800    24310208.488 1    530181.02503     -2689.674          36.000  
G26  22573224.476 3    -64461.85509       279.178          36.600    22570881.889 1    -46869.01403       208.449          36.400  
G29  20645018.745 4    209337.11809     -1094.174          30.400           0.000 0         0.00000         0.000           0.000  
R10  22527063.939 3    229544.85202     -1204.140          39.800  
R18  22525814.102 4    464980.68309     -2346.508          31.200  
R09  23051019.605 3    623969.09401     -3373.105          40.800  
R05  21545040.668 3   -814216.65402      4039.392          39.500  
R20  21574135.835 4   -461259.85809      2359.176          31.000  
R03  22069862.440 5         0.00000     -3057.300          25.300  
R04  19790410.577 3   -148979.01802       645.638          36.900  
E01  25764310.423 3    192218.22304     -1163.236          38.400    25762188.197 2    168071.80405      -868.928          32.500  
E07  25617146.803 3    -77151.77305      2354.171          36.400    25615021.576 2   -348410.99905      1757.460          33.900  
E08  23761296.288 5         0.00000        21.650          27.100    23759168.967 2         0.00000        16.410          29.300  
E13  24557489.294 6         0.00000     -1171.750          20.000    24555372.460 2         0.00000      -874.076          31.000  
E21  26647576.664 4     63741.16409     -2827.534          29.900    26645458.626 1    417485.95502     -2111.984          39.500  
E26  23521788.804 4   -149951.29907       748.181          34.400    23519667.468 1   -109994.37803       558.166          35.200  
E31  27584684.104 4      -760.05906      1317.557          34.800    27582563.676 2    -32310.30804       983.691          34.200  
E33  27287671.329 3     -6843.03504      1895.544          38.300    27285548.196 2   -154393.34105      1414.536          32.700  
> 2021 07 14 20 52 12.4409029  0 26
G05  22271316.078 4    588904.99609     -2942.599          32.000           0.000 0         0.00000         0.000           0.000  
G10  24233879.822 4   -684827.56103      3424.717          33.400    24231546.239 1   -502287.82003      2557.403          35.200  
G13  23384830.404 5         0.00000       902.062          26.500           0.000 0         0.00000         0.000           0.000  
G15  22181035.684 4   -402404.99109      1924.453          32.700           0.000 0         0.00000         0.000           0.000  
G16  23820441.742 4     -7572.90604      2173.142          31.900           0.000 0         0.00000         0.000           0.000  
G18  20727044.052 3   -166605.80102       805.457          35.300           0.000 0         0.00000         0.000           0.000  
G20  24964278.579 5         0.00000     -3411.151          26.100           0.000 0         0.00000         0.000           0.000  
G23  21460021.322 2   -517513.33101      2523.451          42.800           0.000 0         0.00000         0.000           0.000  
G25  24313231.599 4    735757.58909     -3605.892          29.400    24310893.217 1    532872.91803     -2693.784          35.500  
G26  22573169.316 3    -64738.87902       275.591          36.500    22570828.823 1    -47075.89803       205.757          36.700  
G29  20645223.209 4    210430.76804     -1091.190          32.800           0.000 0         0.00000         0.000           0.000  
R10  22527281.578 4    230751.70304     -1208.350          32.600  
R18  22526274.281 4    467323.39904     -2337.187          32.100  
R09  23051650.674 2    627346.79101     -3381.703          43.400  
R05  21544288.790 3   -818254.08702      4036.041          39.800  
R20  21573690.941 4   -463618.68104      2360.335          32.100  
R03  22070409.260 5         0.00000     -3029.050          24.100  
R04  19790299.960 3   -149626.23602       649.677          38.100  
E01  25764531.971 3    193385.02104     -1168.973          38.900    25762410.652 2    168943.07605      -873.731          31.800  
E07  25616696.221 3    -79506.14705      2355.545          36.400    25614573.699 2   -350169.24505      1758.730          33.900  
E08  23761292.990 5         0.00000        29.650          28.200    23759164.168 2         0.00000        22.717          30.800  
E21  26648113.886 4     66573.36309     -2835.021          29.500    26645997.350 1    419600.74802     -2117.721          39.200  
E26  23521646.393 4   -150699.65506       749.373          35.400    23519523.871 2   -110553.27504       559.453          34.600  
E31  27584439.487 4     -2077.95206      1319.323          35.000    27582313.352 2    -33294.72404       984.592          35.000  
E33  27287320.580 4     -8735.59909      1882.392          29.000    27285189.943 3         0.00000      1411.150          27.700  
E13         0.000 0         0.00000         0.000           0.000    24555595.212 2         0.00000      -868.016          29.400  
> 2021 07 14 20 52 13.4409029  0 27
G05  22271873.385 4    591843.27109     -2936.789          31.600           0.000 0         0.00000         0.000           0.000  
G10  24233243.657 3   -688246.75702      3414.173          35.900    24230895.695 2   -504841.10709      2549.660          34.200  
G13  23384652.028 5         0.00000       911.100          25.100           0.000 0         0.00000         0.000           0.000  
G15  22180663.942 4   -404330.67403      1925.417          34.200           0.000 0         0.00000         0.000           0.000  
G16  23820041.522 4     -9745.78809      2170.280          29.200           0.000 0         0.00000         0.000           0.000  
G18  20726890.263 3   -167410.46202       802.929          35.300           0.000 0         0.00000         0.000           0.000  
G20  24964936.330 5         0.00000     -3403.279          27.500           0.000 0         0.00000         0.000           0.000  
G23  21459544.356 2   -520032.61501      2515.295          42.900           0.000 0         0.00000         0.000           0.000  
G25  24313916.014 4         0.00000     -3615.177          29.000    24311580.633 1    535569.51303     -2699.497          35.000  
G26  22573124.940 4    -65011.35303       269.293          33.600    22570777.275 2    -47279.45004       201.146          34.500  
G29  20645431.565 4    211521.49703     -1091.763          33.800           0.000 0         0.00000         0.000           0.000  
R10  22527521.117 5         0.00000     -1214.242          26.600  
R18  22526699.683 4    469656.00909     -2331.853          33.100  
R09  23052289.527 2    630734.20401     -3392.393          42.500  
R05  21543528.519 3   -822287.16302      4029.917          39.700  
R20  21573249.050 4   -465978.52804      2358.237          31.300  
R19  20197341.663 6         0.00000      -392.400          21.900  
R03  22071013.352 5         0.00000     -3032.682          28.200  
R04  19790169.241 3   -150277.02002       650.038          38.800  
E01  25764755.927 3    194558.37304     -1176.862          38.700    25762633.998 2    169819.27709      -879.606          32.200  
E07  25616249.234 3    -81861.49404      2354.120          36.800    25614125.508 2   -351928.10505      1757.605          34.000  
E08  23761282.206 4      -232.23909        35.479          29.200    23759158.166 2    -12836.82409        27.078          29.500  
E13  24557948.583 6         0.00000     -1155.100          22.700    24555813.759 3         0.00000      -863.744          28.500  
E21  26648658.002 4     69413.76309     -2844.372          31.400    26646537.870 1    421721.82503     -2124.811          38.700  
E26  23521502.795 3   -151448.84405       747.871          36.400    23519381.163 1   -111112.79903       558.239          35.200  
E31  27584185.255 4     -3396.77408      1317.345          32.400    27582063.326 2    -34279.62405       983.382          31.800  
E33  27286953.933 5         0.00000      1885.750          28.700    27284829.300 3         0.00000      1407.599          26.500  
> 2021 07 14 20 52 14.4409029  0 26
G05  22272434.898 4         0.00000     -2936.810          29.100           0.000 0         0.00000         0.000           0.000  
G10  24232592.223 4   -691661.17803      3415.268          33.700    24230246.041 2   -507390.89909      2550.314          34.400  
G13  23384490.439 5         0.00000       908.668          26.400           0.000 0         0.00000         0.000           0.000  
G15  22180301.187 3   -406256.72302      1924.954          36.000           0.000 0         0.00000         0.000           0.000  
G16  23819608.913 5         0.00000      2170.200          23.700           0.000 0         0.00000         0.000           0.000  
G18  20726735.567 3   -168214.42402       804.021          36.500           0.000 0         0.00000         0.000           0.000  
G20  24965613.259 5         0.00000     -3401.467          27.500           0.000 0         0.00000         0.000           0.000  
G23  21459064.091 2   -522548.14201      2515.776          41.800           0.000 0         0.00000         0.000           0.000  
G25  24314613.638 5         0.00000     -3615.123          27.500    24312268.364 2    538268.82104     -2698.910          34.100  
G26  22573070.077 3    -65281.27802       270.422          35.600    22570726.303 2    -47480.90704       201.705          34.500  
G29  20645636.011 4    212612.52804     -1091.660          31.600           0.000 0         0.00000         0.000           0.000  
R10  22527757.655 4    233176.59103     -1213.608          35.700  
R18  22527131.087 4         0.00000     -2330.950          35.000  
R09  23052913.389 3    634126.35501     -3391.170          41.700  
R05  21542777.235 3   -826317.20602      4029.580          37.700  
R20  21572778.068 4         0.00000      2359.789          29.900  
R03  22071563.174 5         0.00000     -3045.971          28.200  
R04  19790048.433 3   -150927.70101       649.627          40.100  
E01  25764982.273 3    195735.43804     -1176.885          38.500    25762858.233 2    170698.11005      -877.618          31.800  
E07  25615796.837 4    -84215.98407      2353.568          33.800    25613677.020 2   -353686.31105      1757.887          32.000  
E08  23761275.296 4      -269.08109        35.302          32.000    23759149.772 2    -12864.34209        26.923          30.100  
E13  24558168.317 6         0.00000     -1150.700          22.600    24556033.509 3         0.00000      -863.758          27.000  
E21  26649200.337 4     72258.43609     -2844.210          30.500    26647079.298 1    423846.11102     -2123.288          39.600  
E26  23521356.492 4   -152197.72508       748.512          33.100    23519239.362 1   -111672.04503       559.773          35.500  
E31  27583927.742 5         0.00000      1318.350          26.500           0.000 0         0.00000         0.000           0.000  
E33  27286593.569 4    -12466.94707      1886.377          34.700    27284471.343 2   -158618.30104      1409.467          34.500  
> 2021 07 14 20 52 15.4409029  0 27
G05  22272993.113 4    597715.99609     -2936.832          33.600           0.000 0         0.00000         0.000           0.000  
G10  24231939.567 4   -695077.47009      3417.324          32.100    24229595.497 1   -509942.27703      2552.926          37.900  
G13  23384312.377 4     -3195.26409       906.032          31.500           0.000 0         0.00000         0.000           0.000  
G15  22179938.431 3   -408180.83109      1922.877          35.700           0.000 0         0.00000         0.000           0.000  
G16  23819208.396 6         0.00000      2170.950          23.000           0.000 0         0.00000         0.000           0.000  
G18  20726579.387 3   -169019.22602       807.307          36.500           0.000 0         0.00000         0.000           0.000  
G20  24966278.496 5         0.00000     -3390.950          24.800           0.000 0         0.00000         0.000           0.000  
G23  21458589.515 3   -525064.87001      2518.195          40.200           0.000 0         0.00000         0.000           0.000  
G25  24315297.163 4    746598.58109     -3613.686          29.600    24312955.187 2    540967.42905     -2698.364          33.200  
G26  22573016.714 3    -65553.11702       275.201          36.400    22570674.738 1    -47683.83703       205.544          35.300  
G29  20645842.866 4    213704.21309     -1092.054          33.200           0.000 0         0.00000         0.000           0.000  
R10  22527975.294 3    234388.52402     -1208.659          39.100  
R18  22527575.980 4         0.00000     -2335.150          32.400  
R09  23053558.856 3    637515.12309     -3386.334          37.200  
R05  21542020.262 5         0.00000      4027.900          27.200  
R20  21572364.062 5         0.00000      2364.856          27.600  
R19  20197466.379 6         0.00000      -390.450          21.900  
R03  22072135.174 4    609893.76909     -3046.270          32.000  
R04  19789927.311 3   -151576.78809       648.684          35.800  
E01  25765203.507 3    196910.19004     -1172.571          36.800    25763081.578 2    171575.20709      -873.275          29.300  
E07  25615347.756 4    -86569.18609      2352.483          32.700    25613229.125 2   -355443.44809      1758.287          30.700  
E08  23761268.403 4      -303.23109        33.087          32.400    23759144.973 3         0.00000        25.170          27.900  
E13  24558380.581 5         0.00000     -1156.450          26.000    24556253.242 3         0.00000      -864.521          25.000  
E21  26649742.655 4     75101.46309     -2842.388          31.600    26647619.836 1    425969.03103     -2120.024          39.100  
E26  23521218.898 4   -152947.60309       751.777          34.600    23519097.265 2   -112232.02804       563.265          35.100  
E31  27583678.308 5         0.00000      1322.850          24.900    27581561.475 4         0.00000       987.450          21.500  
E33  27286233.833 3    -14355.78404      1891.763          37.500    27284112.794 2   -160028.80705      1414.611          33.000  
> 2021 07 14 20 52 16.4409029  0 27
G05  22273555.237 3    600652.25909     -2931.814          35.900           0.000 0         0.00000         0.000           0.000  
G10  24231287.226 4   -698495.90709      3418.210          31.400    24228946.139 1   -512494.63103      2553.078          36.500  
G13  23384139.393 4     -4099.96609       907.381          32.900           0.000 0         0.00000         0.000           0.000  
G15  22179571.488 4   -410102.32509      1923.198          30.700           0.000 0         0.00000         0.000           0.000  
G16  23818789.591 4    -16264.02209      2186.038          35.000           0.000 0         0.00000         0.000           0.000  
G18  20726428.583 3   -169828.35702       813.510          35.300           0.000 0         0.00000         0.000           0.000  
G20  24966922.444 5         0.00000     -3386.950          23.800           0.000 0         0.00000         0.000           0.000  
G23  21458106.545 3   -527582.16201      2518.483          41.000           0.000 0         0.00000         0.000           0.000  
G25  24315982.486 4         0.00000     -3615.282          29.100    24313645.605 2    543667.36205     -2699.905          32.300  
G26  22572966.649 3    -65830.50102       281.872          37.100    22570622.282 2    -47891.34005       210.335          31.800  
G29  20646058.725 4    214797.70209     -1090.937          33.300           0.000 0         0.00000         0.000           0.000  
R10  22528199.250 4    235594.60903     -1201.535          35.000  
R18  22528019.076 4    476619.63804     -2332.656          32.600  
R09  23054201.896 4    640900.71809     -3383.652          31.200  
R05  21541265.994 3   -834364.56302      4027.023          39.200  
R20  21571890.393 5         0.00000      2377.000          25.600  
R19  20197529.043 5         0.00000      -392.550          24.100  
R03  22072706.878 4         0.00000     -3044.945          29.800  
R04  19789803.798 3   -152223.59302       648.608          36.700  
E01  25765429.854 4    198080.23909     -1168.617          31.500    25763302.533 2    172447.47309      -871.308          30.200  
E07  25614901.362 4    -88918.66109      2350.106          31.700    25612786.622 3         0.00000      1756.973          26.000  
E08  23761259.713 4      -336.04509        35.011          30.400    23759139.878 3         0.00000        26.673          25.100  
E13  24558597.034 4       600.51808     -1155.166          32.900    24556474.197 2         0.00000      -861.360          33.100  
E21  26650281.989 4     77943.28309     -2841.268          31.200    26648160.950 1    428091.61203     -2122.280          35.600  
E26  23521074.096 3   -153702.12705       758.234          35.900    23518952.463 2   -112795.55705       566.788          32.700  
E31  27583429.782 4      -761.36107      1331.684          34.100    27581308.150 2    -37237.60505       996.169          31.200  
E33  27285872.282 4    -16251.28308      1899.197          33.600    27283752.447 3         0.00000      1417.950          27.000  
> 2021 07 14 20 52 17.4409029  0 27
G05  22274122.439 4    603574.82409     -2916.201          29.300           0.000 0         0.00000         0.000           0.000  
G10  24230632.179 4   -701913.67109      3411.731          33.000    24228294.985 2   -515047.67905      2547.506          33.700  
G13  23383964.611 4         0.00000       905.500          31.900           0.000 0         0.00000         0.000           0.000  
G15  22179203.044 4   -412027.35409      1918.013          30.500           0.000 0         0.00000         0.000           0.000  
G16  23818370.175 3    -18455.61009      2190.005          36.200           0.000 0         0.00000         0.000           0.000  
G18  20726270.588 3   -170646.51902       815.135          37.500           0.000 0         0.00000         0.000           0.000  
G20  24967593.981 6         0.00000     -3387.150          21.700           0.000 0         0.00000         0.000           0.000  
G23  21457626.280 2   -530101.96501      2513.394          41.600           0.000 0         0.00000         0.000           0.000  
G25  24316669.012 4    753828.53609     -3623.636          34.100    24314331.835 2         0.00000     -2706.323          29.600  
G26  22572914.194 4    -66116.61309       281.704          32.100    22570568.012 2    -48104.31309       211.075          33.200  
G29  20646274.567 4    215885.72609     -1095.230          32.500           0.000 0         0.00000         0.000           0.000  
R10  22528435.788 4    236791.84509     -1200.978          32.000  
R18  22528458.560 5         0.00000     -2333.400          28.800  
R09  23054827.277 4    644282.20509     -3385.535          32.100  
R05  21540524.307 3   -838391.99902      4019.972          36.800  
R20  21571476.962 5         0.00000      2381.767          28.500  
R19  20197567.416 5         0.00000      -389.230          27.800  
R03  22073278.879 4    615981.69709     -3039.036          30.900  
R04  19789682.380 4         0.00000       649.700          28.800  
E01  25765646.307 3    199243.98005     -1167.361          36.500    25763525.268 1    173316.59803      -874.175          36.000  
E07  25614457.672 4    -91271.31509      2346.682          30.300    25612335.133 3   -358956.21209      1750.447          29.100  
E08  23761252.523 4      -376.71809        38.177          33.400    23759129.390 2    -12944.88205        25.607          33.600  
E13  24558817.674 4      1749.37709     -1151.868          30.300    24556691.243 2    173288.08405      -861.625          31.700  
E21  26650824.010 4     80785.20409     -2848.206          32.700    26648702.081 2    430213.78205     -2129.045          33.900  
E26  23520930.794 4   -154466.90107       762.556          34.200    23518806.161 2   -113366.19005       566.868          32.300  
E31  27583175.550 3     -2100.40004      1338.258          37.200    27581054.232 3    -38237.78509       997.148          28.500  
E33  27285510.120 4    -18155.90409      1902.203          34.500    27283388.487 2         0.00000      1418.450          29.700  
> 2021 07 14 20 52 18.4409029  0 26
G05  22274669.556 4         0.00000     -2925.200          28.800           0.000 0         0.00000         0.000           0.000  
G10  24229990.326 4   -705319.78809      3406.338          32.900    24227647.145 3         0.00000      2544.180          28.100  
G13  23383799.131 4     -5918.63307       906.753          29.500           0.000 0         0.00000         0.000           0.000  
G15  22178837.899 4   -413939.71809      1914.131          33.300           0.000 0         0.00000         0.000           0.000  
G16  23817952.259 4    -20645.70109      2196.322          33.900           0.000 0         0.00000         0.000           0.000  
G18  20726114.095 3   -171460.45302       818.144          38.500           0.000 0         0.00000         0.000           0.000  
G20  24968216.063 6         0.00000     -3381.850          22.900           0.000 0         0.00000         0.000           0.000  
G23  21457152.315 3   -532610.06601      2508.954          40.200           0.000 0         0.00000         0.000           0.000  
G25  24317364.229 3    757458.72602     -3630.848          36.900    24315022.846 2    549078.44405     -2711.404          32.200  
G26  22572861.424 4    -66396.12003       284.784          33.800    22570513.742 1    -48314.14603       212.917          38.600  
G29  20646474.826 4    216984.56909     -1094.872          35.100           0.000 0         0.00000         0.000           0.000  
R10  22528673.826 4         0.00000     -1198.361          29.900  
R18  22528878.883 4    481283.75804     -2336.475          32.700  
R09  23055468.223 4    647674.52709     -3392.257          32.700  
R05  21539770.022 3   -842405.01702      4013.282          36.100  
R20  21571021.896 5         0.00000      2379.100          26.400  
R03  22073841.893 5         0.00000     -3033.069          27.000  
R04  19789556.180 4   -153525.47404       645.068          31.900  
E01  25765870.542 4    200415.23109     -1168.390          33.500    25763747.112 1    174191.17109      -872.455          36.800  
E07  25614011.278 4    -93611.10209      2339.276          29.000    25611889.943 3         0.00000      1746.515          25.200  
E08  23761245.316 5         0.00000        37.550          28.200    23759122.497 2         0.00000        28.041          29.300  
E13  24559038.925 4      2902.23409     -1150.545          33.100    24556910.994 2    174149.38005      -859.015          33.500  
E21  26651366.642 4     83639.68009     -2853.381          32.300    26649245.306 3         0.00000     -2131.446          27.200  
E26  23520782.694 3   -155227.56804       765.048          38.500    23518664.063 3         0.00000       576.050          23.600  
E31  27582921.335 3     -3438.70805      1343.945          35.800           0.000 0         0.00000         0.000           0.000  
E33  27285157.276 5         0.00000      1902.600          28.600    27283026.640 2         0.00000      1421.734          33.600  
> 2021 07 14 20 52 19.4409029  0 27
G05  22275227.178 4    609403.81609     -2922.306          33.000           0.000 0         0.00000         0.000           0.000  
G10  24229338.577 4   -708725.84903      3403.285          35.100    24226999.585 2   -520134.68809      2541.533          30.800  
G13  23383634.244 5         0.00000       910.250          23.300           0.000 0         0.00000         0.000           0.000  
G15  22178474.253 4   -415853.04209      1908.492          33.500           0.000 0         0.00000         0.000           0.000  
G16  23817532.250 4    -22846.96903      2203.595          34.400           0.000 0         0.00000         0.000           0.000  
G18  20725961.807 3   -172282.13901       822.178          41.000           0.000 0         0.00000         0.000           0.000  
G20  24968834.220 5         0.00000     -3380.850          25.200           0.000 0         0.00000         0.000           0.000  
G23  21456675.348 3   -535118.98701      2506.333          40.400           0.000 0         0.00000         0.000           0.000  
G25  24318059.742 4    761091.32409     -3636.833          31.100    24315717.766 3         0.00000     -2716.701          25.100  
G26  22572804.467 4    -66685.08603       289.750          34.100    22570459.193 1    -48529.75402       216.443          39.900  
G29  20646677.196 4    218079.35709     -1097.642          31.400           0.000 0         0.00000         0.000           0.000  
R10  22528883.979 4    239188.46909     -1192.471          31.000  
R18  22529349.551 5         0.00000     -2339.971          28.100  
R09  23056102.295 5         0.00000     -3388.600          24.900  
R05  21539005.842 4   -846416.30309      4006.751          31.400  
R20  21570556.010 5         0.00000      2392.850          26.300  
R19  20197745.181 5         0.00000      -380.300          24.100  
R03  22074398.607 3    622047.42309     -3027.325          40.800  
R04  19789451.548 5         0.00000       642.439          27.400  
E01  25766092.997 4    201580.96807     -1165.270          34.000    25763969.864 1    175061.73103      -870.166          38.100  
E07  25613567.293 5         0.00000      2332.350          27.700           0.000 0         0.00000         0.000           0.000  
E08  23761242.629 5         0.00000        35.350          27.600    23759115.901 3         0.00000        27.959          27.000  
E13  24559252.376 4      4049.98507     -1148.913          34.000    24557129.243 2    175006.61004      -857.794          34.500  
E21  26651911.054 4     86494.07109     -2857.668          29.800    26649790.032 2    434477.78409     -2134.268          29.200  
E26  23520637.596 3   -155996.87404       770.474          38.400    23518521.059 3         0.00000       575.310          23.600  
E31  27582662.915 3     -4788.09504      1352.223          38.500    27580541.579 3         0.00000      1007.050          26.200  
E33  27284784.034 4    -21949.16909      1910.708          29.900    27282663.588 2   -165701.55304      1426.857          34.700  
> 2021 07 14 20 52 20.4409029  0 26
G05  22275780.890 3    612327.45109     -2922.953          38.600           0.000 0         0.00000         0.000           0.000  
G10  24228695.223 3   -712126.09502      3399.280          35.200    24226352.339 3         0.00000      2538.608          26.600  
G13  23383444.769 4     -7736.56209       904.620          30.400           0.000 0         0.00000         0.000           0.000  
G15  22178117.205 3   -417756.66609      1900.401          37.600           0.000 0         0.00000         0.000           0.000  
G16  23817130.232 4    -25053.20904      2211.001          32.300           0.000 0         0.00000         0.000           0.000  
G18  20725803.516 2   -173104.88701       825.148          43.200           0.000 0         0.00000         0.000           0.000  
G23  21456196.880 2   -537622.31301      2502.380          41.400           0.000 0         0.00000         0.000           0.000  
G25  24318746.879 4    764733.51909     -3645.158          32.300    24316408.184 3         0.00000     -2720.650          25.100  
G26  22572746.009 3    -66976.02102       294.192          35.300    22570402.828 1    -48747.09802       219.713          39.400  
G29  20646908.028 5         0.00000     -1104.475          26.500           0.000 0         0.00000         0.000           0.000  
R10  22529088.443 4    240379.57103     -1187.130          33.100  
R18  22529789.645 5         0.00000     -2340.100          24.100  
R09  23056768.125 6         0.00000     -3393.350          22.000  
R05  21538256.966 5         0.00000      3996.566          28.400  
R20  21570152.194 5         0.00000      2394.300          26.200  
R19  20197788.667 5         0.00000      -382.062          27.600  
R03  22074954.728 3    625075.63802     -3026.113          39.900  
R04  19789329.536 4   -154810.27503       636.681          33.000  
E01  25766313.341 4    202746.76608     -1163.813          33.100    25764191.709 1    175932.17303      -868.015          38.600  
E07  25613122.399 4    -98272.44808      2323.882          32.400    25611004.658 3         0.00000      1735.600          24.800  
E08  23761236.033 3      -481.67704        40.838          38.100    23759108.398 2    -13025.21605        25.465          33.300  
E13  24559473.314 4      5201.75206     -1151.861          35.300    24557348.697 2    175866.57005      -859.264          33.700  
E26  23520487.995 3   -156767.68804       773.325          38.600    23518371.458 3         0.00000       578.236          27.600  
E31  27582404.791 3     -6142.66605      1359.169          36.200    27580282.862 2    -41255.13609      1015.952          30.100  
E33  27284429.672 4    -23861.15509      1915.679          30.600    27282300.239 1   -167129.49603      1431.841          35.700  
E21         0.000 0         0.00000         0.000           0.000    26650332.053 2    436615.02609     -2137.505          31.700  
> 2021 07 14 20 52 21.4409029  0 27
G05  22276335.807 3    615250.54409     -2923.203          39.100           0.000 0         0.00000         0.000           0.000  
G10  24228047.069 4   -715523.28109      3395.092          32.900    24225704.482 3         0.00000      2534.250          26.200  
G13  23383276.584 4     -8633.18809       894.278          34.300           0.000 0         0.00000         0.000           0.000  
G15  22177749.057 3   -419652.89009      1892.415          37.000           0.000 0         0.00000         0.000           0.000  
G16  23816694.640 4    -27268.16509      2217.774          31.300           0.000 0         0.00000         0.000           0.000  
G18  20725647.930 2   -173931.50901       827.717          43.900           0.000 0         0.00000         0.000           0.000  
G20  24970120.632 5         0.00000     -3385.950          24.100           0.000 0         0.00000         0.000           0.000  
G23  21455719.303 3   -540122.60201      2498.361          40.300           0.000 0         0.00000         0.000           0.000  
G25  24319439.391 4    768382.80609     -3652.842          33.000           0.000 0         0.00000         0.000           0.000  
G26  22572690.534 3    -67272.45202       298.437          38.900    22570346.464 1    -48968.46702       222.732          39.300  
G29  20647110.694 5         0.00000     -1107.002          26.500           0.000 0         0.00000         0.000           0.000  
R10  22529327.668 4    241563.75704     -1182.086          32.000  
R18  22530179.378 5         0.00000     -2351.123          28.100  
R09  23057380.314 4    657848.18909     -3393.531          33.000  
R05  21537547.352 4   -854409.44907      3988.382          30.800  
R20  21569708.802 5         0.00000      2404.054          27.300  
R19  20197884.295 5         0.00000      -382.425          28.000  
R03  22075529.730 3    628101.25201     -3025.073          40.100  
R04  19789200.911 3   -155444.27502       631.383          35.100  
E01  25766536.093 4    203909.33008     -1162.045          32.700    25764412.663 1    176800.29103      -866.972          38.600  
E07  25612682.898 4   -100591.83608      2315.602          33.700    25610561.266 2   -365924.32609      1729.797          29.700  
E08  23761228.529 3      -512.10004        28.971          38.500    23759103.913 2    -13048.08804        22.276          34.500  
E13  24559694.268 4      6354.55106     -1153.859          35.000    24557567.837 2    176727.49205      -861.341          33.100  
E21  26653008.603 5         0.00000     -2868.350          26.000    26650878.280 2         0.00000     -2141.576          31.000  
E26  23520342.897 3   -157543.16004       776.629          39.000    23518223.062 3   -115656.15709       580.201          28.300  
E31  27582148.169 4     -7506.07809      1366.478          33.500    27580024.739 2    -42273.23305      1021.005          31.800  
E33  27284055.836 4    -25780.28309      1920.863          29.700    27281936.001 1   -168562.40703      1435.025          36.900  
> 2021 07 14 20 52 22.4409029  0 27
G05  22276893.412 3    618173.46309     -2923.014          38.500           0.000 0         0.00000         0.000           0.000  
G10  24227395.618 4         0.00000      3396.050          30.300    24225058.737 3         0.00000      2533.726          24.700  
G13  23383112.901 4     -9525.40609       889.981          33.800           0.000 0         0.00000         0.000           0.000  
G15  22177393.806 3   -421541.66809      1885.214          37.700           0.000 0         0.00000         0.000           0.000  
G16  23816275.834 4    -29490.37509      2226.310          33.600           0.000 0         0.00000         0.000           0.000  
G18  20725490.529 2   -174761.18401       831.204          43.300           0.000 0         0.00000         0.000           0.000  
G20  24970769.693 5         0.00000     -3380.900          24.700           0.000 0         0.00000         0.000           0.000  
G23  21455241.132 3   -542619.41802      2495.593          37.200           0.000 0         0.00000         0.000           0.000  
G25  24320133.421 4    772039.08309     -3659.086          30.800           0.000 0         0.00000         0.000           0.000  
G26  22572635.688 2    -67573.67101       303.862          41.500    22570289.210 1    -49193.40003       226.846          38.400  
G29  20647320.551 4    221395.99609     -1111.187          31.400           0.000 0         0.00000         0.000           0.000  
R10  22529543.824 4    242742.29803     -1175.318          33.900  
R18  22530662.034 4    490669.12907     -2357.248          30.700  
R09  23057990.373 4    661241.45703     -3392.089          33.600  
R05  21536783.190 4   -858393.95304      3980.983          32.600  
R20  21569259.406 5         0.00000      2412.102          27.200  
R19  20197984.424 5         0.00000      -380.000          26.400  
R03  22076091.540 3    631125.11501     -3023.255          40.300  
R04  19789086.996 4   -156073.25603       626.443          33.400  
E01  25766753.732 4    205069.44509     -1158.693          30.400    25764633.007 1    177666.55103      -864.997          36.700  
E07  25612244.304 4   -102903.10607      2307.891          34.000    25610123.579 2   -367650.21409      1722.720          30.000  
E08  23761224.341 3      -539.40804        25.863          38.100    23759097.317 2    -13068.47105        18.810          33.700  
E13  24559912.222 4      7509.13507     -1155.179          34.100    24557786.994 2    177589.69505      -863.033          32.200  
E21  26653540.136 5         0.00000     -2872.250          28.600    26651425.397 3         0.00000     -2145.006          29.100  
E26  23520195.704 3   -158322.24604       780.987          39.500    23518077.666 3         0.00000       583.119          26.900  
E31  27581888.248 4     -8877.61509      1375.293          31.500    27579763.317 2    -43297.41105      1027.051          32.300  
E33  27283689.783 4         0.00000      1927.250          29.700    27281569.355 1         0.00000      1439.870          36.900  
> 2021 07 14 20 52 23.4409029  0 27
G05  22277447.735 3    621094.35709     -2916.229          38.300           0.000 0         0.00000         0.000           0.000  
G10  24226754.061 4   -722318.92409      3398.997          34.800    24224413.271 2   -530280.55309      2538.515          30.600  
G13  23382938.120 4    -10415.93209       894.474          32.400           0.000 0         0.00000         0.000           0.000  
G15  22177037.350 3   -423426.60409      1888.389          35.900           0.000 0         0.00000         0.000           0.000  
G16  23815848.915 4    -31721.32809      2236.560          34.900           0.000 0         0.00000         0.000           0.000  
G18  20725329.847 2   -175595.73901       839.584          41.400           0.000 0         0.00000         0.000           0.000  
G20  24971410.640 6         0.00000     -3374.600          22.300           0.000 0         0.00000         0.000           0.000  
G23  21454766.573 3   -545116.30302      2500.730          35.900           0.000 0         0.00000         0.000           0.000  
G25  24320828.324 4    775698.19909     -3654.640          30.000    24318491.443 4         0.00000     -2729.750          20.100  
G26  22572573.915 2    -67881.52101       313.018          42.700    22570230.141 1    -49423.32503       233.805          38.700  
G29  20647534.595 4    222506.64209     -1106.855          31.700           0.000 0         0.00000         0.000           0.000  
R10  22529777.360 4    243912.85709     -1164.948          31.700  
R18  22531084.748 4    493025.86709     -2353.435          30.100  
R09  23058617.255 4    664630.15209     -3384.622          32.900  
R05  21536047.506 4         0.00000      3986.878          29.800  
R20  21568772.249 4         0.00000      2422.751          29.000  
R19  20198039.881 5         0.00000      -375.050          25.200  
R03  22076650.645 3    634145.87501     -3015.767          40.800  
R04  19788972.784 4   -156700.14009       630.586          30.900  
E01  25766974.984 4    206224.45209     -1150.558          31.600    25764852.461 1    178528.99903      -855.654          37.500  
E07  25611803.913 4   -105210.02008      2309.833          33.600    25609684.078 2   -369372.99509      1728.844          29.300  
E08  23761218.949 3      -565.78304        30.058          37.000    23759091.610 2    -13088.26505        26.214          33.300  
E13  24560128.360 4      8663.32308     -1150.157          32.500    24558006.431 2    178451.52305      -855.408          32.700  
E21  26654096.240 5         0.00000     -2864.250          28.100    26651970.716 2         0.00000     -2137.457          29.200  
E26  23520047.307 3   -159106.59303       789.047          41.600    23517924.471 3         0.00000       591.587          24.100  
E31  27581623.824 4    -10258.06009      1385.717          30.700    27579500.098 2    -44328.38305      1038.748          33.400  
E33  27283323.136 5         0.00000      1939.750          27.600    27281201.207 1         0.00000      1451.118          36.900  
> 2021 07 14 20 52 24.4409029  0 26
G05  22278005.950 3    624012.26701     -2922.668          39.300           0.000 0         0.00000         0.000           0.000  
G10  24226104.406 3   -725715.45302      3391.914          35.800    24223766.025 2         0.00000      2532.921          28.900  
G13  23382766.043 4    -11308.48309       886.755          32.900           0.000 0         0.00000         0.000           0.000  
G15  22176672.204 3   -425311.54302      1879.475          35.900           0.000 0         0.00000         0.000           0.000  
G16  23815424.124 4    -33956.81003      2232.210          35.100           0.000 0         0.00000         0.000           0.000  
G18  20725171.853 2   -176434.10601       834.028          41.500           0.000 0         0.00000         0.000           0.000  
G23  21454292.887 3   -547615.02102      2493.309          35.500           0.000 0         0.00000         0.000           0.000  
G25  24321513.664 5         0.00000     -3664.700          26.000           0.000 0         0.00000         0.000           0.000  
G26  22572516.364 2    -68193.42601       307.711          42.900    22570171.089 1    -49656.24103       229.756          38.700  
G29  20647738.466 4    223615.72904     -1114.556          32.000           0.000 0         0.00000         0.000           0.000  
R10  22529968.929 4    245078.98009     -1170.879          32.300  
R18  22531482.578 5         0.00000     -2359.322          28.900  
R09  23059266.002 4    668016.87003     -3391.084          33.200  
R05  21535299.223 5         0.00000      3977.000          28.400  
R20  21568330.357 4         0.00000      2418.163          29.000  
R19  20198074.362 5         0.00000      -382.322          26.600  
R03  22077219.348 3    637163.19101     -3022.035          40.100  
R04  19788848.364 4   -157328.30709       622.297          31.700  
E01  25767194.141 4    207375.87608     -1155.801          32.200    25765071.601 1    179388.83903      -862.872          36.900  
E07  25611368.007 4   -107517.68508      2301.904          33.700    25609245.781 2   -371096.30409      1719.108          29.700  
E08  23761210.852 3      -594.19204        23.299          37.000    23759087.126 2    -13109.37005        17.302          33.400  
E13  24560350.519 4      9814.77408     -1156.044          33.500    24558226.478 2    179311.41205      -863.499          32.900  
E21  26654635.277 5         0.00000     -2870.350          28.100    26652516.646 2         0.00000     -2145.711          32.800  
E26  23519895.613 3   -159895.25103       784.542          41.600    23517776.964 3         0.00000       585.950          25.800  
E31  27581360.919 4    -11643.75409      1382.027          31.400    27579236.879 2    -45363.25309      1032.606          34.600  
E33  27282956.786 4    -31556.87409      1934.768          28.800    27280832.467 1   -172891.10803      1445.073          37.700  
> 2021 07 14 20 52 25.4409029  0 26
G05  22278561.757 3    626937.46502     -2923.580          37.000           0.000 0         0.00000         0.000           0.000  
G10  24225462.849 4   -729104.61903      3391.510          34.100    24223123.264 3         0.00000      2532.507          28.400  
G13  23382607.141 4         0.00000       880.767          28.200           0.000 0         0.00000         0.000           0.000  
G15  22176313.951 4   -427187.62703      1876.973          34.600           0.000 0         0.00000         0.000           0.000  
G16  23814997.519 4    -36187.83603      2234.496          34.600           0.000 0         0.00000         0.000           0.000  
G18  20725011.468 3   -177266.41501       834.937          41.100           0.000 0         0.00000         0.000           0.000  
G23  21453817.718 3   -550105.55802      2492.368          35.800           0.000 0         0.00000         0.000           0.000  
G25  24322232.560 4    783005.95509     -3657.881          29.900           0.000 0         0.00000         0.000           0.000  
G26  22572458.796 2    -68499.57801       309.171          42.300    22570112.335 1    -49884.87903       230.932          37.300  
G29  20647949.806 4    224733.39504     -1116.225          32.300           0.000 0         0.00000         0.000           0.000  
R10  22530215.954 4    246250.87009     -1169.052          32.000  
R18  22531955.043 5         0.00000     -2366.277          28.200  
R09  23059906.651 4    671409.08009     -3390.029          31.100  
R05  21534556.926 5         0.00000      3972.802          28.400  
R20  21567863.267 5         0.00000      2420.837          28.300  
R19  20198170.897 5         0.00000      -382.275          26.900  
R03  22077786.567 4    640188.37509     -3025.275          35.800  
R04  19788723.647 4   -157947.18304       619.912          30.600  
E01  25767413.874 4    208533.79909     -1155.905          31.100    25765292.242 1    180253.40403      -863.266          36.600  
E07  25610927.022 4   -109815.73408      2298.474          33.700    25608807.187 2   -372812.34809      1715.622          29.500  
E08  23761207.554 4      -614.23506        21.063          35.700    23759083.217 2    -13124.42305        15.487          31.200  
E13  24560571.456 4     10973.91209     -1158.100          31.500    24558447.136 2    180176.89005      -865.746          32.000  
E21  26655185.099 5         0.00000     -2877.450          28.400    26653063.152 2         0.00000     -2147.537          31.200  
E26  23519746.902 3   -160678.01703       784.989          41.200    23517629.178 3         0.00000       587.300          22.900  
E31  27581094.402 4    -13025.01709      1383.596          31.300    27578974.271 2    -46394.68005      1032.938          32.800  
E33  27282583.858 5         0.00000      1932.950          28.400    27280464.320 1         0.00000      1445.985          35.900  
> 2021 07 14 20 52 26.4409029  0 26
G05  22279117.878 3    629855.04902     -2917.082          38.400           0.000 0         0.00000         0.000           0.000  
G10  24224814.992 3   -732500.38302      3395.622          35.200    24222475.128 2   -537883.95609      2535.708          30.300  
G13  23382421.279 4    -13076.05509       887.955          31.000           0.000 0         0.00000         0.000           0.000  
G15  22175958.700 3   -429068.12002      1880.025          35.600           0.000 0         0.00000         0.000           0.000  
G16  23814570.302 4    -38428.64203      2242.639          33.800           0.000 0         0.00000         0.000           0.000  
G18  20724856.178 2   -178107.16301       841.930          41.700           0.000 0         0.00000         0.000           0.000  
G23  21453343.456 3   -552602.37202      2496.956          35.500           0.000 0         0.00000         0.000           0.000  
G25  24322914.881 4         0.00000     -3660.935          28.600           0.000 0         0.00000         0.000           0.000  
G26  22572399.744 2    -68814.54601       316.265          42.700    22570052.969 1    -50120.03803       236.250          37.500  
G29  20648169.259 4    225845.40504     -1112.063          32.000           0.000 0         0.00000         0.000           0.000  
R10  22530397.332 4    247414.50509     -1161.949          30.800  
R18  22532408.940 5         0.00000     -2360.162          28.800  
R09  23060547.319 4    674794.35209     -3385.165          32.600  
R05  21533824.837 5         0.00000      3975.771          28.900  
R20  21567443.572 5         0.00000      2429.129          28.200  
R19  20198239.250 5         0.00000      -375.700          26.500  
R03  22078348.377 4    643204.64709     -3014.570          34.100  
R04  19788622.314 4   -158571.41404       624.059          31.100  
E01  25767632.438 4    209682.97909     -1148.286          31.400    25765510.492 1    181111.77503      -857.806          36.400  
E07  25610490.226 4   -112118.46908      2302.104          32.700    25608369.187 2   -374532.91509      1719.026          29.600  
E08  23761201.848 3      -640.17705        26.173          36.400    23759077.825 2    -13143.73905        19.426          32.900  
E13  24560792.411 4     12126.12908     -1151.737          32.400    24558666.573 2    181037.38909      -860.235          31.500  
E21  26655728.010 5         0.00000     -2869.950          28.300    26653609.675 2         0.00000     -2143.635          29.600  
E26  23519595.207 3   -161469.61103       792.952          41.200    23517478.077 3         0.00000       591.728          24.300  
E31  27580829.072 4    -14416.05909      1392.712          31.600    27578709.551 2    -47433.37805      1040.075          33.300  
E33  27282214.803 6         0.00000      1940.100          22.700    27280096.172 2         0.00000      1451.990          30.000  
> 2021 07 14 20 52 27.4409029  0 26
G05  22279665.606 3    632771.73002     -2916.047          36.700           0.000 0         0.00000         0.000           0.000  
G10  24224171.638 4   -735897.03909      3397.398          31.800    24221829.661 3         0.00000      2537.400          26.400  
G13  23382255.485 4    -13964.31009       887.273          32.200           0.000 0         0.00000         0.000           0.000  
G15  22175600.150 3   -430947.33402      1879.001          35.900           0.000 0         0.00000         0.000           0.000  
G16  23814149.107 4    -40672.86403      2245.319          34.700           0.000 0         0.00000         0.000           0.000  
G18  20724692.478 2   -178950.45201       844.471          41.900           0.000 0         0.00000         0.000           0.000  
G23  21452868.286 3   -555099.63102      2497.786          36.300           0.000 0         0.00000         0.000           0.000  
G25  24323614.600 4    790327.53209     -3662.188          29.300           0.000 0         0.00000         0.000           0.000  
G26  22572336.487 2    -69132.20301       318.795          42.600    22569992.417 1    -50357.27802       238.084          39.000  
G29  20648366.220 4    226957.46004     -1111.710          31.400           0.000 0         0.00000         0.000           0.000  
R10  22530637.150 4    248573.82209     -1159.286          33.500  
R18  22532838.844 5         0.00000     -2360.080          28.800  
R09  23061160.083 5         0.00000     -3382.900          25.200  
R05  21533081.946 4         0.00000      3975.514          29.300  
R20  21566975.888 5         0.00000      2431.815          27.900  
R19  20198321.091 5         0.00000      -376.156          28.200  
R03  22078912.280 3    646220.26709     -3015.392          36.900  
R04  19788498.801 4   -159195.11003       623.635          32.700  
E01  25767852.171 4    210830.24109     -1145.863          32.000    25765729.352 1    181968.46303      -855.209          36.600  
E07  25610050.428 4   -114420.01308      2301.506          32.700    25607931.483 3   -376251.49609      1718.989          29.000  
E08  23761197.956 4      -666.13506        25.580          35.500    23759073.026 2    -13163.08509        19.489          32.400  
E13  24561009.753 4     13277.66509     -1151.342          32.000    24558885.137 2    181898.24709      -859.409          31.700  
E21  26656273.940 4     15882.14209     -2875.440          28.900    26654155.606 3    451619.33509     -2143.327          28.700  
E26  23519445.310 3   -162263.94703       795.547          40.000    23517325.789 3         0.00000       594.315          24.000  
E31  27580565.556 4    -15810.75209      1396.027          30.300    27578443.627 2    -48474.82805      1042.751          33.800  
E33  27281844.562 4     -1126.63809      1947.317          29.800    27279724.430 1   -177239.40003      1454.956          36.700  
> 2021 07 14 20 52 28.4409029  0 25
G05  22280224.117 3    635688.39801     -2918.246          39.200           0.000 0         0.00000         0.000           0.000  
G10  24223525.892 4   -739294.63009      3394.667          35.000    24221183.619 3         0.00000      2535.300          28.500  
G15  22175240.397 3   -432825.39702      1875.969          36.400           0.000 0         0.00000         0.000           0.000  
G16  23813717.702 4    -42918.35103      2243.840          34.300           0.000 0         0.00000         0.000           0.000  
G18  20724532.390 2   -179794.88701       843.134          43.100           0.000 0         0.00000         0.000           0.000  
G20  24974617.519 6         0.00000     -3374.700          21.700           0.000 0         0.00000         0.000           0.000  
G23  21452390.115 3   -557596.92602      2495.633          38.100           0.000 0         0.00000         0.000           0.000  
G26  22572275.935 2    -69450.92301       317.060          42.100    22569932.144 1    -50595.26603       236.685          38.700  
G29  20648589.269 4    228069.90504     -1114.045          31.000           0.000 0         0.00000         0.000           0.000  
R10  22530837.129 4    249733.20703     -1161.088          34.100  
R18  22533319.999 5         0.00000     -2362.400          24.400  
R09  23061817.538 4    681564.70403     -3385.254          33.500  
R05  21532312.985 4         0.00000      3973.001          29.200  
R20  21566516.005 5         0.00000      2431.484          27.500  
R19  20198380.439 5         0.00000      -376.951          28.100  
R03  22079471.699 3    649235.76501     -3017.121          40.000  
R04  19788383.385 4   -159817.96903       620.954          33.800  
E01  25768071.625 4    211976.58109     -1147.739          30.700    25765946.991 1    182824.47803      -857.198          37.200  
E07  25609610.927 4   -116720.43109      2298.877          31.400    25607492.889 2   -377969.37309      1716.340          30.300  
E08  23761192.564 3      -691.37509        24.527          36.800    23759067.634 2    -13181.92809        17.519          33.200  
E13  24561228.614 4     14429.04008     -1152.638          33.600    24559103.980 2    182758.05705      -860.586          32.600  
E21  26656818.666 5         0.00000     -2874.700          27.000    26654702.426 2         0.00000     -2144.051          29.900  
E26  23519291.521 3   -163059.66904       794.675          38.700    23517174.984 3         0.00000       593.445          25.800  
E31  27580299.039 4    -17206.78708      1394.891          31.800    27578178.610 2    -49517.28605      1041.277          32.900  
E33  27281474.024 5         0.00000      1946.150          28.300    27279353.892 1         0.00000      1454.249          35.600  
> 2021 07 14 20 52 29.4409029  0 25
G05  22280779.628 3    638609.42401     -2919.918          39.200           0.000 0         0.00000         0.000           0.000  
G10  24222881.334 4   -742685.50009      3391.716          34.600    24220538.764 2         0.00000      2531.950          29.400  
G13  23381930.509 5         0.00000       885.250          27.300           0.000 0         0.00000         0.000           0.000  
G15  22174887.832 3   -434698.26902      1873.820          37.400           0.000 0         0.00000         0.000           0.000  
G16  23813289.299 4    -45159.04903      2241.790          33.200           0.000 0         0.00000         0.000           0.000  
G18  20724375.896 2   -180635.12701       841.297          43.100           0.000 0         0.00000         0.000           0.000  
G23  21451922.135 3   -560089.12902      2492.969          37.300           0.000 0         0.00000         0.000           0.000  
G25  24325009.536 4      1536.91909     -3666.323          32.300           0.000 0         0.00000         0.000           0.000  
G26  22572218.977 2    -69764.70401       314.546          41.900    22569872.499 1    -50829.62302       235.003          39.100  
G29  20648804.517 4         0.00000     -1116.204          29.100           0.000 0         0.00000         0.000           0.000  
R10  22531062.569 4    250897.84703     -1164.045          35.000  
R09  23062415.312 4    684953.48404     -3387.968          32.600  
R05  21531577.598 4   -886239.80109      3969.887          33.900  
R20  21566059.717 5         0.00000      2429.938          27.300  
R19  20198450.903 5         0.00000      -378.888          28.200  
R03  22080036.807 3    652255.91901     -3019.039          40.700  
R04  19788279.661 3   -160435.64702       618.473          35.000  
E01  25768285.669 4    213127.81509     -1150.753          30.800    25766166.445 1    183684.10503      -857.630          37.200  
E07  25609176.835 4   -119015.59109      2295.739          31.300    25607055.499 2   -379683.45609      1716.000          29.800  
E08  23761189.266 3      -711.65804        21.211          37.700    23759064.929 2    -13197.16505        17.130          34.000  
E13  24561449.848 4     15584.74207     -1154.838          34.300    24559324.027 2    183621.00609      -860.874          32.400  
E21  26657371.768 5         0.00000     -2876.250          26.400    26655249.246 2         0.00000     -2144.906          32.400  
E26  23519142.531 3   -163851.31704       792.603          38.000    23517022.993 3         0.00000       592.277          27.800  
E31  27580037.634 4    -18597.85909      1391.582          30.000    27577912.407 2    -50556.24205      1041.618          32.400  
E33  27281106.173 5         0.00000      1943.900          26.100    27278983.948 1         0.00000      1453.752          37.900  
> 2021 07 14 20 52 30.4409029  0 27
G05  22281334.841 3    641526.41201     -2912.096          39.800           0.000 0         0.00000         0.000           0.000  
G10  24222229.289 4   -746079.61909      3400.453          33.700    24219891.501 2   -547993.44505      2539.359          31.100  
G13  23381759.933 4    -16626.46104       891.284          32.800           0.000 0         0.00000         0.000           0.000  
G15  22174525.688 3   -436574.75202      1881.315          37.700           0.000 0         0.00000         0.000           0.000  
G16  23812871.087 4    -47403.32503      2249.977          33.200           0.000 0         0.00000         0.000           0.000  
G18  20724213.120 2   -181479.31801       849.146          43.600           0.000 0         0.00000         0.000           0.000  
G20  24975913.529 6         0.00000     -3371.250          20.900           0.000 0         0.00000         0.000           0.000  
G23  21451443.668 3   -562584.92002      2500.676          37.800           0.000 0         0.00000         0.000           0.000  
G25  24325716.741 4      5200.80009     -3657.727          33.000    24323376.562 3         0.00000     -2732.985          22.900  
G26  22572156.313 2    -70081.90201       322.040          41.500    22569811.632 1    -51066.46802       240.442          41.100  
G29  20649012.576 4    230301.02709     -1109.179          29.600           0.000 0         0.00000         0.000           0.000  
R10  22531290.713 4    252059.12109     -1156.248          32.900  
R18  22534198.705 5         0.00000     -2355.400          25.500  
R09  23063078.752 4    688338.65109     -3379.233          33.100  
R05  21530820.625 4   -890211.91109      3978.163          33.500  
R20  21565600.445 5         0.00000      2437.890          27.300  
R19  20198480.289 5         0.00000      -370.935          27.000  
R03  22080601.619 3    655272.16901     -3011.471          41.200  
R04  19788155.835 4   -161056.70903       625.738          34.900  
E01  25768507.217 4    214275.61609     -1143.467          31.400    25766384.695 1    184541.13803      -850.349          39.100  
E07  25608739.428 4   -121314.90308      2303.613          33.100    25606617.499 2   -381400.38209      1723.641          31.500  
E08  23761184.467 3      -735.96904        28.577          38.100    23759059.537 1    -13215.32803        25.309          35.600  
E13  24561669.301 4     16736.12807     -1147.053          34.000    24559542.277 2    184480.82304      -853.490          34.300  
E21  26657906.600 6         0.00000     -2864.150          23.500    26655795.769 2         0.00000     -2137.006          34.400  
E26  23518988.428 3   -164647.11104       800.278          38.200    23516871.891 3   -120971.04209       599.050          28.800  
E31  27579769.617 4    -19992.74309      1399.324          30.600    27577647.391 2    -51597.90104      1048.953          34.300  
E33  27280717.941 5         0.00000      1952.950          24.900    27278612.502 1         0.00000      1461.973          37.700  
> 2021 07 14 20 52 31.4409029  0 26
G05  22281891.259 3    644439.01201     -2919.435          39.900           0.000 0         0.00000         0.000           0.000  
G10  24221580.542 4   -749478.58409      3391.462          32.100    24219245.459 2   -550531.63209      2533.143          30.100  
G13  23381581.854 4    -17516.11909       882.071          31.100           0.000 0         0.00000         0.000           0.000  
G15  22174169.826 3   -438455.52202      1873.900          37.500           0.000 0         0.00000         0.000           0.000  
G16  23812437.589 4    -49651.82503      2241.707          33.600           0.000 0         0.00000         0.000           0.000  
G18  20724052.125 2   -182328.04301       841.909          44.000           0.000 0         0.00000         0.000           0.000  
G23  21450970.592 3   -565085.11002      2493.369          38.300           0.000 0         0.00000         0.000           0.000  
G25  24326399.969 4      8859.84909     -3667.227          32.300    24324069.388 3         0.00000     -2732.450          24.100  
G26  22572095.761 2    -70403.22401       314.424          42.200    22569750.783 1    -51306.42402       234.799          41.000  
G29  20649233.531 4    231408.12609     -1114.499          29.800           0.000 0         0.00000         0.000           0.000  
R10  22531518.840 4    253216.43703     -1164.448          34.700  
R18  22534637.595 4         0.00000     -2363.109          29.700  
R09  23063716.121 4         0.00000     -3386.700          32.300  
R05  21530077.124 4   -894190.56009      3970.333          34.400  
R20  21565159.739 5         0.00000      2430.435          28.500  
R19  20198596.892 5         0.00000      -377.635          27.400  
R03  22081168.820 3    658283.69109     -3018.886          40.600  
R04  19788034.730 3   -161681.76102       617.775          35.200  
E01  25768724.281 4    215418.81609     -1150.346          31.500    25766602.648 1    185394.93602      -859.327          39.900  
E07  25608302.632 4   -123618.76608      2297.130          33.100    25606179.795 2   -383120.74305      1715.319          32.000  
E08  23761181.466 3      -764.58304        21.744          38.300    23759054.441 1    -13236.62603        16.006          35.200  
E13  24561888.755 4     17882.75307     -1153.253          34.600    24559761.713 1    185337.18503      -861.603          35.600  
E21  26658464.815 5         0.00000     -2875.400          24.400    26656341.996 2         0.00000     -2147.049          32.000  
E26  23518836.437 3   -165447.70404       793.967          39.300    23516719.900 2   -121570.06009       591.896          30.300  
E31  27579510.289 4         0.00000      1393.300          30.100    27577382.374 2         0.00000      1039.705          34.700  
E33  27280370.176 5         0.00000      1945.450          27.100    27278241.965 1         0.00000      1452.891          36.900  
> 2021 07 14 20 52 32.4409029  0 26
G05  22282443.174 3    647355.11409     -2911.295          36.500           0.000 0         0.00000         0.000           0.000  
G10  24220938.985 4   -752875.28009      3399.848          34.500    24218600.603 2         0.00000      2538.627          28.900  
G13  23381417.577 4    -18401.45409       889.373          33.100           0.000 0         0.00000         0.000           0.000  
G15  22173817.279 3   -440332.59302      1880.461          36.600           0.000 0         0.00000         0.000           0.000  
G16  23812013.078 4    -51896.78403      2248.420          33.700           0.000 0         0.00000         0.000           0.000  
G18  20723889.942 2   -183173.37601       848.866          43.300           0.000 0         0.00000         0.000           0.000  
G23  21450490.921 3   -567581.80702      2500.234          38.300           0.000 0         0.00000         0.000           0.000  
G25  24327107.488 4         0.00000     -3659.200          32.500    24324768.810 3         0.00000     -2731.400          22.200  
G26  22572034.302 2    -70720.93401       321.214          41.600    22569690.214 1    -51543.67502       239.822          41.300  
G29  20649431.695 4    232525.33109     -1114.579          30.700           0.000 0         0.00000         0.000           0.000  
R10  22531719.709 4    254377.30203     -1157.481          35.500  
R18  22535058.494 4         0.00000     -2360.200          29.200  
R09  23064341.781 4    695096.28704     -3381.844          32.900  
R05  21529338.735 4   -898163.72303      3977.268          34.800  
R20  21564713.049 5         0.00000      2436.528          27.200  
R19  20198678.140 5         0.00000      -372.750          26.000  
R03  22081719.235 3    661300.19409     -3013.806          38.100  
R04  19787922.909 4   -162302.64203       624.149          34.300  
E01  25768943.124 4    216565.54909     -1143.666          30.500    25766820.584 1    186251.24902      -853.457          39.800  
E07  25607863.741 4   -125919.03609      2303.544          33.300    25605742.702 2   -384836.48109      1720.685          31.700  
E08  23761173.980 3      -789.50004        27.840          37.100    23759050.236 2    -13255.23609        21.287          34.900  
E13  24562103.707 4     19032.87709     -1146.812          33.700    24559980.277 2    186196.00809      -856.127          34.400  
E21  26659008.651 5         0.00000     -2866.400          27.000    26656887.612 2         0.00000     -2140.666          31.700  
E26  23518686.539 3   -166244.92204       800.573          39.000    23516567.018 3   -122165.35609       598.253          28.700  
E31  27579236.286 4         0.00000      1399.200          31.600    27577115.857 2         0.00000      1045.249          35.100  
E33  27279990.040 5         0.00000      1954.500          27.900    27277870.519 1         0.00000      1458.903          37.200  
> 2021 07 14 20 52 33.4409029  0 25
G05  22282999.592 3    650269.32909     -2918.156          37.600           0.000 0         0.00000         0.000           0.000  
G10  24220291.128 3   -756271.97809      3394.741          35.700    24217953.357 3         0.00000      2534.609          28.300  
G15  22173456.024 3   -442209.36702      1874.659          35.900           0.000 0         0.00000         0.000           0.000  
G16  23811581.080 4    -54141.64103      2242.692          33.500           0.000 0         0.00000         0.000           0.000  
G18  20723728.353 2   -184018.88401       843.597          43.600           0.000 0         0.00000         0.000           0.000  
G23  21450018.160 3   -570078.51702      2494.744          39.000           0.000 0         0.00000         0.000           0.000  
G25  24327801.204 4     16193.92009     -3662.902          32.900           0.000 0         0.00000         0.000           0.000  
G26  22571973.435 2    -71038.53601       315.519          41.900    22569629.662 1    -51780.83202       235.589          39.100  
G29  20649643.646 4    233638.23809     -1115.273          30.900           0.000 0         0.00000         0.000           0.000  
R10  22531932.864 4    255538.43009     -1163.191          34.600  
R18  22535483.302 5         0.00000     -2365.750          26.100  
R09  23064967.459 5         0.00000     -3382.000          25.600  
R05  21528595.251 4   -902137.34903      3971.533          33.400  
R20  21564236.082 5         0.00000      2432.842          28.300  
R19  20198701.523 5         0.00000      -377.481          28.200  
R03  22082293.644 3    664317.24109     -3018.166          36.900  
R04  19787805.678 4   -162922.81603       617.727          34.600  
E01  25769157.482 4    217712.12509     -1148.622          30.500    25767039.148 1    187107.50303      -858.281          38.500  
E07  25607426.334 4   -128219.47008      2298.266          33.300    25605304.108 2   -386554.30409      1715.825          30.100  
E08  23761171.572 3      -814.06709        22.294          35.900    23759044.547 2    -13273.61209        15.835          32.200  
E13  24562326.145 4     20182.83609     -1151.975          34.000    24560199.121 2    187054.77405      -861.310          33.800  
E21  26659556.064 5         0.00000     -2871.850          28.700    26657433.542 2         0.00000     -2145.114          32.200  
E26  23518533.641 3   -167042.53504       795.816          39.000    23516416.214 3         0.00000       593.827          27.900  
E31  27578976.661 4    -24086.60908      1392.699          31.900    27576850.527 2    -54727.46005      1040.059          33.100  
E33  27279615.611 5         0.00000      1946.800          26.800    27277500.278 1         0.00000      1453.555          35.900  
> 2021 07 14 20 52 34.4409029  0 24
G05  22283556.009 3    653186.56309     -2915.345          39.600           0.000 0         0.00000         0.000           0.000  
G10  24219625.298 5         0.00000      3402.800          23.500           0.000 0         0.00000         0.000           0.000  
G15  22173107.962 3   -444084.98402      1877.688          36.400           0.000 0         0.00000         0.000           0.000  
G16  23811157.773 4    -56385.57703      2245.261          33.300           0.000 0         0.00000         0.000           0.000  
G18  20723569.469 2   -184863.66401       846.410          43.100           0.000 0         0.00000         0.000           0.000  
G23  21449540.879 3   -572574.45302      2497.792          38.200           0.000 0         0.00000         0.000           0.000  
G25  24328498.218 4     19855.82509     -3659.567          31.300           0.000 0         0.00000         0.000           0.000  
G26  22571916.478 3    -71355.04801       317.808          40.400    22569569.703 1    -52017.23503       237.621          37.500  
G29  20649860.988 4    234752.41109     -1112.151          29.500           0.000 0         0.00000         0.000           0.000  
R10  22532151.410 4    256700.79803     -1160.861          33.900  
R09  23065586.226 4    701866.31307     -3383.225          30.500  
R05  21527857.177 4   -906110.11103      3975.014          33.900  
R20  21563787.297 5         0.00000      2436.081          28.400  
R19  20198786.366 5         0.00000      -374.054          28.000  
R03  22082847.357 3    667334.79402     -3015.975          39.300  
R04  19787698.063 4   -163541.53003       620.473          33.800  
E01  25769378.123 4    218859.58509     -1145.800          30.500    25767257.084 1    187964.32403      -855.240          38.000  
E07  25606988.037 4   -130518.97608      2301.689          33.400    25604867.312 2   -388271.55009      1719.210          30.100  
E08  23761164.679 3      -837.51604        25.323          37.600    23759040.656 2    -13291.13909        19.711          32.300  
E13  24562544.395 4     21333.59306     -1148.934          34.900    24560418.260 2    187914.03005      -857.368          32.800  
E21  26660098.993 5         0.00000     -2866.600          27.100    26657980.658 2         0.00000     -2140.500          29.200  
E26  23518380.759 3   -167839.48804       798.549          37.800    23516264.519 3         0.00000       596.688          27.600  
E31  27578710.755 4    -25482.66909      1395.561          29.500    27576585.824 2    -55769.13805      1043.761          32.000  
E33  27279254.653 5         0.00000      1949.000          25.800    27277128.833 2         0.00000      1457.881          34.000  
> 2021 07 14 20 52 35.4409029  0 26
G05  22284106.721 4    656101.08209     -2912.373          34.500           0.000 0         0.00000         0.000           0.000  
G10  24219007.124 4   -763065.86409      3401.850          33.500    24216660.349 3         0.00000      2540.050          25.100  
G13  23380912.114 4         0.00000       885.489          28.900           0.000 0         0.00000         0.000           0.000  
G15  22172748.523 3   -445965.05602      1884.524          36.800           0.000 0         0.00000         0.000           0.000  
G16  23810730.260 4    -58630.08109      2242.281          32.600           0.000 0         0.00000         0.000           0.000  
G18  20723404.285 2   -185709.99801       846.399          42.300           0.000 0         0.00000         0.000           0.000  
G23  21449069.304 3   -575073.24602      2501.118          37.700           0.000 0         0.00000         0.000           0.000  
G25  24329176.351 5         0.00000     -3653.736          26.300           0.000 0         0.00000         0.000           0.000  
G26  22571851.720 2    -71672.21101       316.154          41.200    22569509.447 1    -52254.06002       236.081          38.900  
G29  20650068.140 4    235863.23309     -1107.548          29.700           0.000 0         0.00000         0.000           0.000  
R10  22532394.841 4    257862.90803     -1163.584          34.600  
R18  22536343.406 5         0.00000     -2354.850          24.100  
R09  23066254.761 6         0.00000     -3380.900          22.900  
R05  21527106.189 4   -910087.30803      3981.552          33.200  
R20  21563333.417 5         0.00000      2433.823          28.100  
R19  20198907.191 6         0.00000      -367.400          23.400  
R03  22083410.964 4    670349.68409     -3014.251          32.800  
R04  19787574.254 4   -164163.43209       624.803          33.800  
E01  25769601.765 4    220005.73609     -1146.444          31.100    25767475.334 1    188820.24703      -855.802          36.900  
E07  25606552.741 4   -132823.24808      2308.332          33.100    25604429.312 3   -389992.30309      1724.724          28.900  
E08  23761160.473 4      -864.45109        29.829          34.000    23759037.044 2    -13311.15709        22.509          29.900  
E13  24562760.551 4     22481.32009     -1143.731          31.400    24560636.824 2    188771.10009      -855.492          29.600  
E21  26660650.908 5         0.00000     -2861.750          26.900    26658525.070 3         0.00000     -2138.463          27.900  
E26  23518231.455 3   -168638.05604       798.269          39.000    23516113.732 3         0.00000       596.614          27.600  
E31  27578442.737 4    -26877.15909      1394.676          31.800    27576319.307 2    -56810.99805      1041.012          32.600  
E33  27278876.315 5         0.00000      1949.850          26.000    27276757.981 1         0.00000      1456.262          37.400  
> 2021 07 14 20 52 36.4409029  0 26
G05  22284662.249 3    659011.77909     -2911.727          36.000           0.000 0         0.00000         0.000           0.000  
G10  24218363.176 5         0.00000      3401.300          27.000    24216014.900 3         0.00000      2538.650          22.400  
G13  23380739.445 5         0.00000       899.100          26.900           0.000 0         0.00000         0.000           0.000  
G15  22172379.172 4   -447856.04009      1893.618          31.600           0.000 0         0.00000         0.000           0.000  
G16  23810303.654 4    -60868.88804      2233.458          33.000           0.000 0         0.00000         0.000           0.000  
G18  20723245.680 2   -186556.22801       842.858          41.600           0.000 0         0.00000         0.000           0.000  
G23  21448594.745 3   -577577.40902      2504.359          38.200           0.000 0         0.00000         0.000           0.000  
G25  24329870.678 5         0.00000     -3643.618          25.800           0.000 0         0.00000         0.000           0.000  
G26  22571796.263 2    -71986.61601       309.857          41.900    22569449.191 1    -52488.81003       231.387          38.500  
G29  20650278.607 4    236966.48004     -1102.939          31.300           0.000 0         0.00000         0.000           0.000  
R10  22532589.411 4    259028.73303     -1170.977          34.500  
R18  22536859.950 6         0.00000     -2338.650          23.900  
R09  23066875.640 4    708628.93507     -3381.435          30.700  
R05  21526359.407 4   -914074.98803      3990.719          34.300  
R20  21562872.330 5         0.00000      2426.166          28.300  
R19  20198948.252 6         0.00000      -369.400          23.900  
R03  22083983.872 3    673364.78309     -3017.067          38.300  
R04  19787457.023 4   -164792.46009       629.669          33.100  
E01  25769812.825 4    221152.27508     -1149.514          31.800    25767693.880 1    189676.41803      -858.782          36.900  
E07  25606106.644 4   -135138.96809      2318.335          32.900    25603988.920 2   -391721.53809      1731.344          30.000  
E08  23761155.989 4      -898.29909        38.571          29.300    23759028.964 3         0.00000        31.550          27.400  
E13  24562981.488 4     23620.26709     -1140.948          31.500    24560855.371 2    189623.13809      -852.544          31.300  
E21  26661189.631 5         0.00000     -2862.300          26.500    26659070.407 3         0.00000     -2135.009          27.100  
E26  23518079.464 3   -169436.46504       794.809          39.300    23515961.426 3   -124548.55909       593.444          28.300  
E31  27578180.722 4    -28268.40809      1386.823          30.800    27576054.587 2    -57849.21005      1033.133          32.700  
E33  27278512.373 5         0.00000      1944.150          25.800    27276386.849 1         0.00000      1450.505          36.500  
> 2021 07 14 20 52 37.4409029  0 26
G05  22285220.150 3    661917.61601     -2905.093          39.200           0.000 0         0.00000         0.000           0.000  
G10  24217700.922 4         0.00000      3412.650          31.900    24215360.150 3         0.00000      2547.550          25.900  
G13  23380570.352 4         0.00000       907.350          33.400           0.000 0         0.00000         0.000           0.000  
G15  22172021.215 4   -449758.65509      1908.220          32.100           0.000 0         0.00000         0.000           0.000  
G16  23809878.253 4    -63103.08004      2230.035          32.200           0.000 0         0.00000         0.000           0.000  
G18  20723083.795 2   -187402.72901       845.340          41.900           0.000 0         0.00000         0.000           0.000  
G23  21448115.667 3   -580089.35902      2514.571          39.100           0.000 0         0.00000         0.000           0.000  
G25  24330579.087 5         0.00000     -3631.252          26.600           0.000 0         0.00000         0.000           0.000  
G26  22571734.210 3    -72298.61801       309.260          41.000    22569390.733 1    -52721.79603       230.895          38.200  
G29  20650492.651 4    238061.29409     -1089.615          29.900           0.000 0         0.00000         0.000           0.000  
R10  22532821.149 4    260198.16303     -1173.015          33.600  
R18  22537253.278 5         0.00000     -2330.050          25.700  
R09  23067496.798 4    712003.56909     -3367.797          32.400  
R05  21525612.922 4   -918077.02209      4007.287          32.400  
R20  21562417.542 5         0.00000      2426.804          27.200  
R19  20199017.198 5         0.00000      -368.100          24.700  
R03  22084542.087 3    676375.10609     -3011.167          39.400  
R04  19787347.610 4   -165430.32403       641.172          33.500  
E01  25770039.765 4    222298.34509     -1146.882          32.200    25767911.833 1    190532.18703      -854.578          36.600  
E07  25605665.659 4   -137469.07408      2335.822          33.700    25603543.730 2   -393461.55009      1746.197          30.300  
E08  23761145.187 4      -944.78106        45.391          35.200    23759021.757 2    -13374.29809        35.302          33.100  
E13  24563192.548 4     24753.47708     -1131.956          33.500    24561070.009 2    190470.10605      -843.117          34.000  
E21  26661736.155 6         0.00000     -2857.850          21.800    26659610.631 3         0.00000     -2128.800          25.000  
E26  23517927.769 3   -170234.73004       797.278          39.400    23515810.028 3         0.00000       589.968          27.400  
E31  27577916.892 4    -29655.20409      1381.559          31.900    27575791.962 2    -58883.47305      1033.190          32.900  
E33  27278136.722 5         0.00000      1939.000          26.900    27276017.201 1         0.00000      1452.095          36.600  
> 2021 07 14 20 52 38.4409029  0 26
G05  22285773.566 3    664832.45602     -2915.158          38.900           0.000 0         0.00000         0.000           0.000  
G10  24217056.067 3   -773280.06209      3408.682          35.300    24214714.684 2         0.00000      2545.400          29.000  
G13  23380401.573 4     -3139.10809       905.476          32.200           0.000 0         0.00000         0.000           0.000  
G15  22171658.774 4   -451663.00309      1908.531          35.000           0.000 0         0.00000         0.000           0.000  
G16  23809452.555 4    -65317.70909      2208.240          33.400           0.000 0         0.00000         0.000           0.000  
G18  20722927.912 2   -188235.44401       829.746          42.100           0.000 0         0.00000         0.000           0.000  
G23  21447635.402 3   -582595.48002      2506.872          39.100           0.000 0         0.00000         0.000           0.000  
G25  24331274.303 4     34431.42209     -3629.481          30.500           0.000 0         0.00000         0.000           0.000  
G26  22571680.533 2    -72593.63401       290.482          41.800    22569334.369 1    -52942.09303       216.832          38.300  
G29  20650697.115 4         0.00000     -1097.088          28.700           0.000 0         0.00000         0.000           0.000  
R10  22533044.495 4    261386.04809     -1193.350          33.200  
R18  22537711.957 4         0.00000     -2332.318          29.700  
R09  23068156.643 4         0.00000     -3388.050          34.000  
R05  21524862.545 4   -922078.67803      4006.149          33.900  
R20  21561951.656 5         0.00000      2403.300          28.700  
R19  20199025.295 5         0.00000      -374.150          24.400  
R03  22085098.801 4    679398.91109     -3026.377          30.900  
R04  19787244.165 4   -166064.15403       635.574          32.900  
E01  25770252.623 4    223457.99509     -1162.593          31.200    25768132.491 1    191398.22803      -867.665          36.800  
E07  25605220.469 4   -139801.17008      2336.392          33.500    25603099.134 3   -395202.92109      1745.654          28.600  
E08  23761141.592 3      -982.77104        39.325          36.900    23759015.475 2    -13402.53905        30.547          32.900  
E13  24563411.095 4     25893.62308     -1139.509          33.500    24561287.072 2    191321.52605      -849.755          33.300  
E21  26662285.069 5         0.00000     -2853.550          24.600    26660156.543 2         0.00000     -2130.037          29.700  
E26  23517778.779 3   -171018.83804       781.063          38.900    23515659.537 3         0.00000       582.840          27.900  
E31  27577656.971 4    -31019.53509      1358.612          32.700    27575532.651 2    -59902.47905      1015.073          31.400  
E33  27277767.388 5         0.00000      1919.400          25.600    27275650.851 1         0.00000      1436.521          36.300  
> 2021 07 14 20 52 39.4409029  0 26
G05  22286327.889 3    667747.17102     -2917.297          35.500           0.000 0         0.00000         0.000           0.000  
G10  24216410.915 4   -776690.72309      3409.111          35.000    24214064.437 2         0.00000      2544.300          30.300  
G13  23380226.495 5         0.00000       909.494          27.400           0.000 0         0.00000         0.000           0.000  
G15  22171297.816 3   -453576.69409      1914.851          37.100           0.000 0         0.00000         0.000           0.000  
G16  23809039.735 4    -67520.83009      2195.439          34.400           0.000 0         0.00000         0.000           0.000  
G18  20722770.807 2   -189063.27501       822.961          42.900           0.000 0         0.00000         0.000           0.000  
G23  21447160.233 3   -585104.37402      2507.307          38.800           0.000 0         0.00000         0.000           0.000  
G25  24331963.517 4         0.00000     -3623.783          28.700           0.000 0         0.00000         0.000           0.000  
G26  22571624.780 2    -72880.50201       280.596          42.200    22569279.505 1    -53156.32402       209.605          40.000  
G29  20650909.956 4    240252.06209     -1094.144          30.400           0.000 0         0.00000         0.000           0.000  
R10  22533261.837 4    262583.42803     -1204.412          34.600  
R18  22538126.277 4    530712.13309     -2327.503          31.300  
R09  23068786.806 4    718764.90209     -3390.423          33.900  
R05  21524121.452 4   -926090.24303      4012.594          33.400  
R20  21561540.651 5         0.00000      2392.496          28.400  
R19  20199140.431 5         0.00000      -376.770          28.100  
R03  22085664.206 5         0.00000     -3026.850          28.500  
R04  19787101.178 4   -166702.91803       637.817          34.600  
E01  25770474.171 4    224622.75108     -1169.229          33.000    25768354.336 1    192268.08103      -873.650          38.500  
E07  25604777.374 4   -142143.58508      2344.129          33.000    25602653.944 2   -396951.18309      1750.574          30.900  
E08  23761129.307 3     -1025.29004        41.515          36.800    23759005.581 2    -13434.33204        31.106          34.200  
E13  24563626.047 4     27030.71307     -1138.409          33.800    24561503.524 2    192170.75604      -850.597          34.400  
E21  26662821.698 5         0.00000     -2849.150          27.800    26660697.675 2         0.00000     -2128.415          31.000  
E26  23517628.882 3   -171797.79104       774.487          38.900    23515510.547 2   -126307.81909       577.562          29.500  
E31  27577401.552 4         0.00000      1342.400          33.400    27575274.231 2         0.00000      1004.757          32.400  
E33  27277396.240 5         0.00000      1910.550          26.800    27275285.112 1         0.00000      1428.008          37.900  
> 2021 07 14 20 52 40.4409029  0 26
G05  22286884.307 4    670665.75609     -2920.135          34.300           0.000 0         0.00000         0.000           0.000  
G10  24215759.167 3   -780099.67009      3409.084          36.300    24213417.784 2   -573479.84905      2545.835          31.500  
G13  23380079.303 6         0.00000       907.550          22.500           0.000 0         0.00000         0.000           0.000  
G15  22170928.483 3   -455493.68509      1919.573          37.800           0.000 0         0.00000         0.000           0.000  
G16  23808617.632 4    -69709.85909      2183.005          32.000           0.000 0         0.00000         0.000           0.000  
G18  20722614.628 2   -189882.22701       816.028          44.000           0.000 0         0.00000         0.000           0.000  
G23  21446681.469 3   -587611.06501      2506.689          39.700           0.000 0         0.00000         0.000           0.000  
G25  24332635.961 5         0.00000     -3617.623          26.100           0.000 0         0.00000         0.000           0.000  
G26  22571568.712 2    -73155.70201       270.909          41.200    22569227.643 1    -53361.83902       202.359          40.700  
G29  20651106.934 4    241346.46409     -1093.492          31.200           0.000 0         0.00000         0.000           0.000  
R10  22533491.482 4    263793.82303     -1215.372          35.600  
R18  22538579.861 4    533037.74209     -2323.238          31.900  
R09  23069401.088 4    722157.53304     -3394.282          32.600  
R05  21523350.990 4   -930105.97209      4019.797          30.400  
R20  21561067.279 5         0.00000      2382.248          27.500  
R19  20199217.177 5         0.00000      -379.640          28.400  
R03  22086263.499 4    685454.31809     -3031.864          31.300  
R04  19786987.857 4   -167340.82103       638.574          33.900  
E01  25770700.500 4    225796.51809     -1176.814          31.700    25768577.681 1    193144.55802      -878.831          39.900  
E07  25604327.681 4   -144490.59809      2350.288          31.600    25602208.457 2   -398703.72505      1754.786          32.300  
E08  23761119.710 4     -1066.69009        42.106          32.500    23758995.687 3    -13465.20409        31.391          28.700  
E13  24563844.890 4     28170.07906     -1138.999          35.100    24561720.274 1    193021.53503      -850.817          35.400  
E21  26663360.438 4      4386.69909     -2849.747          29.400    26661239.696 2    479424.26005     -2127.601          32.500  
E26  23517479.578 3   -172567.48204       766.913          37.400    23515364.541 2   -126882.57609       572.421          30.200  
E31  27577143.429 4         0.00000      1337.200          31.500    27575020.296 2         0.00000       995.969          34.600  
E33  27277038.597 5         0.00000      1900.900          28.300    27274922.061 1         0.00000      1420.914          38.300  
> 2021 07 14 20 52 41.4409029  0 25
G05  22287437.112 3    673586.84209     -2920.893          36.900           0.000 0         0.00000         0.000           0.000  
G10  24215108.326 3   -783508.88609      3409.717          35.900    24212766.943 2   -576025.68905      2546.231          31.700  
G15  22170562.726 3   -457415.46609      1923.556          38.900           0.000 0         0.00000         0.000           0.000  
G16  23808203.922 4    -71888.14409      2176.799          33.500           0.000 0         0.00000         0.000           0.000  
G18  20722459.635 2   -190695.54201       812.465          43.900           0.000 0         0.00000         0.000           0.000  
G23  21446205.688 3   -590117.85101      2507.308          39.900           0.000 0         0.00000         0.000           0.000  
G25  24333347.058 5         0.00000     -3611.500          24.900           0.000 0         0.00000         0.000           0.000  
G26  22571520.759 3    -73422.80901       265.489          40.800    22569176.375 1    -53561.28202       198.231          40.300  
G29  20651327.871 4    242439.65709     -1092.569          30.800           0.000 0         0.00000         0.000           0.000  
R10  22533717.218 4    265013.46803     -1221.398          34.600  
R18  22539012.173 4    535359.57209     -2320.177          30.200  
R09  23070048.334 4    725552.70509     -3395.145          31.300  
R05  21522614.695 4   -934128.29909      4021.910          32.600  
R20  21560631.984 5         0.00000      2377.278          28.600  
R19  20199285.216 5         0.00000      -380.918          28.300  
R03  22086814.803 4    688489.59909     -3035.744          34.300  
R04  19786867.625 3   -167979.96302       639.856          35.300  
E01  25770921.752 4    226975.89709     -1179.912          31.600    25768802.213 1    194025.36402      -881.583          40.000  
E07  25603882.491 4   -146843.04809      2354.529          32.800    25601760.859 2   -400460.55109      1759.091          30.100  
E08  23761114.614 4     -1109.32509        43.144          31.000    23758989.090 2    -13497.25109        33.182          30.000  
E13  24564065.234 4     29309.34507     -1138.726          34.700    24561936.709 2    193872.21304      -850.201          34.300  
E21  26663903.053 4      7234.93909     -2847.210          31.900    26661781.717 2    481551.20405     -2125.518          33.900  
E26  23517337.777 3   -173331.33204       763.158          39.300    23515218.535 2   -127452.99609       569.398          31.100  
E31  27576893.402 4    -34986.49108      1326.792          32.700    27574766.971 2    -62905.61204       990.232          34.400  
E33  27276684.829 4     -4913.89309      1897.678          31.200    27274560.806 1   -197504.05703      1416.941          38.300  
> 2021 07 14 20 52 42.4409029  0 25
G05  22287994.141 3    676508.22001     -2920.808          40.800           0.000 0         0.00000         0.000           0.000  
G10  24214467.066 3   -786918.78102      3409.991          35.600    24212118.790 2         0.00000      2546.496          29.500  
G15  22170199.378 3   -459337.90202      1921.383          38.100           0.000 0         0.00000         0.000           0.000  
G16  23807793.807 3    -74065.31602      2179.542          35.600           0.000 0         0.00000         0.000           0.000  
G18  20722304.032 2   -191508.31401       814.114          43.200           0.000 0         0.00000         0.000           0.000  
G23  21445729.018 3   -592624.89601      2507.029          39.400           0.000 0         0.00000         0.000           0.000  
G25  24334037.790 5         0.00000     -3615.800          23.700           0.000 0         0.00000         0.000           0.000  
G26  22571467.396 3    -73688.67602       267.681          37.300    22569125.403 1    -53759.82902       199.857          39.800  
G29  20651525.739 4    243532.10909     -1092.925          30.200           0.000 0         0.00000         0.000           0.000  
R10  22533947.474 4    266234.57003     -1219.135          35.300  
R18  22539411.486 5         0.00000     -2318.000          26.400  
R09  23070679.404 4    728948.73403     -3394.550          33.300  
R05  21521862.224 4   -938149.53109      4019.266          30.000  
R20  21560179.901 5         0.00000      2379.597          27.900  
R19  20199374.857 5         0.00000      -380.541          27.100  
R03  22087371.832 4    691525.79503     -3035.468          35.700  
R04  19786736.922 4   -168619.32303       638.299          33.400  
E01  25771148.692 4    228156.33509     -1179.386          32.500    25769027.059 1    194906.61603      -880.429          39.000  
E07  25603432.503 4   -149197.14508      2352.635          32.300    25601312.074 3   -402218.52009      1756.084          28.500  
E08  23761110.409 4     -1152.65509        42.517          32.300    23758981.290 3         0.00000        32.036          27.400  
E13  24564275.998 4     30447.92407     -1139.014          34.600    24562153.458 2    194722.43805      -851.134          33.900  
E21  26664445.685 4     10082.41509     -2847.365          30.500    26662323.442 2    483677.43605     -2126.306          33.400  
E26  23517192.679 3   -174094.67004       764.478          38.500    23515075.548 2   -128023.18609       570.527          29.600  
E31  27576636.779 3    -36313.66404      1329.266          38.100    27574513.646 2    -63896.74909       991.879          30.500  
E33  27276323.889 4     -6812.21209      1900.305          31.400    27274198.958 1   -198921.58303      1419.014          36.700  
> 2021 07 14 20 52 43.4409029  0 24
G05  22288553.839 3    679426.18202     -2914.749          36.400           0.000 0         0.00000         0.000           0.000  
G10  24213811.426 4   -790333.02803      3420.276          34.400    24211467.949 3         0.00000      2552.832          28.800  
G15  22169827.932 4   -461260.84409      1924.771          34.800           0.000 0         0.00000         0.000           0.000  
G16  23807384.582 4    -76251.39204      2192.777          32.000           0.000 0         0.00000         0.000           0.000  
G18  20722144.257 2   -192327.48601       824.899          41.200           0.000 0         0.00000         0.000           0.000  
G20  24984236.061 5         0.00000     -3371.550          25.000           0.000 0         0.00000         0.000           0.000  
G23  21445247.863 3   -595135.62601      2515.949          40.200           0.000 0         0.00000         0.000           0.000  
G26  22571414.923 3    -73962.36402       280.495          36.200    22569073.541 1    -53964.17502       209.453          39.500  
G29  20651735.892 4    244623.10409     -1084.573          30.200           0.000 0         0.00000         0.000           0.000  
R10  22534180.713 4    267447.33209     -1198.365          32.500  
R09  23071317.663 4    732337.93809     -3382.231          30.300  
R05  21521101.342 5         0.00000      4030.150          26.200  
R20  21559738.306 5         0.00000      2392.155          26.500  
R19  20199444.711 5         0.00000      -374.074          27.700  
R03  22087941.739 3    694558.19501     -3029.135          40.300  
R04  19786632.291 4   -169259.73509       647.764          31.700  
E01  25771374.149 4    229329.33306     -1167.160          35.500    25769249.515 1    195782.61103      -865.999          39.000  
E07  25602985.219 4   -151551.00609      2355.773          31.200    25600863.883 3         0.00000      1760.097          24.700  
E08  23761098.717 4     -1197.08409        46.277          31.000    23758973.490 2    -13562.66409        38.192          29.900  
E13  24564494.544 4     31584.27808     -1134.148          32.400    24562369.614 2    195570.87905      -841.830          32.000  
E21  26664988.003 5         0.00000     -2836.000          26.500    26662866.074 2         0.00000     -2114.917          32.100  
E26  23517045.172 3   -174864.81304       775.292          37.500           0.000 0         0.00000         0.000           0.000  
E31  27576379.859 4    -37649.98906      1342.228          35.100    27574260.635 2    -64894.49105      1007.647          31.200  
E33  27275959.930 4     -8719.12809      1913.689          32.400    27273834.999 1   -200345.84003      1435.154          35.800  
> 2021 07 14 20 52 44.4409029  0 27
G05  22289109.070 3    682345.27309     -2927.801          36.600           0.000 0         0.00000         0.000           0.000  
G10  24213163.569 3   -793753.01202      3417.892          35.300    24210817.684 2   -583674.44209      2552.459          30.600  
G13  23379373.581 5         0.00000       916.700          23.700           0.000 0         0.00000         0.000           0.000  
G15  22169469.993 4   -463180.12409      1912.526          34.500           0.000 0         0.00000         0.000           0.000  
G16  23806961.868 4    -78442.99609      2186.057          32.400           0.000 0         0.00000         0.000           0.000  
G18  20721990.451 3   -193150.85602       818.300          37.300           0.000 0         0.00000         0.000           0.000  
G20  24984888.106 6         0.00000     -3377.050          21.500           0.000 0         0.00000         0.000           0.000  
G23  21444772.991 3   -597650.43401      2511.666          40.900           0.000 0         0.00000         0.000           0.000  
G25  24335408.138 6         0.00000     -3601.850          21.600           0.000 0         0.00000         0.000           0.000  
G26  22571365.766 3    -74242.57302       276.482          38.700    22569020.492 1    -54173.47403       206.630          37.900  
G29  20651947.842 3         0.00000     -1098.150          36.000           0.000 0         0.00000         0.000           0.000  
R10  22534400.464 4         0.00000     -1211.900          30.500  
R18  22540260.195 6         0.00000     -2311.500          21.200  
R09  23071964.002 4    735718.37309     -3382.606          31.900  
R05  21520355.764 4   -946188.76803      4018.742          35.000  
R20  21559284.111 5         0.00000      2384.450          25.700  
R19  20199489.976 4     84967.49409      -386.628          30.600  
R03  22088520.632 4    697593.39209     -3047.657          31.600  
R04  19786517.468 4         0.00000       632.400          30.300  
E01  25771592.381 3    230495.42404     -1168.921          39.100    25769471.656 1    196653.60703      -874.113          37.100  
E07  25602535.823 4   -153903.74109      2347.561          30.400    25600418.693 3         0.00000      1751.350          27.700  
E08  23761092.435 4     -1238.73708        33.581          32.100    23758965.096 2    -13595.98109        22.714          33.700  
E13  24564709.792 4     32721.40209     -1144.941          31.300    24562587.567 2    196421.06004      -857.412          34.400  
E21  26665524.039 4      1527.99208     -2840.783          32.400    26663405.704 2    487922.80709     -2122.833          31.100  
E26  23516901.277 3   -175639.20704       769.446          38.300    23514781.739 3         0.00000       574.350          25.500  
E31  27576129.239 3    -38991.92004      1337.150          37.100           0.000 0         0.00000         0.000           0.000  
E33  27275598.082 5         0.00000      1911.350          27.700    27273471.354 2         0.00000      1427.411          34.700  
