     3.03           O                   M                   RINEX VERSION / TYPE
Android_Rinex                           2024-05-27 16:24:45 PGM / RUN BY / DATE
                                                            MARKER NAME
SMARTPHONE                                                  MARKER TYPE
                                                            OBSERVER / AGENCY
                                                            REC # / TYPE / VERS
                                                            ANT # / TYPE
        0.0000        0.0000        0.0000                  APPROX POSITION XYZ
        0.0000        0.0000        0.0000                  ANTENNA: DELTA H/E/N
G    8 C1C L1C D1C S1C C5Q L5Q D5Q S5Q                      SYS / # / OBS TYPES
R    4 C1C L1C D1C S1C                                      SYS / # / OBS TYPES
J    8 C1C L1C D1C S1C C5Q L5Q D5Q S5Q                      SYS / # / OBS TYPES
C    4 C2I L2I D2I S2I                                      SYS / # / OBS TYPES
E    8 C1C L1C D1C S1C C5Q L5Q D5Q S5Q                      SYS / # / OBS TYPES
  2021    07    14    20    50    59.9996550                TIME OF FIRST OBS
  2021    07    14    21    10    24.0006550                TIME OF LAST OBS
  4 R05  1 R20  2 R19  3 R04  6                             GLONASS SLOT / FRQ #
                                                            GLONASS COD/PHS/BIS#
                                                            END OF HEADER
> 2021 07 14 20 50 59.9996552  0 28
G05  22231177.777 3  10913313.37901     -3486.447          48.818           0.000 0         0.00000         0.000           0.000  
G10  24281134.916 6         0.00000      2830.929          26.522           0.000 0         0.00000         0.000           0.000  
G13  23397845.902 4  -3055217.12703       376.984          37.322           0.000 0         0.00000         0.000           0.000  
G15  22208035.001 3  -7390261.78101      1384.669          44.363           0.000 0         0.00000         0.000           0.000  
G16  23850737.266 5         0.00000      1621.936          28.234           0.000 0         0.00000         0.000           0.000  
G20  24917613.198 6         0.00000     -3969.324          22.202           0.000 0         0.00000         0.000           0.000  
G23  21495040.394 5 -11348904.74503      1955.971          35.712           0.000 0         0.00000         0.000           0.000  
G25  24263535.307 4  17046790.45002     -4208.047          40.345    24263537.698 6         0.00000     -3143.541          24.017  
G26  22577276.478 4  -4370913.21702      -274.867          39.434    22577271.069 6         0.00000      -205.819          25.584  
G29  20630590.931 4   2815188.59801     -1636.348          42.591           0.000 0         0.00000         0.000           0.000  
R05  21598097.942 5   -610146.10201      3458.518          44.380  
R20  21604629.227 7         0.00000      1768.124          25.338  
R19  20191075.107 6   2906122.28006      -958.870          29.731  
R04  19798587.427 5  -7729806.82901       127.174          46.171  
J02  43310348.765 5     99332.74206      -397.193          29.891           0.000 0         0.00000         0.000           0.000  
C19  23417341.408 3 -11619593.83902      2411.670          40.632  
C20  22290206.314 3   -110494.24102      -140.128          38.496  
C26  26052998.580 5         0.00000     -1545.777          26.174  
C29  21600420.740 4  -1441614.00403      -171.038          34.909  
C30  23668917.340 2   8934093.10701     -2565.755          46.441  
C32  24889402.129 3   9168286.97502     -3033.564          39.712  
C35  24162150.589 4         0.00000      1805.315          30.155  
E01  25748815.965 4   3221594.52103     -1738.315          38.090           0.000 0         0.00000         0.000           0.000  
E07  25649677.002 4  -2722141.20102      1789.108          42.305    25649683.581 5  -2085330.35709      1335.806          29.376  
E08  23762445.098 3    -59550.76701      -502.954          45.718    23762442.707 3    -57105.55705      -375.438          34.410  
E13  24542207.973 4   6787418.01702     -1726.016          39.656    24542209.177 4   5068947.76106     -1288.666          32.343  
E21  26609276.970 5  12961052.14405     -3432.719          32.220    26609283.566 7         0.00000     -2565.847          23.478  
E26  23532324.400 5  -1076705.42703       170.897          34.866    23532330.699 6         0.00000       126.775          26.520  
> 2021 07 14 20 51 00.9996552  0 28
G05  22231841.216 3  10916799.94101     -3486.618          47.479           0.000 0         0.00000         0.000           0.000  
G10  24280612.369 6         0.00000      2830.675          24.389           0.000 0         0.00000         0.000           0.000  
G13  23397774.845 4  -3055593.94303       376.682          37.024           0.000 0         0.00000         0.000           0.000  
G15  22207772.375 3  -7391646.19101      1384.031          44.819           0.000 0         0.00000         0.000           0.000  
G16  23850424.593 5  -2895771.83507      1624.564          28.610           0.000 0         0.00000         0.000           0.000  
G20  24918372.858 6         0.00000     -3971.069          24.163           0.000 0         0.00000         0.000           0.000  
G23  21494674.637 5 -11350860.16204      1955.267          33.470           0.000 0         0.00000         0.000           0.000  
G25  24264333.654 4  17050998.36502     -4207.952          39.449           0.000 0         0.00000         0.000           0.000  
G26  22577326.839 4  -4370638.22502      -275.286          38.222    22577324.135 6         0.00000      -205.727          25.012  
G29  20630904.512 4   2816825.52702     -1637.140          42.211           0.000 0         0.00000         0.000           0.000  
R05  21597456.681 5   -613604.47501      3458.075          44.505  
R20  21604296.451 7         0.00000      1767.854          25.456  
R19  20191247.794 7         0.00000      -958.618          27.452  
R04  19798560.152 5  -7729933.73301       126.477          46.014  
J02  43310422.213 5     99730.10007      -396.208          28.961           0.000 0         0.00000         0.000           0.000  
C19  23416879.430 3 -11622005.24302      2411.266          40.022  
C20  22290230.587 3   -110353.47003      -141.020          37.271  
C26  26053299.876 5         0.00000     -1548.504          27.596  
C29  21600453.407 4  -1441442.68303      -171.476          34.952  
C30  23669410.501 2   8936658.89501     -2565.936          46.330  
C32  24889988.212 3   9171320.54002     -3033.884          39.797  
C35  24161801.323 5         0.00000      1802.620          26.931  
E01  25749146.629 4   3223332.87302     -1738.267          38.430           0.000 0         0.00000         0.000           0.000  
E07  25649337.037 4  -2723930.43501      1789.104          42.795    25649343.023 5  -2086666.48408      1335.724          29.945  
E08  23762540.428 3    -59047.60601      -503.436          45.158    23762538.927 3    -56729.78105      -375.955          33.372  
E13  24542536.246 4   6789143.93302     -1725.798          40.664    24542537.747 5   5070236.67607     -1289.130          30.909  
E21  26609930.516 5  12964484.26705     -3432.015          32.042    26609936.519 7         0.00000     -2565.293          22.409  
E26  23532291.733 5  -1076876.24703       170.760          35.433    23532297.125 6   -811448.08909       126.346          27.139  
> 2021 07 14 20 51 01.9996552  0 27
G05  22232505.250 3  10920286.70001     -3486.931          47.533           0.000 0         0.00000         0.000           0.000  
G13  23397705.602 4  -3055970.19403       375.636          37.812           0.000 0         0.00000         0.000           0.000  
G15  22207509.750 3  -7393030.20301      1383.724          45.052           0.000 0         0.00000         0.000           0.000  
G16  23850115.201 5  -2897395.93307      1623.478          28.846           0.000 0         0.00000         0.000           0.000  
G20  24919128.645 6         0.00000     -3971.373          25.820           0.000 0         0.00000         0.000           0.000  
G23  21494304.099 5 -11352815.20404      1954.816          33.957           0.000 0         0.00000         0.000           0.000  
G25  24265134.689 4  17055206.09402     -4207.776          39.627    24265140.395 6         0.00000     -3142.453          24.304  
G26  22577380.202 4  -4370362.72603      -275.791          36.951    22577376.311 6         0.00000      -206.222          25.581  
G29  20631215.998 4   2818462.79701     -1637.625          42.688           0.000 0         0.00000         0.000           0.000  
R05  21596808.842 5   -617062.61501      3457.939          45.194  
R20  21603962.192 7         0.00000      1770.005          25.676  
R19  20191409.086 7         0.00000      -961.054          26.450  
R04  19798531.656 5  -7730059.87301       125.724          45.905  
J02  43310497.162 5         0.00000      -397.155          29.398           0.000 0         0.00000         0.000           0.000  
C19  23416413.248 3 -11624416.56402      2411.090          40.177  
C20  22290263.568 3   -110212.20902      -141.449          39.093  
C26  26053596.372 5         0.00000     -1546.668          27.604  
C29  21600487.889 4  -1441271.25103      -171.457          35.283  
C30  23669902.771 2   8939224.73501     -2565.857          46.400  
C32  24890571.015 3   9174354.30802     -3033.857          39.891  
C35  24161448.776 5         0.00000      1801.343          26.746  
E01  25749476.996 4   3225071.55002     -1738.833          38.697           0.000 0         0.00000         0.000           0.000  
E07  25648995.868 4  -2725719.52401      1788.794          43.619    25649002.761 5  -2088002.53708      1335.752          29.701  
E08  23762637.259 3    -58544.08501      -503.764          45.131    23762635.165 3    -56353.79705      -375.968          33.388  
E13  24542862.426 4   6790869.81102     -1725.930          39.805    24542865.724 5   5071525.46908     -1289.106          30.239  
E21  26610592.472 5  12967916.54104     -3432.436          33.278           0.000 0         0.00000         0.000           0.000  
E26  23532259.659 4  -1077047.10303       170.814          36.218    23532264.441 6         0.00000       127.585          26.301  
> 2021 07 14 20 51 02.9996552  0 26
G05  22233168.689 3  10923773.78601     -3487.492          47.997           0.000 0         0.00000         0.000           0.000  
G13  23397632.748 4  -3056345.95402       375.259          38.184           0.000 0         0.00000         0.000           0.000  
G15  22207245.641 4  -7394413.73601      1383.111          44.245           0.000 0         0.00000         0.000           0.000  
G16  23849799.527 6         0.00000      1625.448          27.664           0.000 0         0.00000         0.000           0.000  
G20  24919884.414 6         0.00000     -3971.976          25.714           0.000 0         0.00000         0.000           0.000  
G23  21493929.356 5 -11354769.90503      1954.485          35.295           0.000 0         0.00000         0.000           0.000  
G25  24265933.333 4  17059413.86602     -4207.932          39.480    24265940.540 6         0.00000     -3140.729          24.109  
G26  22577433.565 4  -4370086.60903      -276.298          36.969    22577429.063 6         0.00000      -207.103          26.617  
G29  20631528.985 4   2820100.51101     -1637.953          43.313           0.000 0         0.00000         0.000           0.000  
R05  21596162.783 5   -620520.42701      3457.456          44.911  
R20  21603632.121 7   -703831.17009      1770.901          26.692  
R04  19798516.369 5  -7730185.05401       124.629          46.465  
J02  43310587.397 5         0.00000      -397.507          29.271           0.000 0         0.00000         0.000           0.000  
C19  23415954.272 3 -11626827.58702      2410.861          41.228  
C20  22290286.358 3   -110070.42902      -142.257          40.248  
C26  26053890.164 5         0.00000     -1548.890          26.658  
C29  21600520.573 4  -1441099.54603      -172.070          35.481  
C30  23670396.229 2   8941790.86701     -2566.314          47.099  
C32  24891151.409 3   9177388.43602     -3034.313          40.375  
C35  24161100.714 4         0.00000      1805.600          28.406  
E01  25749809.772 4   3226810.68002     -1739.526          39.590           0.000 0         0.00000         0.000           0.000  
E07  25648657.997 3  -2727508.39101      1788.581          44.470    25648661.295 5  -2089338.43509      1335.718          28.413  
E08  23762729.903 3    -58040.10401      -504.298          44.842    23762730.793 3    -55977.41105      -376.626          33.572  
E13  24543192.793 4   6792595.75602     -1726.007          38.985    24543192.793 5   5072814.24208     -1288.603          29.753  
E21  26611237.014 5  12971348.83904     -3432.489          33.710           0.000 0         0.00000         0.000           0.000  
E26  23532233.571 4  -1077217.84303       170.466          37.300    23532233.868 6         0.00000       128.411          26.801  
> 2021 07 14 20 51 03.9996552  0 27
G05  22233832.129 3  10927261.12801     -3487.637          47.894           0.000 0         0.00000         0.000           0.000  
G10  24278996.497 6         0.00000      2831.294          24.638           0.000 0         0.00000         0.000           0.000  
G13  23397563.191 4  -3056721.19703       374.752          37.731           0.000 0         0.00000         0.000           0.000  
G15  22206981.514 4  -7395796.78601      1382.786          44.103           0.000 0         0.00000         0.000           0.000  
G16  23849488.040 5         0.00000      1623.152          28.455           0.000 0         0.00000         0.000           0.000  
G20  24920641.387 6         0.00000     -3972.136          25.611           0.000 0         0.00000         0.000           0.000  
G23  21493553.722 5 -11356724.18403      1954.188          36.053           0.000 0         0.00000         0.000           0.000  
G25  24266737.684 4  17063621.52602     -4207.597          39.831    24266740.685 7         0.00000     -3141.761          22.760  
G26  22577484.834 4  -4369809.86002      -277.319          38.150    22577482.426 6         0.00000      -208.261          25.897  
G29  20631840.472 4   2821738.68001     -1638.553          42.840           0.000 0         0.00000         0.000           0.000  
R05  21595512.535 5   -623977.88101      3457.275          45.382  
R20  21603299.049 7         0.00000      1768.302          26.494  
R19  20191776.919 6         0.00000      -956.839          28.555  
R04  19798498.378 5  -7730309.33201       123.706          47.147  
C19  23415489.294 3 -11629238.41002      2410.898          41.883  
C20  22290313.336 3   -109928.12301      -142.665          42.885  
C26  26054180.064 5         0.00000     -1550.599          24.562  
C29  21600554.147 3  -1440927.58103      -172.239          37.132  
C30  23670887.889 2   8944357.12901     -2566.297          46.572  
C32  24891732.100 3   9180422.84302     -3034.515          39.791  
C35  24160762.843 4         0.00000      1805.828          31.117  
E01  25750135.341 4   3228550.17202     -1739.761          39.676           0.000 0         0.00000         0.000           0.000  
E07  25648317.142 3  -2729297.05401      1788.522          44.418    25648322.237 4  -2090674.12008      1335.575          30.613  
E08  23762827.624 3    -57535.67701      -504.609          45.093    23762826.437 3    -55600.77305      -376.952          33.824  
E13  24543518.676 4   6794321.75902     -1726.136          38.865    24543521.067 4   5074103.16609     -1289.059          29.448  
E21  26611895.358 5  12974781.22604     -3432.755          33.189           0.000 0         0.00000         0.000           0.000  
E26  23532199.997 4  -1077388.62802       170.738          37.914    23532200.294 6         0.00000       125.559          26.406  
> 2021 07 14 20 51 04.9996552  0 28
G05  22234496.476 3  10930748.83201     -3488.030          47.840           0.000 0         0.00000         0.000           0.000  
G10  24278455.662 6         0.00000      2831.380          24.899           0.000 0         0.00000         0.000           0.000  
G13  23397491.855 4  -3057095.83303       374.406          38.035           0.000 0         0.00000         0.000           0.000  
G15  22206717.998 4  -7397179.26801      1382.060          44.102           0.000 0         0.00000         0.000           0.000  
G16  23849188.542 5         0.00000      1621.445          28.121           0.000 0         0.00000         0.000           0.000  
G20  24921394.468 6         0.00000     -3972.578          24.023           0.000 0         0.00000         0.000           0.000  
G23  21493182.870 5 -11358678.16703      1954.334          35.695           0.000 0         0.00000         0.000           0.000  
G25  24267536.031 4  17067829.25902     -4207.825          39.760    24267541.720 7         0.00000     -3142.383          23.557  
G26  22577540.291 4  -4369532.50602      -277.938          38.363    22577535.788 6         0.00000      -208.301          24.900  
G29  20632153.145 4   2823377.36801     -1638.827          42.955           0.000 0         0.00000         0.000           0.000  
R05  21594870.384 5   -627434.93001      3456.777          45.069  
R20  21602966.588 7         0.00000      1767.473          26.919  
R19  20191975.381 6         0.00000      -961.200          29.266  
R04  19798471.714 5  -7730432.68401       122.826          47.178  
J02  43310736.090 5    101319.23309      -397.298          30.758           0.000 0         0.00000         0.000           0.000  
C19  23415031.208 3 -11631648.91702      2410.454          42.175  
C20  22290341.518 3   -109785.20201      -143.174          42.832  
C26  26054478.952 5         0.00000     -1551.804          25.276  
C29  21600587.721 3  -1440755.31503      -172.520          36.934  
C30  23671378.938 2   8946923.64001     -2566.691          46.241  
C32  24892319.404 3   9183457.61802     -3034.881          39.581  
C35  24160411.186 4         0.00000      1805.407          30.933  
E01  25750469.320 4   3230290.11002     -1740.360          39.361           0.000 0         0.00000         0.000           0.000  
E07  25647976.269 4  -2731085.44701      1788.207          44.280    25647981.068 4  -2092009.50707      1334.894          31.104  
E08  23762922.064 3    -57030.71501      -505.453          44.864    23762922.675 3    -55223.71905      -377.007          33.511  
E13  24543850.248 4   6796047.92702     -1726.423          38.920    24543850.248 5   5075392.22609     -1289.507          28.912  
E21  26612547.717 5  12978213.68104     -3432.887          32.800           0.000 0         0.00000         0.000           0.000  
E26  23532167.906 4  -1077559.21202       170.436          37.808    23532169.110 6   -811958.06709       127.367          26.160  
> 2021 07 14 20 51 05.9996552  0 27
G05  22235159.009 3  10934236.75901     -3488.116          46.935           0.000 0         0.00000         0.000           0.000  
G10  24277914.548 6         0.00000      2831.122          23.172           0.000 0         0.00000         0.000           0.000  
G13  23397421.705 4  -3057470.00103       374.074          38.090           0.000 0         0.00000         0.000           0.000  
G15  22206456.594 3  -7398561.31201      1381.498          44.368           0.000 0         0.00000         0.000           0.000  
G16  23848877.056 5         0.00000      1622.472          29.029           0.000 0         0.00000         0.000           0.000  
G20  24922148.457 6         0.00000     -3972.115          23.957           0.000 0         0.00000         0.000           0.000  
G23  21492811.128 5 -11360631.60203      1952.931          34.743           0.000 0         0.00000         0.000           0.000  
G25  24268335.269 4  17072036.89802     -4207.704          38.961    24268342.476 6         0.00000     -3142.332          24.738  
G26  22577590.652 4  -4369254.61802      -278.327          38.564    22577588.558 6         0.00000      -207.926          24.076  
G29  20632464.945 4   2825016.55602     -1639.512          42.506           0.000 0         0.00000         0.000           0.000  
R05  21594221.027 5   -630891.69902      3456.251          42.240  
R20  21602666.793 7         0.00000      1768.760          26.383  
R19  20192142.379 6   2911882.14806      -960.301          29.361  
R04  19798439.623 5  -7730555.23301       122.139          46.451  
J02  43310814.337 5    101716.69609      -397.249          31.248           0.000 0         0.00000         0.000           0.000  
C19  23414566.823 3 -11634059.20002      2410.051          42.654  
C20  22290364.902 3   -109641.78702      -143.523          40.817  
C29  21600622.203 3  -1440582.87503      -172.833          35.963  
C30  23671873.599 2   8949490.34601     -2566.787          46.687  
C32  24892899.502 3   9186492.72702     -3035.535          38.824  
C35  24160066.736 4         0.00000      1805.358          30.600  
E01  25750799.688 4   3232030.40502     -1740.419          38.425           0.000 0         0.00000         0.000           0.000  
E07  25647634.507 4  -2732873.66001      1788.077          43.766    25647640.510 4  -2093344.83307      1334.407          30.795  
E08  23763019.192 3    -56525.41201      -505.587          44.925    23763019.506 4    -54846.32406      -377.754          33.158  
E13  24544181.208 4   6797774.05302     -1726.280          40.363    24544178.818 5         0.00000     -1289.161          28.476  
E21  26613203.060 5  12981646.16004     -3432.193          33.104    26613200.652 6         0.00000     -2562.311          24.562  
E26  23532136.740 4  -1077729.83502       170.429          38.254    23532135.239 6         0.00000       127.209          26.613  
> 2021 07 14 20 51 06.9996552  0 28
G05  22235821.855 3  10937725.04501     -3488.546          46.812           0.000 0         0.00000         0.000           0.000  
G10  24277373.417 6         0.00000      2831.932          21.706           0.000 0         0.00000         0.000           0.000  
G13  23397347.646 4  -3057843.53003       373.033          37.875           0.000 0         0.00000         0.000           0.000  
G15  22206193.968 3  -7399942.87201      1381.285          44.991           0.000 0         0.00000         0.000           0.000  
G16  23848570.979 5         0.00000      1621.292          29.560           0.000 0         0.00000         0.000           0.000  
G20  24922906.024 6         0.00000     -3972.980          21.752           0.000 0         0.00000         0.000           0.000  
G23  21492443.295 5 -11362584.66204      1953.180          34.218           0.000 0         0.00000         0.000           0.000  
G25  24269136.024 4  17076244.50102     -4207.428          39.079    24269143.510 6         0.00000     -3141.988          24.473  
G26  22577641.921 4  -4368976.06202      -279.134          38.425    22577641.327 6         0.00000      -209.041          24.637  
G29  20632779.415 4   2826656.15901     -1639.786          43.020           0.000 0         0.00000         0.000           0.000  
R05  21593572.577 5   -634348.08102      3456.063          41.950  
R20  21602316.933 7         0.00000      1770.830          25.448  
R19  20192312.345 6   2912842.72006      -961.082          29.474  
R04  19798425.541 5  -7730676.86701       121.225          46.369  
J02  43310885.394 5    102114.70605      -397.753          32.149           0.000 0         0.00000         0.000           0.000  
C19  23414102.752 3 -11636469.22602      2409.587          41.570  
C20  22290392.473 3   -109497.82202      -144.218          40.980  
C26  26055074.947 5         0.00000     -1550.222          27.402  
C29  21600659.372 3  -1440410.10003      -173.300          36.960  
C30  23672362.554 2   8952057.25101     -2566.946          46.420  
C32  24893484.398 3   9189528.07802     -3035.594          38.594  
C35  24159718.064 4         0.00000      1805.702          30.623  
E01  25751132.760 4   3233771.16102     -1741.264          38.283           0.000 0         0.00000         0.000           0.000  
E07  25647296.042 4  -2734661.63401      1788.043          43.927    25647301.138 4         0.00000      1334.682          31.355  
E08  23763115.430 3    -56019.59201      -506.125          44.370    23763115.727 4    -54468.64206      -377.775          32.886  
E13  24544510.093 4   6799500.29502     -1726.643          39.596    24544506.480 5   5077970.23209     -1289.365          28.423  
E21  26613854.511 5  12985078.82704     -3433.044          33.188    26613853.604 6         0.00000     -2562.047          25.238  
E26  23532104.963 4  -1077900.33002       170.654          39.056    23532101.368 5         0.00000       130.209          27.841  
> 2021 07 14 20 51 07.9996552  0 28
G05  22236486.203 3  10941213.60201     -3488.903          46.420           0.000 0         0.00000         0.000           0.000  
G13  23397272.401 4  -3058216.58003       372.545          37.288           0.000 0         0.00000         0.000           0.000  
G15  22205930.749 3  -7401323.92801      1380.660          44.959           0.000 0         0.00000         0.000           0.000  
G16  23848265.181 5  -2907130.24705      1620.830          31.383           0.000 0         0.00000         0.000           0.000  
G18  20738006.863 5  -3591552.87804       234.860          33.189           0.000 0         0.00000         0.000           0.000  
G20  24923659.699 6         0.00000     -3970.873          22.233           0.000 0         0.00000         0.000           0.000  
G23  21492074.240 5 -11364537.26704      1952.387          33.675           0.000 0         0.00000         0.000           0.000  
G25  24269937.966 4  17080452.11702     -4207.669          39.008    24269944.266 6         0.00000     -3141.958          24.496  
G26  22577694.690 4  -4368697.03903      -279.199          37.905    22577694.079 6         0.00000      -209.654          24.469  
G29  20633090.309 4   2828296.25101     -1640.603          43.662           0.000 0         0.00000         0.000           0.000  
R05  21592934.318 5   -637804.12902      3455.770          42.381  
R20  21602010.542 7   -712662.79609      1770.578          25.356  
R19  20192484.124 6   2913803.48406      -961.079          29.982  
R04  19798400.954 5  -7730797.55801       120.050          46.121  
J02  43310957.638 5    102512.12304      -397.664          32.831           0.000 0         0.00000         0.000           0.000  
C19  23413640.775 3 -11638879.03802      2409.490          42.461  
C20  22290419.451 3   -109353.31502      -145.099          41.294  
C26  26055375.038 4         0.00000     -1547.929          27.994  
C29  21600692.353 3  -1440237.18903      -173.070          36.895  
C30  23672858.123 2   8954624.36101     -2567.277          46.436  
C32  24894065.089 3   9192563.76702     -3036.105          38.904  
C35  24159363.423 4         0.00000      1804.524          29.797  
E01  25751464.035 4   3235512.28103     -1741.266          37.962           0.000 0         0.00000         0.000           0.000  
E07  25646954.280 3  -2736449.34901      1787.492          44.792    25646960.876 4  -2096015.06907      1334.933          31.546  
E08  23763209.871 4    -55513.33701      -506.571          44.270    23763212.262 4         0.00000      -378.335          32.825  
E13  24544837.755 4   6801226.47702     -1726.335          39.088    24544835.068 5         0.00000     -1289.364          29.009  
E21  26614510.448 5  12988511.50604     -3433.040          33.411    26614506.556 6         0.00000     -2561.408          26.316  
E26  23532072.279 4  -1078070.75902       170.060          38.936    23532069.277 5   -812340.11209       127.166          28.472  
> 2021 07 14 20 51 08.9996552  0 26
G05  22237150.829 3  10944702.55901     -3489.378          47.125           0.000 0         0.00000         0.000           0.000  
G15  22205667.233 3  -7402704.41101      1380.029          44.999           0.000 0         0.00000         0.000           0.000  
G16  23847954.899 5  -2908750.81005      1620.186          30.808           0.000 0         0.00000         0.000           0.000  
G18  20737962.802 5  -3591787.81104       234.524          33.132           0.000 0         0.00000         0.000           0.000  
G20  24924418.783 6         0.00000     -3971.470          21.506           0.000 0         0.00000         0.000           0.000  
G23  21491697.700 5 -11366489.40104      1951.558          33.199           0.000 0         0.00000         0.000           0.000  
G25  24270735.406 4  17084659.80102     -4208.061          39.234    24270744.707 6         0.00000     -3142.080          25.050  
G26  22577748.053 4  -4368417.17702      -280.164          38.269           0.000 0         0.00000         0.000           0.000  
G29  20633402.685 4   2829936.89901     -1641.047          43.106           0.000 0         0.00000         0.000           0.000  
R05  21592284.367 5   -641259.78802      3455.268          42.382  
R19  20192685.884 6   2914764.72006      -961.500          29.656  
R04  19798380.275 5  -7730917.26001       119.014          46.250  
J02  43311034.995 5    102909.65605      -397.510          32.155           0.000 0         0.00000         0.000           0.000  
C19  23413176.686 3 -11641288.46402      2409.054          42.039  
C20  22290445.836 3   -109208.20102      -145.299          40.467  
C26  26055676.019 5         0.00000     -1552.047          25.606  
C29  21600728.318 3  -1440063.77503      -174.062          37.472  
C30  23673353.081 2   8957191.77101     -2567.585          47.096  
C32  24894645.797 3   9195599.91302     -3036.470          38.730  
C35  24159018.659 4         0.00000      1804.736          30.025  
E01  25751797.090 4   3237253.92803     -1742.021          37.852           0.000 0         0.00000         0.000           0.000  
E07  25646614.315 4  -2738236.75401      1787.182          44.213    25646620.317 4  -2097349.82007      1334.583          30.980  
E08  23763306.406 3    -55006.50701      -507.308          44.383    23763309.093 3    -53712.12206      -378.699          33.319  
E13  24545164.232 4   6802952.91102     -1726.323          39.081    24545163.027 5   5080548.53809     -1289.339          28.872  
E21  26615160.102 5  12991944.35704     -3432.863          33.333    26615159.212 6         0.00000     -2562.555          26.060  
E26  23532038.705 4  -1078241.05202       170.148          39.764    23532037.797 5   -812467.24009       126.864          28.296  
> 2021 07 14 20 51 09.9996552  0 27
G05  22237814.880 3  10948191.82801     -3489.292          47.040           0.000 0         0.00000         0.000           0.000  
G15  22205404.311 3  -7404084.39201      1379.793          44.848           0.000 0         0.00000         0.000           0.000  
G16  23847647.618 5  -2910370.80305      1619.674          31.638           0.000 0         0.00000         0.000           0.000  
G18  20737916.035 5  -3592022.48004       234.340          33.847           0.000 0         0.00000         0.000           0.000  
G20  24925173.662 6         0.00000     -3971.172          21.849           0.000 0         0.00000         0.000           0.000  
G23  21491327.162 5 -11368441.14804      1951.347          33.940           0.000 0         0.00000         0.000           0.000  
G25  24271537.366 4  17088867.44002     -4207.549          39.087    24271545.463 6         0.00000     -3142.626          24.588  
G26  22577802.306 4  -4368136.75602      -280.605          39.092           0.000 0         0.00000         0.000           0.000  
G29  20633714.171 4   2831578.05002     -1641.300          42.119           0.000 0         0.00000         0.000           0.000  
R05  21591629.931 5   -644715.03502      3455.187          41.538  
R20  21601305.117 7         0.00000      1765.271          25.739  
R19  20192858.275 6   2915726.11107      -960.667          29.002  
R04  19798354.780 5  -7731036.08501       118.410          46.631  
J02  43311111.741 5    103307.30005      -397.546          31.989           0.000 0         0.00000         0.000           0.000  
C19  23412715.617 3 -11643697.66902      2409.255          42.499  
C20  22290474.925 3   -109062.43902      -145.874          39.173  
C26  26055972.813 5         0.00000     -1553.777          24.853  
C29  21600766.394 3  -1439890.24803      -173.476          36.372  
C30  23673844.741 2   8959759.41201     -2567.743          46.635  
C32  24895230.990 3   9198636.36602     -3036.477          39.295  
C35  24158671.801 4         0.00000      1805.703          30.896  
E01  25752122.676 4   3238995.99902     -1741.778          38.669           0.000 0         0.00000         0.000           0.000  
E07  25646272.849 4  -2740023.93001      1787.141          43.810    25646279.742 4  -2098684.44807      1335.024          31.558  
E08  23763402.626 3    -54499.24801      -507.256          44.677    23763405.034 3    -53333.27806      -378.982          32.921  
E13  24545492.208 4   6804679.41203     -1726.552          37.283    24545491.912 6   5081837.74909     -1289.216          27.580  
E21  26615812.461 5  12995377.33504     -3432.993          33.468    26615812.147 6         0.00000     -2562.061          25.465  
E26  23532009.022 4  -1078411.22702       170.252          39.554    23532005.130 6         0.00000       126.831          26.679  
> 2021 07 14 20 51 10.9996552  0 27
G05  22238477.412 3  10951681.40401     -3489.511          46.635           0.000 0         0.00000         0.000           0.000  
G10  24275215.506 6         0.00000      2830.848          26.251           0.000 0         0.00000         0.000           0.000  
G13  23397064.045 4  -3059332.09703       371.289          37.699           0.000 0         0.00000         0.000           0.000  
G15  22205141.703 3  -7405463.83901      1379.214          44.616           0.000 0         0.00000         0.000           0.000  
G16  23847341.820 5  -2911990.28205      1619.347          31.431           0.000 0         0.00000         0.000           0.000  
G18  20737865.377 5  -3592256.97104       234.549          34.422           0.000 0         0.00000         0.000           0.000  
G23  21490954.216 5 -11370392.45004      1951.320          32.664           0.000 0         0.00000         0.000           0.000  
G25  24272340.512 4  17093075.03902     -4207.508          39.466    24272346.201 6         0.00000     -3142.307          24.049  
G26  22577856.872 4  -4367855.74802      -281.165          38.478           0.000 0         0.00000         0.000           0.000  
G29  20634026.862 4   2833219.67602     -1641.733          41.705           0.000 0         0.00000         0.000           0.000  
R05  21590988.060 5   -648169.84102      3454.750          42.002  
R20  21600993.352 7         0.00000      1770.768          26.854  
R19  20193049.843 6   2916688.01806      -962.048          29.650  
R04  19798341.291 5  -7731153.99301       117.571          46.125  
C19  23412253.622 3 -11646106.60602      2408.902          42.560  
C20  22290503.107 3   -108916.23002      -146.303          39.258  
C26  26056272.921 5         0.00000     -1552.111          25.419  
C29  21600798.171 3  -1439716.36603      -174.090          35.968  
C30  23674340.292 2   8962327.26101     -2567.891          46.884  
C32  24895817.981 3   9201673.16402     -3036.986          39.034  
C35  24158324.629 4         0.00000      1804.611          30.206  
E01  25752454.841 4   3240738.49203     -1742.585          38.100           0.000 0         0.00000         0.000           0.000  
E07  25645934.384 4  -2741810.88401      1786.989          44.114    25645939.480 4         0.00000      1334.649          30.831  
E08  23763497.660 4    -53991.54701      -507.641          43.886    23763500.958 3    -52954.18806      -378.904          32.881  
E13  24545823.780 4   6806406.01802     -1726.610          38.203    24545820.185 5   5083127.08909     -1289.068          28.183  
E21  26616465.692 5  12998810.37904     -3432.896          34.532    26616465.099 6         0.00000     -2562.021          25.860  
E26  23531976.355 4  -1078581.32102       170.007          40.068    23531973.354 5         0.00000       126.726          27.803  
> 2021 07 14 20 51 11.9996552  0 28
G05  22239142.963 3  10955171.24401     -3489.931          46.721           0.000 0         0.00000         0.000           0.000  
G10  24274682.785 6         0.00000      2827.491          26.682           0.000 0         0.00000         0.000           0.000  
G13  23396992.394 4  -3059702.81203       370.392          37.521           0.000 0         0.00000         0.000           0.000  
G15  22204880.874 3  -7406842.87401      1378.882          45.753           0.000 0         0.00000         0.000           0.000  
G16  23847030.334 5  -2913609.32005      1618.707          30.980           0.000 0         0.00000         0.000           0.000  
G18  20737823.706 5  -3592491.17504       233.976          32.844           0.000 0         0.00000         0.000           0.000  
G23  21490585.772 5 -11372343.30305      1950.854          32.232           0.000 0         0.00000         0.000           0.000  
G25  24273141.547 4  17097282.61102     -4207.438          39.522           0.000 0         0.00000         0.000           0.000  
G26  22577909.642 4  -4367574.14902      -281.931          38.664           0.000 0         0.00000         0.000           0.000  
G29  20634338.941 4   2834861.71502     -1642.261          42.306           0.000 0         0.00000         0.000           0.000  
R05  21590337.830 5   -651624.40202      3454.551          42.233  
R20  21600683.052 7   -719723.48109      1773.532          26.466  
R19  20193233.315 6   2917649.98606      -962.253          29.574  
R04  19798315.221 5  -7731271.02801       116.696          46.294  
J02  43311265.530 5    104102.53105      -397.658          32.460           0.000 0         0.00000         0.000           0.000  
C19  23411786.846 3 -11648515.31602      2408.692          41.228  
C20  22290531.883 3   -108769.43602      -147.192          39.867  
C26  26056573.903 5         0.00000     -1550.638          27.166  
C29  21600831.449 3  -1439542.33303      -174.067          36.506  
C30  23674830.154 2   8964895.24601     -2567.955          46.616  
C32  24896397.171 3   9204710.21702     -3037.046          38.265  
C35  24157980.179 4         0.00000      1804.706          28.244  
E01  25752790.304 4   3242481.36703     -1743.045          37.674           0.000 0         0.00000         0.000           0.000  
E07  25645593.215 4  -2743597.63701      1786.736          44.071    25645600.719 4         0.00000      1334.274          30.620  
E08  23763590.896 4    -53483.36801      -508.283          42.614    23763598.103 4    -52574.62906      -379.959          33.015  
E13  24546149.052 4   6808132.57003     -1726.326          37.629    24546149.052 5   5084416.41809     -1288.869          27.915  
E26  23531943.967 4  -1078751.39502       169.885          39.681    23531941.280 5   -812848.34209       126.474          28.650  
E21         0.000 0         0.00000         0.000           0.000    26617117.754 6         0.00000     -2562.339          25.587  
> 2021 07 14 20 51 12.9996552  0 25
G05  22239807.590 3  10958661.43801     -3490.652          47.404           0.000 0         0.00000         0.000           0.000  
G10  24274141.357 6         0.00000      2830.314          24.706           0.000 0         0.00000         0.000           0.000  
G15  22204617.952 3  -7408221.35201      1377.886          45.116           0.000 0         0.00000         0.000           0.000  
G16  23846719.755 5  -2915227.86005      1618.142          31.747           0.000 0         0.00000         0.000           0.000  
G23  21490214.937 5         0.00000      1949.693          32.231           0.000 0         0.00000         0.000           0.000  
G25  24273942.896 4  17101490.16802     -4207.726          39.819           0.000 0         0.00000         0.000           0.000  
G26  22577963.301 4  -4367291.94902      -282.754          38.713    22577962.394 6         0.00000      -211.726          26.533  
G29  20634650.724 4   2836504.32802     -1643.071          41.890           0.000 0         0.00000         0.000           0.000  
R05  21589700.461 5   -655078.51901      3453.509          43.053  
R20  21600329.598 7         0.00000      1768.853          27.602  
R19  20193391.902 6   2918612.36106      -963.073          29.300  
R04  19798299.917 5  -7731387.19301       115.587          46.269  
J02  43311337.477 5    104500.23405      -398.004          32.425           0.000 0         0.00000         0.000           0.000  
C19  23411330.575 3 -11650923.74002      2408.085          41.917  
C20  22290562.752 3   -108622.21702      -147.538          40.722  
C29  21600868.618 3  -1439368.02203      -174.212          36.644  
C30  23675326.910 2   8967463.51001     -2568.623          46.592  
C32  24896982.382 3   9207747.59002     -3037.377          38.425  
C35  24157647.403 4         0.00000      1805.049          28.291  
E01  25753119.782 4   3244224.66302     -1743.629          38.589           0.000 0         0.00000         0.000           0.000  
E07  25645256.548 3  -2745384.12601      1786.335          44.598    25645260.143 4  -2102687.18407      1334.079          30.746  
E08  23763690.136 4    -52974.67701      -509.217          43.062    23763694.638 3    -52194.83706      -379.993          32.767  
E13  24546485.126 4   6809859.34303     -1727.143          37.997    24546475.825 6         0.00000     -1289.077          27.782  
E21  26617772.190 5  13005676.69104     -3433.283          33.892    26617770.392 6         0.00000     -2562.950          25.510  
E26  23531912.191 4  -1078921.39302       169.724          39.718    23531908.299 5         0.00000       126.455          27.561  
> 2021 07 14 20 51 13.9996552  0 24
G05  22240471.344 3  10962151.95101     -3490.885          48.359           0.000 0         0.00000         0.000           0.000  
G10  24273604.728 6         0.00000      2830.318          26.192           0.000 0         0.00000         0.000           0.000  
G13  23396855.689 4  -3060442.67103       369.401          37.266           0.000 0         0.00000         0.000           0.000  
G15  22204356.234 3  -7409599.33301      1377.692          44.374           0.000 0         0.00000         0.000           0.000  
G16  23846408.269 5  -2916845.90205      1618.173          31.507           0.000 0         0.00000         0.000           0.000  
G25  24274743.041 4  17105697.72902     -4207.564          39.956           0.000 0         0.00000         0.000           0.000  
G26  22578017.554 4  -4367009.08002      -283.424          38.358    22578016.053 6         0.00000      -212.074          25.496  
G29  20634962.804 4   2838147.35702     -1643.447          41.749           0.000 0         0.00000         0.000           0.000  
R05  21589055.902 5   -658532.30301      3453.422          43.704  
R20  21600003.122 7   -723260.14209      1768.226          27.495  
R19  20193575.670 6   2919575.02606      -963.420          29.579  
R04  19798269.641 5  -7731502.37801       114.759          46.169  
J02  43311411.222 5    104897.84805      -397.331          31.137           0.000 0         0.00000         0.000           0.000  
C19  23410865.893 3 -11653331.87502      2407.822          41.613  
C20  22290591.545 3   -108474.26502      -148.240          39.351  
C29  21600899.505 3  -1439193.38803      -174.725          36.491  
C30  23675818.570 2   8970031.96501     -2568.626          47.011  
C32  24897567.871 3   9210785.40502     -3038.142          39.315  
E01  25753450.149 4   3245968.41002     -1744.133          39.974           0.000 0         0.00000         0.000           0.000  
E07  25644915.693 3  -2747170.33001      1785.957          44.627    25644919.584 4  -2104021.03408      1334.048          29.923  
E08  23763788.468 4    -52465.56301      -509.348          43.712    23763790.858 3    -51814.61606      -380.314          32.631  
E13  24546809.194 4   6811586.11902     -1726.978          40.260    24546804.098 5         0.00000     -1288.947          26.474  
E21  26618426.643 5  13009110.00904     -3433.470          33.471    26618423.938 6         0.00000     -2564.141          25.441  
E26  23531876.522 4  -1079091.29502       169.895          40.035    23531876.522 6         0.00000       128.499          26.765  
> 2021 07 14 20 51 14.9996552  0 24
G05  22241135.674 3  10965642.72001     -3491.086          48.157           0.000 0         0.00000         0.000           0.000  
G10  24273067.506 6         0.00000      2828.869          26.898           0.000 0         0.00000         0.000           0.000  
G13  23396783.742 4  -3060811.77503       368.689          37.704           0.000 0         0.00000         0.000           0.000  
G15  22204094.218 3  -7410976.85001      1377.183          44.418           0.000 0         0.00000         0.000           0.000  
G16  23846102.174 5  -2918463.35505      1617.379          31.431           0.000 0         0.00000         0.000           0.000  
G23  21489474.734 5 -11378193.63306      1949.883          30.591           0.000 0         0.00000         0.000           0.000  
G25  24275544.686 4  17109905.21102     -4207.555          40.257           0.000 0         0.00000         0.000           0.000  
G26  22578069.416 4  -4366725.70402      -283.703          38.515    22578070.323 6         0.00000      -211.834          25.309  
G29  20635273.697 4   2839790.87202     -1643.876          41.532           0.000 0         0.00000         0.000           0.000  
R05  21588407.766 5   -661985.75801      3453.188          44.123  
R20  21599678.164 6   -725028.46407      1768.654          28.153  
R19  20193769.647 6   2920537.76706      -962.758          29.954  
R04  19798242.959 5  -7731616.72201       113.893          45.798  
J02  43311493.378 5    105295.59405      -397.931          31.616           0.000 0         0.00000         0.000           0.000  
C19  23410405.103 3 -11655739.84102      2407.695          41.563  
C20  22290619.116 3   -108325.86102      -148.787          39.723  
C29  21600933.375 3  -1439018.48703      -175.087          36.411  
C30  23676309.933 2   8972600.59401     -2568.813          46.749  
C32  24898148.859 3   9213823.40802     -3038.123          39.265  
E07  25644575.728 3  -2748956.39701      1785.887          44.635    25644580.230 4  -2105354.77408      1333.920          29.818  
E08  23763885.002 4    -51956.03501      -509.846          43.679    23763888.300 4    -51434.10806      -380.744          32.687  
E13  24547139.561 4   6813312.93102     -1726.945          40.266    24547134.762 5   5088284.92109     -1289.998          27.065  
E21  26619078.094 5  13012543.32604     -3433.416          33.391    26619077.187 6         0.00000     -2564.033          24.263  
E26  23531847.136 4  -1079261.12402       169.472          39.662    23531842.634 6   -813228.94309       126.780          26.773  
> 2021 07 14 20 51 15.9996552  0 25
G05  22241799.410 3  10969133.84401     -3491.361          48.058           0.000 0         0.00000         0.000           0.000  
G10  24272530.266 6         0.00000      2826.963          27.275           0.000 0         0.00000         0.000           0.000  
G13  23396714.482 4  -3061180.27903       368.132          38.066           0.000 0         0.00000         0.000           0.000  
G15  22203832.203 3  -7412353.82601      1376.786          44.707           0.000 0         0.00000         0.000           0.000  
G16  23845794.894 5  -2920080.31105      1616.636          31.524           0.000 0         0.00000         0.000           0.000  
G23  21489110.495 5 -11380142.73306      1948.929          30.539           0.000 0         0.00000         0.000           0.000  
G25  24276344.535 4  17114112.72502     -4207.590          40.409           0.000 0         0.00000         0.000           0.000  
G26  22578122.186 4  -4366441.61902      -284.344          38.153           0.000 0         0.00000         0.000           0.000  
G29  20635586.370 4   2841434.89102     -1644.346          41.742           0.000 0         0.00000         0.000           0.000  
R05  21587758.705 5   -665438.82201      3452.730          43.609  
R20  21599349.576 6   -726796.71707      1768.388          28.452  
R19  20193942.928 6   2921500.99407      -963.552          28.950  
R04  19798221.374 5  -7731730.13001       113.022          45.088  
J02  43311569.827 5    105693.34005      -397.845          31.213           0.000 0         0.00000         0.000           0.000  
C19  23409942.236 3 -11658147.46902      2407.308          41.550  
C20  22290647.298 3   -108176.84002      -149.399          39.545  
C29  21600964.559 3  -1438843.30803      -175.518          36.405  
C30  23676804.280 2   8975169.49801     -2569.110          46.651  
C32  24898733.459 3   9216861.83102     -3038.462          39.199  
E01  25754115.700 4   3249457.05502     -1744.589          39.744           0.000 0         0.00000         0.000           0.000  
E07  25644236.356 3  -2750742.15101      1785.548          44.989    25644241.748 5  -2106688.28208      1333.442          29.950  
E08  23763981.537 4    -51445.98201      -510.319          43.834    23763985.428 4    -51053.21806      -381.196          32.604  
E13  24547468.131 4   6815039.83602     -1726.823          40.156    24547462.739 6         0.00000     -1288.769          27.347  
E21  26619731.937 5  13015976.82004     -3433.536          34.032    26619730.733 6         0.00000     -2563.047          24.850  
E26  23531812.061 4  -1079430.87002       169.700          39.852    23531812.969 6   -813355.75809       124.518          26.782  
> 2021 07 14 20 51 16.9996552  0 25
G05  22242464.961 3  10972625.27901     -3491.634          47.995           0.000 0         0.00000         0.000           0.000  
G10  24271997.249 5         0.00000      2829.210          28.223           0.000 0         0.00000         0.000           0.000  
G13  23396643.128 4  -3061548.25803       367.775          38.084           0.000 0         0.00000         0.000           0.000  
G15  22203570.485 3  -7413730.26001      1376.095          44.578           0.000 0         0.00000         0.000           0.000  
G16  23845483.407 5  -2921696.77905      1615.818          31.429           0.000 0         0.00000         0.000           0.000  
G23  21488738.754 5 -11382091.52206      1948.219          30.561           0.000 0         0.00000         0.000           0.000  
G25  24277146.773 4  17118320.18402     -4207.435          40.166    24277152.480 6         0.00000     -3144.327          25.410  
G26  22578175.845 4  -4366156.96203      -284.911          37.814    22578177.956 6         0.00000      -213.194          26.461  
G29  20635899.654 4   2843079.36102     -1644.712          41.749           0.000 0         0.00000         0.000           0.000  
R05  21587120.743 5   -668891.55201      3452.599          43.879  
R20  21598993.138 6         0.00000      1768.179          28.541  
R19  20194144.391 6   2922464.29707      -962.826          28.707  
R04  19798199.194 5  -7731842.65001       112.118          45.000  
J02  43311638.773 5    106091.06905      -397.873          31.687           0.000 0         0.00000         0.000           0.000  
C19  23409479.055 3 -11660554.85202      2407.142          41.689  
C20  22290670.088 3   -108027.31102      -149.926          39.580  
C29  21600997.540 3  -1438667.92203      -175.507          35.778  
C30  23677296.551 2   8977738.57501     -2569.104          46.613  
C32  24899318.355 3   9219900.55702     -3038.692          38.956  
E01  25754445.161 4   3251202.06802     -1745.207          39.600           0.000 0         0.00000         0.000           0.000  
E07  25643896.391 3  -2752527.68101      1785.377          45.010    25643900.893 5  -2108021.60408      1332.991          29.921  
E08  23764077.461 4    -50935.46901      -510.786          43.754    23764082.260 4    -50672.03106      -381.396          32.636  
E13  24547795.515 4   6816766.82602     -1726.796          40.095    24547791.309 5         0.00000     -1289.317          27.633  
E21  26620382.184 5  13019410.37304     -3433.655          33.404    26620384.296 6         0.00000     -2564.381          24.166  
E26  23531781.174 4  -1079600.48902       169.561          39.650    23531781.174 5   -813482.39809       126.782          26.969  
> 2021 07 14 20 51 17.9996552  0 23
G05  22243129.605 3  10976117.06201     -3491.878          47.576           0.000 0         0.00000         0.000           0.000  
G10  24271455.525 6         0.00000      2830.604          27.617           0.000 0         0.00000         0.000           0.000  
G13  23396573.886 4  -3061915.63503       367.242          37.668           0.000 0         0.00000         0.000           0.000  
G15  22203308.470 3  -7415106.19601      1375.759          44.537           0.000 0         0.00000         0.000           0.000  
G16  23845176.126 5  -2923312.71805      1615.939          31.187           0.000 0         0.00000         0.000           0.000  
G25  24277945.418 4  17122527.70302     -4207.460          40.456    24277954.125 6         0.00000     -3144.116          25.475  
G26  22578232.209 4  -4365871.69203      -285.528          38.091    22578232.209 6         0.00000      -213.783          26.219  
G29  20636212.641 4   2844724.39502     -1645.331          41.486           0.000 0         0.00000         0.000           0.000  
R05  21586467.791 5   -672343.84601      3452.125          43.983  
R20  21598664.254 6         0.00000      1767.741          28.274  
R19  20194315.874 6   2923428.11807      -963.129          28.763  
R04  19798179.702 5  -7731954.20901       111.193          45.073  
J02  43311714.018 5    106488.86905      -397.276          31.402           0.000 0         0.00000         0.000           0.000  
C19  23409017.968 3 -11662961.94502      2407.005          41.364  
C20  22290702.459 3   -107877.16902      -150.418          39.477  
C29  21601032.318 3  -1438492.14603      -175.856          35.846  
C30  23677789.397 2   8980307.95801     -2569.329          46.417  
C32  24899903.845 3   9222939.72202     -3039.344          38.929  
E07  25643556.722 3  -2754312.94301      1785.204          44.626    25643561.835 4  -2109354.78107      1333.168          30.881  
E08  23764173.995 4    -50424.45301      -511.200          43.554    23764179.998 3    -50290.42206      -381.785          32.731  
E13  24548124.678 4   6818493.96702     -1727.338          40.224    24548119.880 6   5092153.79109     -1290.093          27.223  
E21  26621036.637 5  13022844.07204     -3433.684          33.424    26621038.138 7         0.00000     -2562.657          23.117  
E26  23531746.710 4  -1079769.99702       169.389          39.877    23531746.710 6   -813609.02409       126.616          27.447  
> 2021 07 14 20 51 18.9996552  0 25
G05  22243793.045 3  10979609.02101     -3492.179          47.464           0.000 0         0.00000         0.000           0.000  
G10  24270928.790 6         0.00000      2833.491          24.738           0.000 0         0.00000         0.000           0.000  
G13  23396501.328 4  -3062282.54203       366.753          37.373           0.000 0         0.00000         0.000           0.000  
G15  22203045.251 4  -7416481.73401      1375.225          44.313           0.000 0         0.00000         0.000           0.000  
G16  23844864.937 5  -2924928.23205      1615.268          31.333           0.000 0         0.00000         0.000           0.000  
G23  21487988.970 5 -11385988.00606      1948.840          29.878           0.000 0         0.00000         0.000           0.000  
G25  24278746.767 4  17126735.05102     -4207.254          40.560    24278755.160 6         0.00000     -3143.635          25.359  
G26  22578287.369 4  -4365585.81202      -286.593          38.667    22578286.776 6         0.00000      -213.302          25.892  
G29  20636526.518 4   2846369.76602     -1645.615          41.273           0.000 0         0.00000         0.000           0.000  
R05  21585824.436 5   -675795.90301      3451.736          44.221  
R20  21598346.171 6   -732101.05207      1767.685          28.505  
R19  20194476.852 6   2924392.09507      -964.179          29.014  
R04  19798161.415 5  -7732064.97101       110.292          44.947  
J02  43311790.171 5    106886.67906      -397.764          30.734           0.000 0         0.00000         0.000           0.000  
C19  23408553.583 3 -11665368.92902      2406.803          41.529  
C20  22290731.251 3   -107726.63202      -150.645          39.982  
C29  21601066.189 3  -1438316.28603      -175.818          36.047  
C30  23678283.169 2   8982877.41001     -2569.780          46.513  
C32  24900486.647 3   9225979.06302     -3039.957          39.019  
E01  25755109.508 4   3254693.24502     -1746.139          39.391           0.000 0         0.00000         0.000           0.000  
E07  25643216.775 3  -2756098.10901      1785.174          44.875    25643221.870 4         0.00000      1333.415          30.584  
E08  23764271.734 4    -49913.14801      -511.520          43.781    23764276.533 3    -49908.52806      -382.245          32.895  
E13  24548452.655 4   6820221.04302     -1727.379          39.783    24548448.450 6         0.00000     -1288.982          26.832  
E21  26621690.479 5  13026277.75404     -3433.982          33.924           0.000 0         0.00000         0.000           0.000  
E26  23531720.029 4  -1079939.52402       169.358          40.087    23531713.136 5         0.00000       126.792          27.151  
> 2021 07 14 20 51 19.9996552  0 24
G05  22244457.375 3  10983101.29601     -3492.585          46.778           0.000 0         0.00000         0.000           0.000  
G10  24270390.049 6         0.00000      2832.920          21.254           0.000 0         0.00000         0.000           0.000  
G13  23396431.178 4  -3062648.89403       365.956          37.574           0.000 0         0.00000         0.000           0.000  
G15  22202782.625 4  -7417856.81301      1374.740          43.738           0.000 0         0.00000         0.000           0.000  
G16  23844558.546 5  -2926543.20005      1614.379          31.534           0.000 0         0.00000         0.000           0.000  
G18  20737474.143 5         0.00000       231.967          28.603           0.000 0         0.00000         0.000           0.000  
G23  21487620.526 5 -11387935.42906      1947.116          30.031           0.000 0         0.00000         0.000           0.000  
G25  24279548.709 4  17130942.39202     -4207.445          39.508    24279555.916 6         0.00000     -3143.116          26.315  
G26  22578342.233 4  -4365299.45402      -286.844          40.803    22578341.343 7         0.00000      -214.581          23.579  
G29  20636840.116 4   2848015.58402     -1646.070          40.627           0.000 0         0.00000         0.000           0.000  
R05  21585175.689 5   -679247.61301      3451.348          44.636  
R20  21598013.710 6   -733869.21407      1768.577          29.060  
R19  20194648.632 6   2925356.16409      -965.368          28.214  
R04  19798138.939 5  -7732174.81401       109.414          44.834  
C19  23408091.902 3 -11667775.63001      2406.579          42.760  
C20  22290758.823 3   -107575.49802      -151.634          40.519  
C29  21601097.966 3  -1438140.10103      -176.506          37.221  
C30  23678777.813 2   8985447.02101     -2569.734          46.288  
C32  24901070.339 3   9229018.65502     -3039.917          38.845  
E07  25642877.699 3  -2757882.97701      1784.362          44.564    25642882.202 5  -2112020.73007      1333.032          30.926  
E08  23764372.457 4    -49401.32201      -512.316          43.694    23764373.957 4    -49526.36706      -382.511          32.084  
E13  24548778.538 4   6821948.16903     -1727.412          37.449    24548777.334 5   5094733.12309     -1289.146          27.589  
E21  26622344.321 5  13029711.44504     -3433.655          34.493           0.000 0         0.00000         0.000           0.000  
E26  23531683.157 4  -1080109.02602       169.314          40.171    23531683.750 5         0.00000       126.211          27.787  
> 2021 07 14 20 51 20.9996552  0 27
G05  22245121.425 3  10986593.91601     -3492.783          46.608           0.000 0         0.00000         0.000           0.000  
G10  24269847.731 6         0.00000      2831.499          22.966           0.000 0         0.00000         0.000           0.000  
G13  23396364.030 4  -3063014.65802       365.200          39.136           0.000 0         0.00000         0.000           0.000  
G15  22202522.111 4  -7419231.32201      1374.168          44.032           0.000 0         0.00000         0.000           0.000  
G16  23844251.858 5  -2928157.67905      1614.133          31.580           0.000 0         0.00000         0.000           0.000  
G18  20737429.471 6         0.00000       228.967          27.423           0.000 0         0.00000         0.000           0.000  
G20  24933494.397 6         0.00000     -3971.882          24.155           0.000 0         0.00000         0.000           0.000  
G23  21487252.379 5         0.00000      1946.795          28.004           0.000 0         0.00000         0.000           0.000  
G25  24280349.168 4  17135149.73802     -4207.326          39.582    24280356.654 6         0.00000     -3143.376          25.432  
G26  22578397.393 4  -4365012.41202      -287.331          41.023    22578396.503 7         0.00000      -215.738          22.083  
G29  20637155.197 4   2849661.95702     -1646.603          40.715           0.000 0         0.00000         0.000           0.000  
R05  21584534.132 5   -682698.92801      3451.089          44.014  
R20  21597688.141 6   -735637.16309      1764.918          28.582  
R19  20194809.628 7   2926320.57309      -962.446          26.855  
R04  19798123.949 5  -7732283.69101       108.376          44.558  
J02  43311941.866 5    107682.17805      -397.712          31.110           0.000 0         0.00000         0.000           0.000  
C19  23407628.738 3 -11670182.01802      2406.201          42.281  
C20  22290788.506 3   -107423.78602      -152.030          41.036  
C29  21601131.837 3  -1437963.63503      -176.746          37.666  
C30  23679270.973 3   8988016.92301     -2569.960          45.925  
C32  24901654.346 3   9232058.69202     -3040.423          38.874  
E01  25755774.152 4   3258185.98002     -1746.951          38.543           0.000 0         0.00000         0.000           0.000  
E07  25642537.734 3  -2759667.61601      1784.452          44.977    25642542.236 4  -2113353.35107      1332.303          30.911  
E08  23764468.695 4    -48889.00601      -512.608          44.211    23764471.696 3    -49143.77906      -382.828          32.614  
E13  24549108.906 4   6823675.38503     -1727.272          37.747    24549107.405 5         0.00000     -1289.979          28.065  
E21  26622998.774 5  13033145.30003     -3433.992          34.854    26622999.385 6         0.00000     -2564.321          25.136  
E26  23531657.365 4  -1080278.41902       169.293          40.636    23531649.879 6         0.00000       126.111          27.687  
> 2021 07 14 20 51 21.9996552  0 27
G05  22245785.755 3  10990086.81501     -3493.176          46.358           0.000 0         0.00000         0.000           0.000  
G10  24269307.211 6         0.00000      2830.236          23.849           0.000 0         0.00000         0.000           0.000  
G13  23396297.474 4  -3063379.95602       365.056          38.814           0.000 0         0.00000         0.000           0.000  
G15  22202261.597 4  -7420605.37101      1373.644          44.229           0.000 0         0.00000         0.000           0.000  
G16  23843948.765 5  -2929771.67205      1613.399          32.223           0.000 0         0.00000         0.000           0.000  
G18  20737371.606 5         0.00000       230.861          28.025           0.000 0         0.00000         0.000           0.000  
G20  24934245.070 6         0.00000     -3971.101          23.971           0.000 0         0.00000         0.000           0.000  
G23  21486895.627 6         0.00000      1947.666          27.270           0.000 0         0.00000         0.000           0.000  
G25  24281146.904 4  17139357.04102     -4207.469          39.446    24281157.392 6         0.00000     -3143.370          26.440  
G26  22578451.366 4  -4364724.78702      -288.206          40.609           0.000 0         0.00000         0.000           0.000  
G29  20637465.480 4   2851308.76502     -1647.202          40.617           0.000 0         0.00000         0.000           0.000  
R05  21583890.777 5   -686149.91401      3450.717          44.537  
R20  21597353.271 6         0.00000      1769.117          28.807  
R19  20194999.085 6   2927285.58507      -965.022          28.097  
R04  19798101.770 5  -7732391.74401       107.576          44.422  
J02  43312015.610 5    108079.99705      -397.725          31.625           0.000 0         0.00000         0.000           0.000  
C19  23407165.261 3 -11672588.17602      2405.886          42.398  
C20  22290820.876 3   -107271.57302      -152.669          41.425  
C29  21601164.224 3  -1437786.96903      -176.895          37.336  
C30  23679765.931 2   8990587.01101     -2570.308          46.278  
C32  24902238.631 3   9235098.97302     -3040.580          39.180  
E01  25756106.317 4   3259932.97602     -1747.465          39.041           0.000 0         0.00000         0.000           0.000  
E07  25642199.567 3  -2761452.05501      1784.270          45.390    25642203.772 4  -2114685.86107      1331.964          31.638  
E08  23764565.526 4    -48376.27801      -512.986          44.216    23764569.121 4    -48760.88906      -383.128          32.096  
E13  24549439.273 4   6825402.66203     -1727.477          37.640    24549434.474 5         0.00000     -1289.633          28.004  
E21  26623651.727 5  13036579.22504     -3434.053          34.494           0.000 0         0.00000         0.000           0.000  
E26  23531617.195 4  -1080447.75402       169.314          40.629    23531618.695 5   -814115.09009       126.105          28.447  
> 2021 07 14 20 51 22.9996552  0 27
G05  22246450.399 3  10993580.08901     -3493.422          46.858           0.000 0         0.00000         0.000           0.000  
G10  24268765.172 5         0.00000      2827.689          28.273           0.000 0         0.00000         0.000           0.000  
G13  23396229.122 4  -3063744.55402       364.539          38.669           0.000 0         0.00000         0.000           0.000  
G15  22202001.676 3  -7421978.86401      1373.348          44.568           0.000 0         0.00000         0.000           0.000  
G16  23843642.688 5         0.00000      1612.943          31.747           0.000 0         0.00000         0.000           0.000  
G18  20737323.653 6         0.00000       234.963          26.519           0.000 0         0.00000         0.000           0.000  
G20  24935001.450 6         0.00000     -3972.247          23.784           0.000 0         0.00000         0.000           0.000  
G23  21486519.382 6         0.00000      1946.701          27.624           0.000 0         0.00000         0.000           0.000  
G25  24281949.457 4  17143564.38502     -4207.440          39.993    24281958.148 6         0.00000     -3143.505          25.435  
G26  22578505.323 4  -4364436.52102      -288.478          40.155           0.000 0         0.00000         0.000           0.000  
G29  20637777.856 4   2852956.14302     -1647.698          39.689           0.000 0         0.00000         0.000           0.000  
R05  21583244.735 5   -689600.45701      3450.424          44.291  
R20  21597030.390 6   -739172.89907      1767.177          28.431  
R19  20195200.547 6   2928250.74407      -965.441          29.043  
R04  19798080.166 5  -7732498.89201       106.673          43.913  
J02  43312092.653 5    108477.89905      -397.874          31.893           0.000 0         0.00000         0.000           0.000  
C19  23406706.268 3 -11674994.06702      2405.937          42.569  
C20  22290849.965 3   -107118.77702      -152.679          40.853  
C29  21601200.189 3  -1437609.99403      -176.813          36.272  
C30  23680259.388 2   8993157.38101     -2570.491          46.711  
C32  24902823.528 3   9238139.64702     -3040.926          38.569  
E01  25756441.186 4   3261680.42802     -1747.864          39.785           0.000 0         0.00000         0.000           0.000  
E07  25641862.306 3  -2763236.17201      1784.132          45.474    25641864.104 4  -2116018.23008      1332.360          30.289  
E08  23764666.563 3    -47862.94101      -513.594          44.344    23764667.156 4    -48377.61106      -383.244          32.445  
E13  24549769.047 4   6827129.99902     -1727.429          38.311    24549762.154 5   5098602.78409     -1289.852          27.679  
E21  26624307.663 5  13040013.26103     -3434.194          35.078    26624306.476 6         0.00000     -2563.617          24.979  
E26  23531591.107 4  -1080616.92602       169.226          40.746    23531585.418 5   -814241.35509       126.020          27.542  
> 2021 07 14 20 51 23.9996552  0 26
G05  22247115.340 3  10997073.72501     -3493.913          47.672           0.000 0         0.00000         0.000           0.000  
G10  24268227.356 5   -311538.39209      2828.038          29.965           0.000 0         0.00000         0.000           0.000  
G13  23396158.065 4  -3064108.59402       363.859          38.368           0.000 0         0.00000         0.000           0.000  
G15  22201740.551 3  -7423351.76901      1372.676          45.449           0.000 0         0.00000         0.000           0.000  
G16  23843333.907 5  -2932998.43609      1612.566          30.857           0.000 0         0.00000         0.000           0.000  
G18  20737269.086 6         0.00000       237.869          24.194           0.000 0         0.00000         0.000           0.000  
G20  24935759.331 6         0.00000     -3972.229          24.106           0.000 0         0.00000         0.000           0.000  
G23  21486132.947 5         0.00000      1944.931          29.354           0.000 0         0.00000         0.000           0.000  
G25  24282752.289 4  17147771.70402     -4207.329          40.272    24282758.589 6         0.00000     -3142.567          25.191  
G26  22578561.390 4  -4364147.55502      -289.584          39.627    22578559.279 6         0.00000      -216.021          26.431  
G29  20638094.438 4   2854603.98302     -1647.891          40.149           0.000 0         0.00000         0.000           0.000  
R05  21582603.178 5   -693050.56201      3449.866          44.386  
R20  21596702.116 6   -740940.72207      1767.449          28.794  
R19  20195385.520 6   2929216.12906      -965.276          29.565  
R04  19798061.582 5  -7732605.05901       105.693          44.475  
C19  23406243.086 3 -11677399.60602      2405.519          41.246  
C20  22290879.037 3   -106965.30902      -153.755          39.792  
C29  21601232.873 4  -1437432.66003      -177.508          34.975  
C30  23680752.846 2   8995728.00601     -2570.853          47.146  
C32  24903404.533 3   9241180.71702     -3041.349          38.368  
E01  25756770.960 4   3263428.37302     -1748.529          40.174           0.000 0         0.00000         0.000           0.000  
E07  25641519.043 3  -2765020.01901      1783.604          45.255    25641524.138 4  -2117350.30408      1331.924          30.331  
E08  23764761.300 4    -47349.15901      -514.217          43.942    23764765.191 4    -47993.93006      -383.802          32.753  
E13  24550097.321 4   6828857.52402     -1727.669          40.512    24550089.521 5   5099892.79009     -1290.083          27.293  
E21  26624959.725 5  13043447.51103     -3434.543          34.863    26624960.022 6         0.00000     -2564.059          25.174  
E26  23531558.736 4  -1080785.98002       168.779          40.720           0.000 0         0.00000         0.000           0.000  
> 2021 07 14 20 51 24.9996552  0 27
G05  22247779.373 3  11000567.79801     -3494.242          47.450           0.000 0         0.00000         0.000           0.000  
G10  24267690.431 5   -314365.33806      2826.820          29.977           0.000 0         0.00000         0.000           0.000  
G13  23396088.229 4  -3064471.90803       363.096          38.107           0.000 0         0.00000         0.000           0.000  
G15  22201480.333 3  -7424724.02101      1371.973          45.527           0.000 0         0.00000         0.000           0.000  
G16  23843026.015 5  -2934610.19405      1612.440          31.171           0.000 0         0.00000         0.000           0.000  
G18  20737231.917 6         0.00000       237.160          20.486           0.000 0         0.00000         0.000           0.000  
G20  24936513.913 6         0.00000     -3972.044          24.344           0.000 0         0.00000         0.000           0.000  
G23  21485767.802 5 -11397665.55006      1944.350          30.539           0.000 0         0.00000         0.000           0.000  
G25  24283551.248 4  17151979.21302     -4207.626          40.582           0.000 0         0.00000         0.000           0.000  
G26  22578615.049 4  -4363857.87302      -290.122          39.566    22578615.049 5         0.00000      -217.088          26.459  
G29  20638406.517 4   2856252.50702     -1648.681          39.975           0.000 0         0.00000         0.000           0.000  
R05  21581960.713 5   -696500.17501      3449.458          44.449  
R20  21596358.557 6   -742708.34807      1768.238          28.679  
R19  20195563.896 6   2930182.01606      -965.990          30.211  
R04  19798038.495 5  -7732710.10001       104.498          44.547  
J02  43312251.555 5    109273.97105      -397.926          31.941           0.000 0         0.00000         0.000           0.000  
C19  23405779.905 3 -11679804.73302      2405.108          40.837  
C20  22290904.829 3   -106811.21202      -154.404          38.482  
C29  21601267.948 4  -1437254.91304      -177.763          34.333  
C30  23681247.804 2   8998298.95701     -2570.901          47.367  
C32  24903988.522 3   9244222.25002     -3041.673          38.432  
E01  25757109.128 4   3265176.84102     -1748.806          39.747           0.000 0         0.00000         0.000           0.000  
E07  25641179.968 3  -2766803.48201      1783.246          44.950    25641183.877 5  -2118682.09608      1331.684          29.698  
E08  23764860.819 4    -46834.76601      -514.682          44.108    23764862.319 3    -47609.79006      -384.311          32.818  
E13  24550424.094 4   6830585.26702     -1727.854          40.904    24550419.888 6         0.00000     -1289.699          27.118  
E21  26625613.271 5  13046881.90903     -3434.656          35.567    26625613.567 6         0.00000     -2563.392          24.700  
E26  23531524.866 4  -1080954.79002       168.568          40.851    23531521.271 5         0.00000       126.004          27.439  
> 2021 07 14 20 51 25.9996552  0 26
G05  22248444.610 3  11004062.10101     -3494.475          47.047           0.000 0         0.00000         0.000           0.000  
G10  24267159.490 5         0.00000      2826.962          28.376           0.000 0         0.00000         0.000           0.000  
G13  23396019.562 4  -3064834.82603       362.482          37.218           0.000 0         0.00000         0.000           0.000  
G15  22201220.115 3  -7426095.88101      1371.424          45.705           0.000 0         0.00000         0.000           0.000  
G16  23842714.825 5  -2936222.02106      1611.906          30.561           0.000 0         0.00000         0.000           0.000  
G20  24937268.792 6         0.00000     -3971.959          25.157           0.000 0         0.00000         0.000           0.000  
G23  21485395.466 5 -11399610.34705      1944.402          32.392           0.000 0         0.00000         0.000           0.000  
G25  24284351.689 4  17156186.55402     -4207.430          40.288           0.000 0         0.00000         0.000           0.000  
G26  22578666.004 4  -4363567.59902      -290.655          39.095    22578670.506 5  -3310544.16709      -217.217          27.814  
G29  20638718.004 4   2857901.46102     -1649.336          39.931           0.000 0         0.00000         0.000           0.000  
R05  21581306.278 5   -699949.47601      3449.086          43.822  
R20  21596023.687 6         0.00000      1766.858          28.744  
R19  20195745.884 6   2931148.03606      -966.391          30.609  
R04  19798019.317 5  -7732814.36401       103.796          44.364  
J02  43312326.800 5    109671.97205      -398.007          31.767           0.000 0         0.00000         0.000           0.000  
C19  23405320.022 3 -11682209.70702      2404.728          41.862  
C20  22290939.293 3   -106656.56802      -155.064          39.097  
C29  21601295.223 4  -1437076.94404      -177.764          34.702  
C30  23681741.261 2   9000870.07501     -2571.278          47.117  
C32  24904573.715 3   9247264.04202     -3042.193          38.745  
E01  25757439.496 4   3266925.68102     -1749.199          39.147           0.000 0         0.00000         0.000           0.000  
E07  25640842.707 3  -2768586.78601      1783.102          45.335    25640843.911 4  -2120013.71008      1331.009          30.194  
E08  23764957.964 4    -46320.00101      -515.289          44.149    23764960.058 4    -47225.39706      -384.772          32.542  
E13  24550753.257 4   6832312.94602     -1727.478          40.126    24550749.366 6         0.00000     -1290.327          27.187  
E21  26626266.520 5  13050316.26003     -3434.424          35.636           0.000 0         0.00000         0.000           0.000  
E26  23531491.291 4  -1081123.62202       168.632          40.842    23531490.384 5   -814619.85009       125.939          28.120  
> 2021 07 14 20 51 26.9996552  0 27
G05  22249109.551 3  11007556.72401     -3494.934          46.539           0.000 0         0.00000         0.000           0.000  
G10  24266619.563 6         0.00000      2829.094          26.863           0.000 0         0.00000         0.000           0.000  
G13  23395946.725 4  -3065197.06303       361.925          37.200           0.000 0         0.00000         0.000           0.000  
G15  22200960.194 3  -7427467.21801      1371.073          46.568           0.000 0         0.00000         0.000           0.000  
G16  23842410.232 5  -2937833.15205      1610.141          31.654           0.000 0         0.00000         0.000           0.000  
G18  20737147.667 5         0.00000       226.261          30.660           0.000 0         0.00000         0.000           0.000  
G20  24938024.857 6         0.00000     -3972.876          24.094           0.000 0         0.00000         0.000           0.000  
G23  21485021.630 5         0.00000      1942.448          30.124           0.000 0         0.00000         0.000           0.000  
G25  24285150.037 4  17160393.91802     -4207.360          39.378           0.000 0         0.00000         0.000           0.000  
G26  22578724.166 4  -4363276.75502      -291.064          39.081    22578727.167 5         0.00000      -216.950          27.869  
G29  20639030.694 4   2859550.83602     -1649.820          39.195           0.000 0         0.00000         0.000           0.000  
R05  21580660.218 5   -703398.40401      3448.662          43.582  
R20  21595702.899 6         0.00000      1765.395          28.552  
R19  20195917.053 6   2932114.53306      -967.432          30.473  
R04  19797998.936 5  -7732917.68601       103.057          44.287  
J02  43312402.639 5    110070.11104      -398.048          32.622           0.000 0         0.00000         0.000           0.000  
C19  23404856.859 3 -11684614.39802      2404.464          42.499  
C20  22290965.678 3   -106501.39302      -155.562          38.318  
C29  21601325.517 4  -1436898.67504      -178.820          33.827  
C30  23682235.329 2   9003441.40501     -2571.482          47.296  
C32  24905158.018 3   9250306.14802     -3042.433          38.351  
E01  25757774.662 4   3268674.91203     -1749.474          37.946           0.000 0         0.00000         0.000           0.000  
E07  25640499.741 3  -2770369.86501      1782.955          44.808    25640505.447 4  -2121345.32208      1331.840          30.150  
E08  23765057.186 4    -45804.78801      -515.286          43.801    23765058.983 4    -46840.63806      -385.012          33.247  
E13  24551080.937 4   6834040.76102     -1727.843          38.260    24551077.936 5         0.00000     -1290.002          28.088  
E21  26626927.551 5  13053750.82803     -3434.736          35.564    26626920.362 6         0.00000     -2564.184          25.812  
E26  23531461.905 4  -1081292.34402       168.457          40.495    23531457.403 5         0.00000       126.196          28.700  
> 2021 07 14 20 51 27.9996552  0 27
G05  22249775.102 3  11011050.36401     -3491.984          44.931           0.000 0         0.00000         0.000           0.000  
G10  24266073.947 6         0.00000      2825.096          25.073           0.000 0         0.00000         0.000           0.000  
G13  23395878.058 4  -3065560.74803       365.637          36.967           0.000 0         0.00000         0.000           0.000  
G15  22200698.179 3  -7428839.51301      1373.868          45.695           0.000 0         0.00000         0.000           0.000  
G16  23842112.252 5  -2939442.64505      1608.492          31.229           0.000 0         0.00000         0.000           0.000  
G18  20737110.201 5  -3596248.07809       227.649          30.316           0.000 0         0.00000         0.000           0.000  
G20  24938777.642 6         0.00000     -3973.019          23.622           0.000 0         0.00000         0.000           0.000  
G23  21484658.578 5         0.00000      1940.019          31.611           0.000 0         0.00000         0.000           0.000  
G25  24285951.979 4  17164601.72902     -4207.915          39.742           0.000 0         0.00000         0.000           0.000  
G26  22578781.437 4  -4362983.53302      -295.416          39.121    22578781.437 5  -3310108.08209      -220.039          28.184  
G29  20639346.665 4   2861200.07202     -1648.338          41.668           0.000 0         0.00000         0.000           0.000  
R05  21580011.175 5   -706847.03701      3448.794          43.961  
R20  21595364.138 7   -748009.52109      1763.902          27.894  
R19  20196108.919 6   2933080.21009      -964.295          29.391  
R04  19797981.538 5  -7733021.06201       104.185          44.331  
J02  43312475.493 5    110469.75105      -400.308          31.130           0.000 0         0.00000         0.000           0.000  
C19  23404396.976 3 -11687018.32702      2402.964          41.505  
C20  22291000.159 3   -106346.43802      -154.102          41.594  
C29  21601361.778 4         0.00000      -179.357          33.084  
C30  23682727.582 2   9006011.32001     -2567.804          47.298  
C32  24905738.709 3   9253347.18103     -3039.416          37.823  
E01  25758108.328 4   3270426.47002     -1753.768          38.308           0.000 0         0.00000         0.000           0.000  
E07  25640163.685 3  -2772153.65801      1785.424          45.514    25640166.983 4  -2122677.32407      1333.078          30.755  
E08  23765155.518 4    -45290.72701      -512.146          42.900    23765157.612 4    -46456.79406      -382.556          32.461  
E13  24551409.507 4   6835767.32502     -1724.895          38.753    24551406.803 5         0.00000     -1288.302          28.468  
E21  26627577.205 5  13057186.65104     -3437.256          33.866    26627573.611 6         0.00000     -2563.856          23.885  
E26  23531422.625 4  -1081460.17102       166.669          39.786    23531425.033 5   -814871.11409       124.268          28.757  
> 2021 07 14 20 51 28.9996552  0 26
G05  22250437.931 4  11014541.41601     -3489.979          43.797           0.000 0         0.00000         0.000           0.000  
G10  24265537.615 5         0.00000      2825.370          31.636           0.000 0         0.00000         0.000           0.000  
G13  23395811.207 4  -3065928.28102       369.044          38.276           0.000 0         0.00000         0.000           0.000  
G15  22200434.053 4  -7430215.06501      1377.707          44.188           0.000 0         0.00000         0.000           0.000  
G16  23841809.159 6         0.00000      1611.471          27.104           0.000 0         0.00000         0.000           0.000  
G18  20737067.326 5  -3596475.29709       231.903          30.115           0.000 0         0.00000         0.000           0.000  
G23  21484281.444 4 -11405438.56709      1939.255          36.697           0.000 0         0.00000         0.000           0.000  
G25  24286750.030 4  17168809.66702     -4207.400          39.395           0.000 0         0.00000         0.000           0.000  
G26  22578837.487 4  -4362685.62402      -300.258          39.515    22578838.098 5  -3309885.57809      -222.797          26.747  
G29  20639663.858 4   2862847.96102     -1646.790          42.140           0.000 0         0.00000         0.000           0.000  
R05  21579372.305 5   -710296.22901      3450.649          43.424  
R20  21595054.449 6   -749772.59207      1761.144          29.148  
R19  20196289.110 6   2934044.37409      -962.392          30.099  
R04  19797969.253 5  -7733126.06201       105.677          44.797  
J02  43312543.846 5    110873.93505      -405.933          31.223           0.000 0         0.00000         0.000           0.000  
C19  23403937.686 2 -11689421.65201      2403.099          43.655  
C20  22291029.231 3   -106192.92202      -152.543          41.646  
C29  21601397.464 4         0.00000      -178.733          33.414  
C30  23683221.039 2   9008577.54501     -2564.347          46.894  
C32  24906328.997 4         0.00000     -3037.036          35.373  
E01  25758437.805 4   3272182.68002     -1758.510          39.645           0.000 0         0.00000         0.000           0.000  
E07  25639822.219 4  -2773939.99701      1788.035          44.227    25639826.110 4  -2124011.28706      1335.682          32.067  
E08  23765251.162 4    -44780.00802      -509.279          42.366    23765253.850 4    -46075.52006      -380.179          32.284  
E13  24551735.076 4   6837490.99102     -1722.679          39.243    24551733.593 5         0.00000     -1284.868          27.351  
E21  26628218.763 5  13060624.76304     -3438.561          33.424    26628227.453 6         0.00000     -2565.402          23.964  
E26  23531394.443 4  -1081625.95602       164.407          38.544    23531394.443 5         0.00000       123.043          28.920  
> 2021 07 14 20 51 29.9996552  0 27
G05  22251103.482 4  11018030.89802     -3489.814          39.709           0.000 0         0.00000         0.000           0.000  
G10  24265003.690 5         0.00000      2823.521          30.445           0.000 0         0.00000         0.000           0.000  
G13  23395738.963 4  -3066298.98402       371.811          38.562           0.000 0         0.00000         0.000           0.000  
G15  22200170.834 4  -7431594.15601      1380.622          43.784           0.000 0         0.00000         0.000           0.000  
G16  23841508.457 6         0.00000      1603.096          27.011           0.000 0         0.00000         0.000           0.000  
G18  20737010.665 4         0.00000       221.902          41.131           0.000 0         0.00000         0.000           0.000  
G20  24940285.900 6         0.00000     -3966.849          25.446           0.000 0         0.00000         0.000           0.000  
G23  21483907.591 4 -11407378.24809      1940.333          43.377           0.000 0         0.00000         0.000           0.000  
G25  24287550.471 4  17173016.11502     -4205.663          40.253           0.000 0         0.00000         0.000           0.000  
G26  22578895.946 4  -4362382.74802      -305.108          39.562    22578891.147 6         0.00000      -227.673          26.012  
G29  20639977.735 4   2864494.58202     -1646.385          41.575           0.000 0         0.00000         0.000           0.000  
R05  21578729.858 5   -713747.40201      3452.689          46.301  
R20  21594728.881 7         0.00000      1756.160          26.786  
R19  20196467.486 6   2935007.83705      -963.817          31.891  
R04  19797941.961 5  -7733232.54001       107.031          42.845  
J02  43312627.188 5         0.00000      -408.049          28.460           0.000 0         0.00000         0.000           0.000  
C19  23403473.615 2 -11691825.95301      2405.393          46.049  
C20  22291064.306 3   -106041.04103      -151.233          37.736  
C29  21601428.944 4         0.00000      -179.543          34.847  
C30  23683709.104 3   9011139.86301     -2560.727          45.457  
C32  24906908.205 4         0.00000     -3034.313          32.284  
C35  24151752.283 4         0.00000      1794.537          31.744  
E07  25639482.254 3  -2775730.02601      1792.266          45.158    25639485.255 5  -2125348.03808      1337.227          29.605  
E08  23765349.791 4    -44271.91701      -506.896          44.288    23765350.681 5         0.00000      -377.532          29.073  
E13  24552064.850 4   6839212.70402     -1721.636          42.297    24552062.460 5   5107625.93709     -1285.941          27.514  
E21  26628884.297 5  13064063.00504     -3437.374          34.613    26628881.609 6         0.00000     -2566.718          23.666  
E26         0.000 0         0.00000         0.000           0.000    23531363.277 4         0.00000       120.436          30.891  
> 2021 07 14 20 51 30.9996552  0 28
G05  22251766.625 4  11021521.16803     -3489.062          37.704           0.000 0         0.00000         0.000           0.000  
G10  24264463.763 5         0.00000      2821.472          30.173           0.000 0         0.00000         0.000           0.000  
G13  23395668.516 4  -3066671.83802       373.236          37.910           0.000 0         0.00000         0.000           0.000  
G15  22199909.115 3  -7432976.86101      1384.198          46.362           0.000 0         0.00000         0.000           0.000  
G16  23841190.078 6         0.00000      1595.709          27.245           0.000 0         0.00000         0.000           0.000  
G18  20736971.088 3  -3596925.90301       219.286          45.293           0.000 0         0.00000         0.000           0.000  
G20  24941023.381 6         0.00000     -3962.314          26.755           0.000 0         0.00000         0.000           0.000  
G23  21483536.756 4 -11409318.17801      1941.242          43.366           0.000 0         0.00000         0.000           0.000  
G25  24288350.319 4  17177218.40202     -4200.149          41.937           0.000 0         0.00000         0.000           0.000  
G26  22578955.608 4         0.00000      -306.041          36.459    22578954.404 6  -3309429.45909      -231.332          28.113  
G29  20640291.612 4   2866140.08702     -1645.192          42.126           0.000 0         0.00000         0.000           0.000  
R05  21578079.296 5   -717202.36901      3456.600          47.382  
R20  21594399.106 7         0.00000      1752.985          24.832  
R19  20196655.442 6   2935971.57709      -963.812          29.169  
R04  19797923.394 5  -7733339.81701       106.959          42.500  
J02  43312705.138 5         0.00000      -414.578          28.463           0.000 0         0.00000         0.000           0.000  
C19  23403010.137 3 -11694233.15202      2408.139          42.404  
C20  22291087.096 3   -105890.29103      -150.488          36.662  
C29  21601467.003 3  -1436181.49409      -181.272          39.340  
C30  23684201.061 2   9013699.01001     -2558.200          48.030  
C32  24907490.693 4         0.00000     -3036.647          31.897  
C35  24151411.114 3  -8021262.40509      1787.790          38.508  
E01  25759110.843 4   3275706.13103     -1765.343          36.471    25759104.840 7         0.00000     -1309.230          23.289  
E07  25639141.381 4  -2777524.02501      1795.736          43.854    25639144.382 4         0.00000      1340.852          30.816  
E08  23765446.326 4    -43765.01101      -506.825          43.694    23765445.122 6         0.00000      -379.477          27.442  
E13  24552395.532 4   6840933.59501     -1719.345          42.650    24552391.920 6         0.00000     -1283.599          25.877  
E21  26629536.656 4  13067499.74303     -3435.547          36.661           0.000 0         0.00000         0.000           0.000  
E26  23531325.794 4  -1081948.15202       157.558          40.887    23531327.294 6         0.00000       100.306          26.176  
> 2021 07 14 20 51 31.9996552  0 28
G05  22252436.347 5         0.00000     -3487.231          34.984           0.000 0         0.00000         0.000           0.000  
G10  24263922.929 5         0.00000      2826.007          35.752           0.000 0         0.00000         0.000           0.000  
G13  23395598.052 4  -3067046.04802       376.254          42.164           0.000 0         0.00000         0.000           0.000  
G15  22199646.507 3  -7434363.05401      1388.093          50.290           0.000 0         0.00000         0.000           0.000  
G16  23840884.001 6         0.00000      1592.874          25.873           0.000 0         0.00000         0.000           0.000  
G18  20736926.712 4  -3597143.98702       217.017          39.209           0.000 0         0.00000         0.000           0.000  
G20  24941783.355 6         0.00000     -3967.194          27.454           0.000 0         0.00000         0.000           0.000  
G23  21483165.014 4 -11411259.76401      1942.070          43.031           0.000 0         0.00000         0.000           0.000  
G25  24289148.370 4  17181416.27001     -4195.827          42.943           0.000 0         0.00000         0.000           0.000  
G26  22579016.160 4  -4361763.59909      -314.934          38.728    22579017.661 6         0.00000      -252.859          24.284  
G29  20640605.507 4   2867784.27902     -1643.414          40.202           0.000 0         0.00000         0.000           0.000  
R05  21577428.159 5   -720661.73701      3461.185          46.272  
R19  20196818.235 7         0.00000      -965.262          25.520  
R04  19797905.996 5  -7733448.30602       109.412          41.521  
J02  43312780.680 5         0.00000      -420.235          29.387           0.000 0         0.00000         0.000           0.000  
C19  23402548.142 3 -11696643.83701      2412.540          45.680  
C20  22291115.872 3   -105740.81502      -148.466          38.722  
C26  26062557.757 4         0.00000     -1583.456          31.959  
C29  21601499.094 3  -1435999.13809      -182.642          41.234  
C30  23684695.722 2   9016255.07001     -2554.145          48.272  
C32  24908076.200 4         0.00000     -3041.680          30.206  
C35  24151058.567 3  -8023047.64609      1783.057          36.741  
E01  25759444.212 4   3277471.96402     -1766.022          38.837           0.000 0         0.00000         0.000           0.000  
E07  25638797.228 4  -2779322.60402      1801.020          42.493    25638802.620 5  -2128030.95109      1345.026          28.700  
E08  23765542.546 4    -43259.58403      -502.915          37.548    23765541.046 6         0.00000      -380.718          25.608  
E13  24552722.898 4         0.00000     -1720.629          38.953    24552722.601 6         0.00000     -1285.418          26.895  
E21  26630187.200 4  13070933.91802     -3432.821          41.366           0.000 0         0.00000         0.000           0.000  
E26  23531308.116 4  -1082104.49803       155.087          37.039    23531301.206 5         0.00000       115.859          29.156  
> 2021 07 14 20 51 32.9996552  0 28
G05  22253103.085 5         0.00000     -3496.834          35.029           0.000 0         0.00000         0.000           0.000  
G10  24263380.000 4   -336969.94509      2830.913          42.365           0.000 0         0.00000         0.000           0.000  
G13  23395529.403 4         0.00000       373.394          39.202           0.000 0         0.00000         0.000           0.000  
G15  22199380.880 3  -7435752.11601      1390.028          46.462           0.000 0         0.00000         0.000           0.000  
G16  23840582.112 5         0.00000      1584.778          31.007           0.000 0         0.00000         0.000           0.000  
G18  20736888.339 4  -3597359.83202       214.962          41.204           0.000 0         0.00000         0.000           0.000  
G20  24942537.030 6         0.00000     -3968.914          24.600           0.000 0         0.00000         0.000           0.000  
G23  21482796.274 3 -11413204.44001      1946.176          48.112           0.000 0         0.00000         0.000           0.000  
G25  24289947.311 4  17185607.77601     -4187.401          42.813           0.000 0         0.00000         0.000           0.000  
G26  22579076.119 4  -4361448.20109      -316.270          38.139    22579072.228 6  -3308961.95209      -234.846          27.129  
G29  20640913.992 4   2869427.22303     -1642.447          37.860           0.000 0         0.00000         0.000           0.000  
R05  21576787.806 5   -724126.72601      3467.165          45.234  
R20  21593716.471 6   -756774.86709      1737.092          28.486  
R19  20196999.613 7   2937894.86109      -966.682          27.006  
R04  19797887.115 5  -7733557.62602       109.342          42.341  
J02  43312860.724 5    112532.34509      -425.384          30.361           0.000 0         0.00000         0.000           0.000  
C19  23402085.572 2 -11699059.62201      2418.005          47.211  
C20  22291145.555 3   -105592.89601      -147.722          43.081  
C26  26062863.258 4         0.00000     -1584.228          32.247  
C29  21601533.872 3  -1435815.72502      -184.276          42.432  
C30  23685184.992 2   9018808.54201     -2553.373          47.441  
C32  24908672.178 4         0.00000     -3039.806          28.313  
C35  24150718.009 4  -8024828.11904      1779.850          33.793  
E07  25638455.465 4  -2781126.07001      1805.015          42.863    25638459.357 6         0.00000      1349.191          25.881  
E08  23765640.285 4         0.00000      -503.643          36.670    23765640.285 7         0.00000      -377.744          22.521  
E13  24553049.967 5         0.00000     -1722.734          36.206    24553049.671 6   5111482.98409     -1289.202          25.846  
E21  26630840.152 4  13074363.04002     -3426.187          39.113           0.000 0         0.00000         0.000           0.000  
E26         0.000 0         0.00000         0.000           0.000    23531269.743 5   -815468.85208       114.131          29.605  
> 2021 07 14 20 51 33.9996552  0 29
G05  22253762.337 4  11031997.93609     -3500.014          37.333           0.000 0         0.00000         0.000           0.000  
G10  24262840.387 4   -339802.42809      2835.149          44.128           0.000 0         0.00000         0.000           0.000  
G13  23395454.454 4  -3067793.60109       370.280          39.665           0.000 0         0.00000         0.000           0.000  
G15  22199115.863 3  -7437142.49301      1389.744          45.085           0.000 0         0.00000         0.000           0.000  
G16  23840281.707 5         0.00000      1574.843          34.661           0.000 0         0.00000         0.000           0.000  
G18  20736846.075 4  -3597574.05002       213.378          39.344           0.000 0         0.00000         0.000           0.000  
G20  24943295.504 6         0.00000     -3970.333          24.785           0.000 0         0.00000         0.000           0.000  
G23  21482426.626 3 -11415151.48701      1948.494          47.209           0.000 0         0.00000         0.000           0.000  
G25  24290742.971 4  17189794.79502     -4184.317          41.756           0.000 0         0.00000         0.000           0.000  
G26  22579135.188 4  -4361131.45509      -317.126          40.549           0.000 0         0.00000         0.000           0.000  
G29  20641228.462 4   2871069.65802     -1642.874          40.898           0.000 0         0.00000         0.000           0.000  
R05  21576133.649 5   -727595.48401      3470.023          46.133  
R20  21593407.986 7         0.00000      1731.111          24.971  
R19  20197187.586 7         0.00000      -974.160          27.738  
R04  19797862.231 5  -7733666.53001       108.231          44.365  
J02  43312935.970 5    112959.22309      -427.919          34.802           0.000 0         0.00000         0.000           0.000  
C19  23401621.187 2 -11701479.08201      2421.158          45.955  
C20  22291170.439 2   -105445.14801      -148.278          43.891  
C26  26063164.239 4   5042719.56609     -1587.271          34.064  
C29  21601571.041 3  -1435630.77602      -185.598          40.986  
C30  23685678.745 2   9021361.23301     -2553.956          47.162  
C32  24909247.180 4         0.00000     -3046.471          31.568  
C35  24150380.138 4  -8026606.97503      1777.670          35.401  
E01  25760116.638 4   3281005.16002     -1766.265          41.131    25760116.045 7         0.00000     -1320.286          26.565  
E07  25638112.795 3  -2782932.21601      1806.829          47.427    25638113.999 7         0.00000      1354.895          23.240  
E08  23765738.320 5         0.00000      -504.521          35.215           0.000 0         0.00000         0.000           0.000  
E13  24553376.147 5   6846099.74403     -1725.094          36.016    24553380.352 6         0.00000     -1287.944          24.337  
E21  26631488.899 4  13077788.60301     -3423.095          42.637           0.000 0         0.00000         0.000           0.000  
E26         0.000 0         0.00000         0.000           0.000    23531240.951 6         0.00000       108.630          25.963  
> 2021 07 14 20 51 34.9996552  0 28
G05  22254431.466 4  11035500.31309     -3503.207          39.013           0.000 0         0.00000         0.000           0.000  
G10  24262300.756 3   -342639.65209      2839.974          45.341    24262309.447 6         0.00000      2114.488          25.770  
G13  23395385.509 4  -3068161.95109       364.273          38.590           0.000 0         0.00000         0.000           0.000  
G15  22198852.941 3  -7438530.52301      1385.833          46.487           0.000 0         0.00000         0.000           0.000  
G16  23839983.116 5  -2950586.85109      1578.513          32.855           0.000 0         0.00000         0.000           0.000  
G18  20736808.609 4  -3597787.86202       214.312          38.661           0.000 0         0.00000         0.000           0.000  
G20  24944054.885 6         0.00000     -3971.469          24.434           0.000 0         0.00000         0.000           0.000  
G23  21482055.774 3 -11417101.42401      1950.890          46.765           0.000 0         0.00000         0.000           0.000  
G25  24291539.521 4  17193978.21701     -4181.515          43.317           0.000 0         0.00000         0.000           0.000  
G26  22579196.648 4  -4360816.28609      -313.254          39.277    22579191.238 6         0.00000      -234.991          25.501  
G29  20641542.356 4   2872713.89802     -1645.353          40.473           0.000 0         0.00000         0.000           0.000  
R05  21575489.702 5   -731066.27301      3471.608          47.108  
R20  21593084.529 7         0.00000      1733.471          23.564  
R19  20197375.839 6         0.00000      -981.217          28.552  
R04  19797848.742 5  -7733772.57402       103.759          41.737  
J02  43313019.608 4    113384.76809      -423.990          36.528           0.000 0         0.00000         0.000           0.000  
C19  23401155.318 2 -11703901.17601      2422.619          45.930  
C20  22291202.512 3   -105295.36201      -151.603          43.274  
C26  26063470.334 4         0.00000     -1584.897          33.482  
C29  21601605.209 3  -1435444.39801      -187.510          42.912  
C30  23686170.702 3         0.00000     -2555.129          42.495  
C32  24909827.574 4         0.00000     -3055.070          31.313  
C35  24150040.766 3  -8028386.20203      1779.890          36.460  
E01  25760452.101 4   3282768.53102     -1762.336          38.460    25760454.806 6         0.00000     -1315.855          27.922  
E07  25637768.642 3  -2784737.79601      1803.724          47.089    25637771.033 4         0.00000      1349.021          30.780  
E13  24553705.014 5         0.00000     -1726.672          32.155           0.000 0         0.00000         0.000           0.000  
E21  26632140.943 4  13081209.77101     -3419.777          43.839           0.000 0         0.00000         0.000           0.000  
E26  23531215.177 5  -1082562.91604       152.311          33.971    23531213.379 6         0.00000       114.373          24.987  
> 2021 07 14 20 51 35.9996552  0 27
G05  22255099.408 4         0.00000     -3504.605          39.601           0.000 0         0.00000         0.000           0.000  
G10  24261759.329 4   -345480.27009      2841.154          43.683    24261765.628 6         0.00000      2122.375          24.172  
G15  22198590.333 4  -7439914.74902      1383.740          41.524           0.000 0         0.00000         0.000           0.000  
G16  23839679.726 5         0.00000      1580.078          33.386           0.000 0         0.00000         0.000           0.000  
G18  20736770.533 4  -3598002.82902       217.084          39.909           0.000 0         0.00000         0.000           0.000  
G20  24944812.765 6         0.00000     -3974.821          24.539           0.000 0         0.00000         0.000           0.000  
G23  21481683.439 3 -11419053.23101      1952.441          44.840           0.000 0         0.00000         0.000           0.000  
G25  24292335.164 4  17198159.79901     -4181.786          44.075           0.000 0         0.00000         0.000           0.000  
G26  22579255.403 4  -4360503.68509      -312.343          38.921    22579253.309 4  -3308256.83307      -232.378          30.724  
G29  20641856.530 3   2874360.53201     -1646.974          44.996           0.000 0         0.00000         0.000           0.000  
R05  21574835.249 5   -734536.96801      3470.078          46.166  
R20  21592759.240 7         0.00000      1734.679          22.470  
R19  20197547.340 6         0.00000      -978.354          29.841  
R04  19797828.360 5  -7733874.98902       101.598          40.622  
J02  43313101.153 5    113807.92109      -420.649          33.694           0.000 0         0.00000         0.000           0.000  
C19  23400690.637 3 -11706324.36101      2423.265          44.751  
C20  22291230.101 2   -105143.06901      -152.605          46.692  
C26  26063778.225 4         0.00000     -1573.517          29.397  
C29  21601641.191 3  -1435256.68902      -187.418          40.555  
C30  23686654.858 3   9026475.01109     -2560.640          39.128  
C32  24910420.864 4         0.00000     -3057.383          33.095  
C35  24149697.503 4  -8030167.75303      1784.424          35.005  
E01  25760786.971 4   3284528.66302     -1758.997          39.947           0.000 0         0.00000         0.000           0.000  
E07  25637425.082 4  -2786541.32001      1803.256          44.067    25637428.380 5  -2133396.71409      1345.531          28.585  
E08  23765938.579 5         0.00000      -519.662          32.821    23765931.686 5         0.00000      -386.922          30.742  
E13  24554039.587 4   6849556.69003     -1731.609          36.223           0.000 0         0.00000         0.000           0.000  
E26  23531186.087 4  -1082715.63703       153.791          36.380    23531186.087 6   -815809.70809       112.298          24.728  
> 2021 07 14 20 51 36.9996552  0 28
G05  22255767.943 4  11042514.24902     -3507.632          39.658           0.000 0         0.00000         0.000           0.000  
G10  24261219.401 4   -348322.10302      2842.999          39.283    24261222.403 6         0.00000      2125.489          24.993  
G13  23395252.992 5         0.00000       360.199          31.739           0.000 0         0.00000         0.000           0.000  
G15  22198332.209 4  -7441292.86802      1369.931          38.140           0.000 0         0.00000         0.000           0.000  
G16  23839375.744 6         0.00000      1580.778          32.490           0.000 0         0.00000         0.000           0.000  
G18  20736726.750 4  -3598219.40503       217.324          36.736           0.000 0         0.00000         0.000           0.000  
G20  24945567.941 6         0.00000     -3978.643          23.276           0.000 0         0.00000         0.000           0.000  
G23  21481311.697 4 -11421005.98502      1952.552          42.490           0.000 0         0.00000         0.000           0.000  
G26  22579311.156 4  -4360192.58302      -310.203          40.542    22579310.859 4  -3308024.83907      -231.636          31.512  
G29  20642170.721 3   2876007.64601     -1647.086          45.708           0.000 0         0.00000         0.000           0.000  
R05  21574191.597 5   -738007.26701      3469.702          47.841  
R20  21592421.683 7         0.00000      1742.274          27.833  
R19  20197728.403 6   2941795.27505      -977.545          30.691  
R04  19797810.351 5  -7733976.21303       101.257          37.639  
J02  43313183.902 5    114229.29409      -419.769          34.834           0.000 0         0.00000         0.000           0.000  
C19  23400224.157 3 -11708747.81401      2422.784          45.338  
C20  22291261.284 3   -104989.92601      -153.404          45.264  
C26  26064078.910 5         0.00000     -1563.678          26.395  
C29  21601677.470 3  -1435069.43102      -187.000          40.716  
C30  23687153.114 3         0.00000     -2561.873          38.611  
C32  24911006.965 4         0.00000     -3056.991          33.713  
C35  24149355.740 3  -8031951.79502      1784.907          39.323  
E01  25761121.544 4   3286286.85402     -1757.900          42.514    25761125.139 4   2448218.82806     -1312.969          32.228  
E07  25637081.819 4  -2788343.74101      1801.917          43.594    25637085.710 6         0.00000      1344.876          26.537  
E08  23766030.611 4    -40696.14503      -519.983          36.313    23766032.409 6         0.00000      -394.856          28.011  
E13  24554359.467 5   6851288.39404     -1731.642          34.357           0.000 0         0.00000         0.000           0.000  
E21  26633445.941 4  13088045.05002     -3418.086          38.969    26633449.239 6         0.00000     -2556.088          26.832  
E26  23531159.720 4  -1082869.85502       155.180          39.119    23531159.109 6         0.00000       110.553          24.177  
> 2021 07 14 20 51 37.9996552  0 27
G05  22256435.292 4  11046019.78802     -3503.858          38.630           0.000 0         0.00000         0.000           0.000  
G10  24260681.882 4         0.00000      2834.012          36.732    24260680.678 6         0.00000      2116.349          24.128  
G13  23395184.639 5         0.00000       364.265          31.764           0.000 0         0.00000         0.000           0.000  
G15  22198070.787 5         0.00000      1379.573          34.983           0.000 0         0.00000         0.000           0.000  
G16  23839075.042 5  -2955329.27709      1582.137          33.268           0.000 0         0.00000         0.000           0.000  
G18  20736685.690 4  -3598436.14303       216.777          36.780           0.000 0         0.00000         0.000           0.000  
G20  24946330.603 6         0.00000     -3983.036          25.471           0.000 0         0.00000         0.000           0.000  
G23  21480940.845 4 -11422955.99301      1947.275          42.600           0.000 0         0.00000         0.000           0.000  
G25  24293926.467 3  17206525.64801     -4187.122          45.614    24293933.656 6         0.00000     -3121.623          24.094  
G26  22579370.818 4  -4359880.66802      -313.090          41.412    22579369.318 4  -3307791.74608      -234.543          30.508  
G29  20642482.801 4   2877654.67801     -1647.347          44.214           0.000 0         0.00000         0.000           0.000  
R05  21573541.053 5   -741475.06001      3465.643          47.779  
R20  21592100.895 6         0.00000      1748.611          30.233  
R19  20197919.065 6   2942770.90406      -974.282          30.123  
R04  19797796.269 5  -7734077.56703       101.267          37.379  
J02  43313261.852 5    114649.75409      -420.606          35.056    43313267.541 7         0.00000      -314.996          22.854  
C19  23399759.772 2 -11711168.70101      2418.918          44.413  
C20  22291291.857 3   -104836.83501      -153.481          45.329  
C29  21601714.936 3  -1434883.19001      -185.837          42.690  
C30  23687641.179 3   9031596.67609     -2560.718          38.478  
C32  24911598.160 4         0.00000     -3053.010          31.403  
C35  24149013.088 3  -8033736.06602      1783.794          39.977  
E01  25761457.007 4   3288047.19802     -1762.299          42.566    25761460.008 4   2449533.27006     -1316.040          32.525  
E07  25636743.355 4         0.00000      1798.742          39.572    25636740.353 7         0.00000      1344.501          22.739  
E08  23766134.650 5    -40178.71403      -516.401          36.046           0.000 0         0.00000         0.000           0.000  
E13  24554694.930 5   6853017.76003     -1727.926          35.442           0.000 0         0.00000         0.000           0.000  
E21  26634094.094 4         0.00000     -3421.267          37.864    26634098.893 6         0.00000     -2556.970          27.103  
> 2021 07 14 20 51 38.9996552  0 27
G05  22257098.435 4  11049521.52302     -3500.797          39.597           0.000 0         0.00000         0.000           0.000  
G10  24260141.641 4   -353993.49309      2831.323          43.138    24260142.548 6         0.00000      2111.701          25.935  
G13  23395115.100 5         0.00000       365.671          33.575           0.000 0         0.00000         0.000           0.000  
G15  22197807.865 5         0.00000      1378.423          33.684           0.000 0         0.00000         0.000           0.000  
G16  23838775.858 5  -2956913.89709      1587.511          36.192           0.000 0         0.00000         0.000           0.000  
G18  20736643.111 4  -3598654.22003       218.912          37.032           0.000 0         0.00000         0.000           0.000  
G20  24947087.890 6         0.00000     -3981.807          25.228           0.000 0         0.00000         0.000           0.000  
G23  21480570.010 3 -11424902.29101      1944.701          44.396           0.000 0         0.00000         0.000           0.000  
G25  24294724.814 3  17210715.50401     -4192.821          46.587    24294728.705 7         0.00000     -3122.861          23.241  
G26  22579432.278 4  -4359568.94502      -310.605          41.344    22579430.184 5  -3307559.04209      -232.011          28.858  
G29  20642797.289 4         0.00000     -1644.382          40.192           0.000 0         0.00000         0.000           0.000  
R05  21572894.104 5   -744937.66801      3460.041          45.602  
R20  21591766.340 7         0.00000      1746.095          26.139  
R19  20198098.941 7         0.00000      -970.508          27.852  
R04  19797761.805 5  -7734178.26702       101.393          38.165  
J02  43313340.989 5    115067.31109      -414.777          33.808           0.000 0         0.00000         0.000           0.000  
C19  23399294.200 2 -11713584.69801      2413.158          44.574  
C20  22291323.634 3         0.00000      -151.020          40.052  
C26  26064684.781 4         0.00000     -1575.941          32.522  
C29  21601752.715 3  -1434698.34601      -184.037          42.836  
C32  24912177.647 4         0.00000     -3050.142          34.269  
C35  24148668.917 3         0.00000      1789.158          36.923  
E01  25761792.470 4   3289808.85102     -1761.152          41.637    25761795.471 5         0.00000     -1315.540          30.051  
E07  25636399.184 5         0.00000      1800.304          36.199           0.000 0         0.00000         0.000           0.000  
E08  23766233.575 5         0.00000      -525.488          31.912           0.000 0         0.00000         0.000           0.000  
E21  26634744.952 4  13094890.42601     -3427.376          42.905    26634749.734 5         0.00000     -2559.097          28.854  
E26  23531093.165 4  -1083182.28803       158.874          36.926           0.000 0         0.00000         0.000           0.000  
> 2021 07 14 20 51 39.9996552  0 28
G05  22257764.859 4  11053020.36502     -3494.039          38.308           0.000 0         0.00000         0.000           0.000  
G10  24259602.325 3   -356823.44009      2829.446          44.875    24259603.529 7         0.00000      2117.538          22.192  
G13  23395048.842 5         0.00000       364.951          34.722           0.000 0         0.00000         0.000           0.000  
G15  22197537.160 5         0.00000      1375.851          34.470           0.000 0         0.00000         0.000           0.000  
G16  23838472.171 4  -2958502.25609      1589.632          36.279           0.000 0         0.00000         0.000           0.000  
G18  20736599.346 4  -3598874.03703       221.233          38.030           0.000 0         0.00000         0.000           0.000  
G20  24947846.957 6         0.00000     -3981.625          24.960           0.000 0         0.00000         0.000           0.000  
G23  21480201.269 3 -11426845.62901      1942.285          47.274           0.000 0         0.00000         0.000           0.000  
G25  24295524.348 4  17214910.29702     -4195.363          42.450    24295524.052 7         0.00000     -3125.496          22.899  
G26  22579491.644 4  -4359258.85702      -309.572          41.500    22579490.736 6         0.00000      -236.286          25.998  
G29  20643107.868 5         0.00000     -1650.589          36.061           0.000 0         0.00000         0.000           0.000  
R05  21572243.542 5   -748395.33201      3456.693          45.509  
R20  21591429.655 7         0.00000      1762.485          25.216  
R19  20198274.630 7         0.00000      -972.317          26.683  
R04  19797755.802 6         0.00000        97.449          35.036  
J02  43313421.033 5         0.00000      -412.137          33.592           0.000 0         0.00000         0.000           0.000  
C19  23398833.724 2 -11715996.52401      2411.200          43.639  
C20  22291351.223 3         0.00000      -152.408          36.338  
C26  26064991.172 5         0.00000     -1582.179          31.662  
C29  21601788.994 3         0.00000      -186.862          37.802  
C30  23688627.204 4         0.00000     -2562.870          33.496  
C32  24912765.842 4         0.00000     -3042.988          32.580  
C35  24148325.357 4         0.00000      1800.774          33.522  
E01  25762128.544 4   3291570.43502     -1760.998          42.118    25762130.638 5   2452164.24409     -1314.651          28.831  
E07  25636056.532 5         0.00000      1793.206          34.733           0.000 0         0.00000         0.000           0.000  
E21  26635397.294 4  13098319.38502     -3429.764          42.380    26635406.281 6         0.00000     -2554.749          25.010  
E08         0.000 0         0.00000         0.000           0.000    23766323.513 6         0.00000      -384.412          26.777  
E13         0.000 0         0.00000         0.000           0.000    24555353.571 7         0.00000     -1291.623          22.879  
> 2021 07 14 20 51 40.9996552  0 26
G05  22258432.504 5         0.00000     -3498.348          35.510           0.000 0         0.00000         0.000           0.000  
G10  24259064.195 4   -359651.81409      2830.277          43.604    24259067.196 6         0.00000      2108.737          23.984  
G13  23394977.191 5         0.00000       355.528          33.780           0.000 0         0.00000         0.000           0.000  
G15  22197280.240 5         0.00000      1370.281          35.744           0.000 0         0.00000         0.000           0.000  
G16  23838170.265 5  -2960092.78809      1591.504          35.267           0.000 0         0.00000         0.000           0.000  
G18  20736559.769 4         0.00000       225.184          37.468           0.000 0         0.00000         0.000           0.000  
G20  24948604.837 6         0.00000     -3979.872          24.871           0.000 0         0.00000         0.000           0.000  
G23  21479831.325 3 -11428787.07101      1943.155          45.049           0.000 0         0.00000         0.000           0.000  
G26  22579550.399 4  -4358949.62802      -307.085          39.863    22579548.601 6  -3307096.71209      -227.571          25.503  
G29  20643423.542 5         0.00000     -1654.468          33.345           0.000 0         0.00000         0.000           0.000  
R05  21571597.204 5   -751849.61401      3454.376          47.831  
R20  21591103.493 7         0.00000      1761.175          23.898  
R19  20198467.699 7         0.00000      -972.331          24.416  
R04  19797747.408 6         0.00000        94.949          33.342  
C19  23398370.543 2 -11718405.40001      2409.217          46.197  
C20  22291381.499 4         0.00000      -160.403          35.329  
C26  26065296.970 4         0.00000     -1572.395          31.237  
C29  21601824.366 3         0.00000      -187.056          36.725  
C30  23689117.363 4         0.00000     -2564.340          34.027  
C32  24913351.942 4         0.00000     -3046.670          31.672  
C35  24147980.890 4         0.00000      1806.524          31.827  
E01  25762463.413 4         0.00000     -1765.636          38.877    25762465.804 5   2453479.58209     -1313.661          27.799  
E07  25635713.565 4         0.00000      1790.660          40.257           0.000 0         0.00000         0.000           0.000  
E21  26636051.747 4  13101750.18701     -3429.021          43.345    26636060.140 7         0.00000     -2572.333          22.420  
E26  23531033.206 4         0.00000       167.175          36.589    23531040.395 7         0.00000       116.247          22.656  
E08         0.000 0         0.00000         0.000           0.000    23766425.737 7         0.00000      -369.764          22.517  
> 2021 07 14 20 51 41.9996552  0 26
G05  22259100.149 5         0.00000     -3504.296          36.087           0.000 0         0.00000         0.000           0.000  
G10  24258525.768 3   -362481.58409      2831.866          44.736    24258530.567 6         0.00000      2110.261          24.524  
G13  23394915.435 5         0.00000       354.711          33.927           0.000 0         0.00000         0.000           0.000  
G15  22197020.319 4  -7448175.47309      1371.906          40.503           0.000 0         0.00000         0.000           0.000  
G16  23837866.282 5         0.00000      1593.763          34.839           0.000 0         0.00000         0.000           0.000  
G18  20736519.006 4         0.00000       224.831          36.979           0.000 0         0.00000         0.000           0.000  
G20  24949365.108 6         0.00000     -3979.327          22.519           0.000 0         0.00000         0.000           0.000  
G23  21479462.270 3 -11430728.67201      1944.254          46.458           0.000 0         0.00000         0.000           0.000  
G25  24297120.746 4         0.00000     -4199.548          36.231           0.000 0         0.00000         0.000           0.000  
G26  22579607.653 4  -4358641.39102      -307.758          38.984    22579607.653 6         0.00000      -229.631          24.110  
G29  20643743.422 5         0.00000     -1654.694          32.879           0.000 0         0.00000         0.000           0.000  
R05  21570953.535 5   -755303.06601      3454.956          48.699  
R19  20198649.967 7         0.00000      -972.590          22.759  
R04  19797721.320 6         0.00000        91.318          33.264  
J02  43313576.637 5    116302.92409      -408.223          35.547    43313580.528 6         0.00000      -306.399          25.430  
C19  23397904.971 3 -11720814.12401      2410.975          45.610  
C20  22291414.166 4         0.00000      -163.814          34.535  
C26  26065591.669 4         0.00000     -1566.243          34.188  
C29  21601857.940 3         0.00000      -179.058          35.946  
C30  23689614.415 4         0.00000     -2570.084          33.667  
C32  24913938.636 4         0.00000     -3052.650          32.518  
C35  24147641.239 4         0.00000      1794.440          35.704  
E01  25762801.878 5         0.00000     -1763.361          36.037    25762800.674 5         0.00000     -1312.381          28.955  
E13  24556014.620 6         0.00000     -1732.598          28.037           0.000 0         0.00000         0.000           0.000  
E21  26636704.681 4  13105180.06001     -3427.291          43.517    26636711.888 7         0.00000     -2571.259          22.583  
E26  23531004.413 5         0.00000       164.310          34.463    23531009.508 6         0.00000       116.607          24.671  
> 2021 07 14 20 51 42.9996552  0 27
G05  22259768.074 5         0.00000     -3504.711          33.118           0.000 0         0.00000         0.000           0.000  
G10  24257983.747 4   -365315.15701      2835.595          43.649    24257992.141 5         0.00000      2113.273          28.951  
G13  23394835.391 4         0.00000       351.037          36.844           0.000 0         0.00000         0.000           0.000  
G15  22196758.601 4         0.00000      1364.850          39.461           0.000 0         0.00000         0.000           0.000  
G16  23837566.191 5         0.00000      1592.235          35.225           0.000 0         0.00000         0.000           0.000  
G18  20736475.537 4  -3599546.29602       223.738          40.565           0.000 0         0.00000         0.000           0.000  
G23  21479092.325 3 -11432673.12001      1946.200          45.230           0.000 0         0.00000         0.000           0.000  
G25  24297918.501 4  17227500.62302     -4196.831          38.593           0.000 0         0.00000         0.000           0.000  
G26  22579666.111 4         0.00000      -302.812          39.112    22579664.924 5         0.00000      -227.148          28.615  
G29  20644051.907 4   2885918.12002     -1658.505          41.793           0.000 0         0.00000         0.000           0.000  
R05  21570303.898 5   -758756.10301      3452.234          47.895  
R19  20198827.453 7         0.00000      -973.247          21.263  
R04  19797697.937 5  -7734551.40803        86.507          37.249  
J02  43313654.570 4         0.00000      -407.449          37.182    43313659.665 6         0.00000      -305.552          25.289  
C19  23397448.386 3 -11723223.81601      2410.850          43.138  
C20  22291440.254 3   -104048.64109      -165.372          42.573  
C26  26065892.947 4         0.00000     -1563.297          35.163  
C29  21601894.516 3         0.00000      -184.815          37.523  
C30  23690109.077 3         0.00000     -2576.500          37.669  
C32  24914523.236 4         0.00000     -3052.378          31.596  
C35  24147293.474 4         0.00000      1799.241          35.171  
E01  25763131.355 4         0.00000     -1754.641          38.509    25763135.840 5         0.00000     -1308.385          29.154  
E07  25635035.729 4  -2799151.51602      1784.224          39.889    25635038.433 6         0.00000      1336.554          24.263  
E13  24556351.880 5         0.00000     -1729.926          29.101           0.000 0         0.00000         0.000           0.000  
E21  26637354.632 4  13108606.32202     -3423.193          42.503    26637367.231 6         0.00000     -2569.264          24.599  
E26  23530972.950 4  -1083853.19602       163.090          39.145    23530978.639 6         0.00000       120.144          24.737  
E08         0.000 0         0.00000         0.000           0.000    23766620.603 6         0.00000      -385.048          23.948  
> 2021 07 14 20 51 43.9996552  0 26
G05  22260445.317 5         0.00000     -3502.048          30.991           0.000 0         0.00000         0.000           0.000  
G10  24257443.820 3   -368152.37101      2838.649          46.139           0.000 0         0.00000         0.000           0.000  
G13  23394775.135 4         0.00000       338.865          38.180           0.000 0         0.00000         0.000           0.000  
G15  22196500.180 4         0.00000      1360.959          36.598           0.000 0         0.00000         0.000           0.000  
G16  23837259.800 4         0.00000      1596.402          37.029           0.000 0         0.00000         0.000           0.000  
G18  20736430.568 4  -3599770.73002       225.172          40.805           0.000 0         0.00000         0.000           0.000  
G23  21478722.084 3 -11434618.82301      1946.766          45.194           0.000 0         0.00000         0.000           0.000  
G26  22579721.585 4  -4358036.88809      -297.179          42.224    22579721.271 3  -3306416.62906      -221.174          33.266  
G29  20644370.897 4   2887577.33902     -1660.381          40.562           0.000 0         0.00000         0.000           0.000  
R05  21569653.947 5   -762207.43601      3449.782          44.757  
R20  21590120.767 6         0.00000      1759.863          30.582  
R19  20199001.013 7         0.00000      -976.650          23.792  
R04  19797696.436 6         0.00000        80.553          35.956  
J02  43313733.427 4         0.00000      -401.621          37.137    43313736.114 7         0.00000      -303.058          23.273  
C19  23396979.499 3 -11725633.47602      2408.895          40.339  
C20  22291472.624 3   -103882.15009      -168.041          42.245  
C26  26066195.150 4         0.00000     -1563.258          31.954  
C29  21601926.886 2         0.00000      -187.050          46.278  
C30  23690602.534 3         0.00000     -2580.092          39.225  
C32  24915112.320 4         0.00000     -3057.263          31.054  
C35  24146943.614 3         0.00000      1801.586          38.729  
E01  25763464.428 4   3298597.16801     -1748.254          43.364    25763466.522 5         0.00000     -1305.217          28.432  
E07  25634700.859 5         0.00000      1775.396          36.189           0.000 0         0.00000         0.000           0.000  
E08  23766729.737 5         0.00000      -529.575          31.644           0.000 0         0.00000         0.000           0.000  
E21  26638004.286 4  13112030.21102     -3422.678          40.706           0.000 0         0.00000         0.000           0.000  
E26  23530939.358 4  -1084017.54502       164.815          39.580           0.000 0         0.00000         0.000           0.000  
> 2021 07 14 20 51 44.9996552  0 27
G05  22261112.945 5         0.00000     -3511.409          30.669           0.000 0         0.00000         0.000           0.000  
G10  24256903.596 4   -370991.96402      2840.765          41.465           0.000 0         0.00000         0.000           0.000  
G13  23394706.486 4         0.00000       338.066          36.502           0.000 0         0.00000         0.000           0.000  
G15  22196243.261 4         0.00000      1354.886          36.442           0.000 0         0.00000         0.000           0.000  
G16  23836954.020 4  -2966473.08809      1602.494          39.856           0.000 0         0.00000         0.000           0.000  
G18  20736386.785 3  -3599996.73501       226.655          47.573           0.000 0         0.00000         0.000           0.000  
G20  24951634.247 6         0.00000     -3978.354          22.138           0.000 0         0.00000         0.000           0.000  
G23  21478352.140 4 -11436565.40401      1948.207          42.739           0.000 0         0.00000         0.000           0.000  
G25  24299514.288 5         0.00000     -4199.072          31.698           0.000 0         0.00000         0.000           0.000  
G26  22579777.932 3  -4357740.88209      -294.326          44.862    22579777.932 4         0.00000      -218.079          30.324  
G29  20644687.776 4   2889239.46701     -1663.604          43.295           0.000 0         0.00000         0.000           0.000  
R05  21569012.093 5         0.00000      3448.890          41.108  
R20  21589808.076 6         0.00000      1765.143          33.429  
R19  20199187.800 6   2949604.83605      -983.676          31.052  
R04  19797661.361 5  -7734718.37302        79.115          41.396  
J02  43313812.267 5         0.00000      -391.576          34.491           0.000 0         0.00000         0.000           0.000  
C19  23396520.523 3 -11728043.61102      2409.797          40.520  
C20  22291506.216 3   -103712.89209      -171.050          42.079  
C26  26066500.634 5         0.00000     -1559.438          29.075  
C29  21601962.275 2  -1433584.21201      -188.299          47.235  
C30  23691096.288 3         0.00000     -2586.024          37.744  
C32  24915701.108 4         0.00000     -3063.146          31.382  
C35  24146596.163 3  -8046313.65201      1806.728          43.265  
E01  25763796.593 4   3300344.15601     -1745.443          43.954    25763800.484 6   2458715.79509     -1302.755          27.396  
E13  24556997.643 4         0.00000     -1741.522          40.274    24557001.238 6         0.00000     -1297.621          26.657  
E21  26638655.738 4  13115452.53002     -3421.364          39.900           0.000 0         0.00000         0.000           0.000  
E26  23530908.489 4  -1084183.58701       166.979          45.090           0.000 0         0.00000         0.000           0.000  
> 2021 07 14 20 51 45.9996552  0 25
G05  22261770.696 4  11074047.13509     -3521.418          38.743           0.000 0         0.00000         0.000           0.000  
G10  24256362.465 4   -373836.08701      2846.814          43.292    24256368.468 5   -297392.62409      2125.611          29.335  
G13  23394643.525 5         0.00000       332.768          34.722           0.000 0         0.00000         0.000           0.000  
G15  22195983.043 5         0.00000      1355.176          35.299           0.000 0         0.00000         0.000           0.000  
G16  23836651.520 4  -2968075.35609      1602.484          37.142           0.000 0         0.00000         0.000           0.000  
G18  20736343.317 3  -3600223.56601       226.970          47.006           0.000 0         0.00000         0.000           0.000  
G23  21477981.602 4 -11438514.79202      1951.000          41.656           0.000 0         0.00000         0.000           0.000  
G25  24300316.230 5         0.00000     -4192.289          31.729           0.000 0         0.00000         0.000           0.000  
G26  22579832.795 3  -4357447.86009      -292.394          45.895    22579833.110 5  -3305975.95609      -215.126          27.192  
G29  20645001.967 4   2890903.51601     -1664.785          42.696           0.000 0         0.00000         0.000           0.000  
R20  21589470.519 6         0.00000      1770.997          33.349  
R19  20199368.270 7         0.00000      -983.666          26.547  
R04  19797644.574 5  -7734796.18102        76.261          39.044  
J02  43313886.623 5         0.00000      -386.946          32.232           0.000 0         0.00000         0.000           0.000  
C20  22291536.788 3   -103540.61909      -173.320          40.276  
C26  26066793.536 4   5061564.83209     -1554.684          34.314  
C29  21601999.147 2  -1433395.28001      -189.516          46.521  
C30  23691598.139 4         0.00000     -2585.532          33.242  
C32  24916284.504 4         0.00000     -3071.082          32.360  
C35  24146248.694 3  -8048121.03002      1808.417          41.170  
E01  25764128.461 3   3302087.31301     -1741.472          44.929    25764132.352 5   2460017.51709     -1300.589          29.304  
E07  25634021.836 5         0.00000      1777.211          35.496    25634020.335 6         0.00000      1324.442          26.385  
E08  23766931.793 5         0.00000      -542.325          35.080    23766932.997 7         0.00000      -397.979          23.897  
E21  26639310.784 4  13118870.72002     -3415.659          39.232           0.000 0         0.00000         0.000           0.000  
E26  23530877.009 4  -1084350.12701       166.428          46.707    23530877.305 3   -817053.93006       124.659          33.184  
> 2021 07 14 20 51 46.9996552  0 26
G05  22262440.732 4  11077571.16509     -3526.420          39.718           0.000 0         0.00000         0.000           0.000  
G10  24255821.334 4   -376685.11301      2851.466          43.709    24255827.040 4   -299520.05707      2128.872          31.227  
G13  23394582.659 5         0.00000       324.405          32.680           0.000 0         0.00000         0.000           0.000  
G15  22195727.310 5  -7454968.62509      1347.208          34.966           0.000 0         0.00000         0.000           0.000  
G16  23836348.742 4  -2969677.86409      1601.400          37.099           0.000 0         0.00000         0.000           0.000  
G18  20736299.848 3  -3600450.14601       226.376          46.737           0.000 0         0.00000         0.000           0.000  
G23  21477610.453 4 -11440467.08202      1953.665          41.200           0.000 0         0.00000         0.000           0.000  
G26  22579887.362 3  -4357156.50409      -290.594          45.953    22579888.863 4  -3305758.27507      -217.039          30.682  
G29  20645319.735 4   2892569.37202     -1667.047          41.119           0.000 0         0.00000         0.000           0.000  
R20  21589140.745 6   -781323.35904      1767.109          33.499  
R19  20199547.554 7         0.00000      -983.470          23.961  
R04  19797639.479 5  -7734870.52402        72.585          39.934  
J02  43313952.567 4         0.00000      -390.026          39.023           0.000 0         0.00000         0.000           0.000  
C19  23395597.162 3         0.00000      2415.767          37.453  
C20  22291571.270 3   -103366.53309      -175.646          39.660  
C26  26067089.125 3   5063117.37509     -1551.276          39.611  
C29  21602035.112 2  -1433204.49301      -191.916          46.537  
C30  23692098.489 4         0.00000     -2586.924          30.297  
C32  24916875.106 4         0.00000     -3079.372          32.705  
C35  24145902.133 3  -8049929.11302      1808.509          40.390  
E01  25764462.126 3   3303827.48901     -1738.510          45.240    25764463.034 4   2461317.06407     -1298.841          30.693  
E07  25633685.169 5         0.00000      1779.511          31.230           0.000 0         0.00000         0.000           0.000  
E08  23767034.313 4         0.00000      -546.084          39.508    23767035.517 7         0.00000      -400.966          24.144  
E13  24557664.974 5         0.00000     -1748.511          33.137    24557663.473 4   5129578.04008     -1307.989          30.307  
E21  26639956.233 4  13122284.59702     -3411.918          38.442           0.000 0         0.00000         0.000           0.000  
E26  23530843.731 4  -1084516.34501       165.819          46.676    23530845.825 3   -817177.96405       123.514          33.946  
> 2021 07 14 20 51 47.9996552  0 26
G05  22263109.860 4  11081099.18309     -3528.350          37.818           0.000 0         0.00000         0.000           0.000  
G10  24255279.923 4   -379537.69702      2852.695          42.482    24255283.204 5   -301650.30909      2132.444          29.286  
G13  23394518.512 5         0.00000       326.989          30.481           0.000 0         0.00000         0.000           0.000  
G15  22195476.079 5         0.00000      1345.126          32.652           0.000 0         0.00000         0.000           0.000  
G16  23836042.944 4  -2971280.01709      1602.178          40.284           0.000 0         0.00000         0.000           0.000  
G18  20736256.676 3  -3600676.52301       225.870          46.790           0.000 0         0.00000         0.000           0.000  
G23  21477241.119 4 -11442421.27802      1955.191          39.167           0.000 0         0.00000         0.000           0.000  
G25  24301909.034 5  17248470.32209     -4186.840          34.313    24301913.239 6         0.00000     -3129.353          23.762  
G26  22579943.727 3  -4356866.28009      -290.256          46.435    22579944.023 5         0.00000      -215.610          29.363  
G29  20645637.521 4   2894237.02202     -1668.111          40.319           0.000 0         0.00000         0.000           0.000  
R05  21567076.027 6         0.00000      3457.100          30.471  
R20  21588806.486 6   -783090.50704      1766.747          33.616  
R19  20199734.009 7         0.00000      -983.991          20.299  
R04  19797632.289 5  -7734942.08002        70.543          42.330  
C19  23395129.479 3 -11735285.13409      2416.600          39.605  
C20  22291605.734 3   -103190.48909      -177.040          42.614  
C26  26067386.826 3         0.00000     -1551.257          36.143  
C29  21602072.892 2  -1433012.10301      -192.936          46.227  
C30  23692593.150 4         0.00000     -2591.129          30.421  
C32  24917467.785 4   9314385.02109     -3079.703          34.940  
C35  24145551.977 3  -8051737.87802      1808.840          42.062  
E01  25764790.993 3   3305565.39401     -1737.614          44.988    25764792.808 5         0.00000     -1298.130          28.681  
E07  25633344.593 4         0.00000      1774.797          36.229           0.000 0         0.00000         0.000           0.000  
E08  23767141.039 4         0.00000      -557.115          38.861    23767139.555 6         0.00000      -405.224          25.683  
E21  26640608.278 4  13125695.14702     -3409.798          39.554           0.000 0         0.00000         0.000           0.000  
E26  23530814.659 3  -1084682.17601       165.518          46.919    23530813.752 3   -817301.77206       123.185          33.199  
> 2021 07 14 20 51 48.9996552  0 26
G05  22263784.102 4  11084628.78702     -3529.823          38.576           0.000 0         0.00000         0.000           0.000  
G10  24254735.494 4   -382391.27301      2853.635          42.668    24254739.996 5   -303781.28609      2131.507          28.772  
G13  23394461.555 5  -3072999.91005       322.050          32.094           0.000 0         0.00000         0.000           0.000  
G15  22195211.674 5  -7457658.95809      1347.102          34.914           0.000 0         0.00000         0.000           0.000  
G16  23835737.461 4  -2972881.10902      1600.692          40.067           0.000 0         0.00000         0.000           0.000  
G18  20736215.005 3  -3600902.50701       226.107          46.568           0.000 0         0.00000         0.000           0.000  
G23  21476863.968 4 -11444375.65902      1954.384          39.410           0.000 0         0.00000         0.000           0.000  
G25  24302705.881 5  17252655.86403     -4185.516          35.757    24302711.883 7         0.00000     -3128.378          22.347  
G26  22579998.887 3  -4356575.60101      -291.110          45.759    22579998.293 6         0.00000      -216.965          26.920  
G29  20645954.696 4   2895905.42902     -1668.065          40.856           0.000 0         0.00000         0.000           0.000  
R05  21566432.969 6         0.00000      3452.479          30.386  
R20  21588469.208 6   -784857.28604      1766.544          34.113  
R04  19797616.392 5  -7735012.38101        70.370          42.618  
J02  43314101.260 4    119062.49802      -390.238          39.274    43314107.560 6         0.00000      -291.368          24.260  
C19  23394666.909 3 -11737701.59409      2416.433          39.600  
C20  22291639.919 3   -103013.57709      -177.041          43.048  
C26  26067686.620 4   5066219.67409     -1551.349          33.971  
C29  21602109.171 2  -1432819.05601      -192.936          46.512  
C30  23693096.501 4         0.00000     -2594.570          27.711  
C32  24918057.777 4   9317464.76309     -3079.753          34.468  
C35  24145205.415 3  -8053546.37402      1808.369          41.387  
E01  25765121.675 3   3307303.19801     -1737.871          45.221    25765124.066 5         0.00000     -1297.921          28.861  
E07  25633005.535 4  -2809829.88302      1775.537          40.771           0.000 0         0.00000         0.000           0.000  
E08  23767244.780 4    -34360.48003      -551.289          37.568    23767243.279 6         0.00000      -407.406          26.204  
E21  26641255.541 4  13129104.79502     -3409.366          39.564           0.000 0         0.00000         0.000           0.000  
E26  23530782.568 4  -1084847.65601       165.438          46.729    23530782.865 3   -817425.40706       124.058          33.275  
> 2021 07 14 20 51 49.9996552  0 26
G05  22264455.935 4  11088157.52302     -3527.379          40.194           0.000 0         0.00000         0.000           0.000  
G10  24254193.769 4   -385243.64401      2851.318          43.322    24254196.771 5   -305911.29209      2129.310          28.315  
G13  23394398.297 5         0.00000       318.789          29.739           0.000 0         0.00000         0.000           0.000  
G15  22194952.957 5         0.00000      1350.386          33.957           0.000 0         0.00000         0.000           0.000  
G16  23835433.164 4  -2974481.44402      1599.996          40.631           0.000 0         0.00000         0.000           0.000  
G18  20736172.148 3  -3601127.98901       225.193          45.922           0.000 0         0.00000         0.000           0.000  
G23  21476494.320 4 -11446328.96102      1951.826          39.220           0.000 0         0.00000         0.000           0.000  
G25  24303503.931 4  17256841.89202     -4187.283          40.158    24303506.322 7         0.00000     -3127.294          22.661  
G26  22580053.157 4  -4356283.43601      -295.088          43.714    22580054.343 6  -3305106.70109      -221.182          24.915  
G29  20646272.482 4   2897573.93002     -1668.100          40.811           0.000 0         0.00000         0.000           0.000  
R05  21565810.293 6         0.00000      3454.071          29.681  
R20  21588133.152 6   -786623.71904      1766.009          33.651  
R04  19797606.812 5  -7735082.34702        70.187          41.682  
J02  43314176.523 4    119453.31802      -391.392          38.697    43314181.008 6         0.00000      -291.836          23.882  
C19  23394206.415 3 -11740117.37609      2414.707          38.637  
C20  22291673.790 3   -102836.52509      -177.041          43.226  
C26  26067982.803 4         0.00000     -1552.227          31.014  
C29  21602146.637 2  -1432625.99701      -192.898          47.116  
C30  23693591.459 4         0.00000     -2590.283          27.650  
C32  24918648.973 4         0.00000     -3077.890          34.985  
C35  24144857.650 3  -8055354.37602      1807.534          39.948  
E01  25765451.746 4   3309042.34402     -1740.156          41.834    25765455.341 5         0.00000     -1298.551          27.359  
E07  25632667.071 4  -2811605.27002      1775.543          38.486           0.000 0         0.00000         0.000           0.000  
E08  23767353.006 4    -33809.27502      -549.708          38.316    23767347.597 6         0.00000      -408.948          25.447  
E21  26641903.398 4  13132515.31902     -3411.947          39.119           0.000 0         0.00000         0.000           0.000  
E26  23530751.995 4  -1085012.93701       165.259          46.805    23530750.791 3   -817548.79305       123.163          33.387  
> 2021 07 14 20 51 50.9996552  0 27
G05  22265127.175 4  11091682.84302     -3522.168          41.344           0.000 0         0.00000         0.000           0.000  
G10  24253651.748 4   -388091.63701      2844.156          43.667    24253655.343 5   -308038.12709      2124.951          28.202  
G13  23394338.635 5         0.00000       329.730          29.036           0.000 0         0.00000         0.000           0.000  
G15  22194698.131 5         0.00000      1353.828          33.058           0.000 0         0.00000         0.000           0.000  
G16  23835127.383 4  -2976080.87802      1599.143          40.218           0.000 0         0.00000         0.000           0.000  
G18  20736128.976 3  -3601353.06001       224.708          46.203           0.000 0         0.00000         0.000           0.000  
G23  21476121.094 4 -11448279.24502      1947.830          39.495           0.000 0         0.00000         0.000           0.000  
G25  24304299.871 4  17261030.95502     -4191.662          39.262    24304303.483 6         0.00000     -3129.069          26.659  
G26  22580111.615 4  -4355988.89909      -297.370          39.078           0.000 0         0.00000         0.000           0.000  
G29  20646589.657 4   2899241.83202     -1667.505          41.328           0.000 0         0.00000         0.000           0.000  
R05  21565158.841 6         0.00000      3451.618          31.169  
R20  21587802.470 6   -788389.84504      1766.040          33.015  
R04  19797591.508 5  -7735153.16302        71.769          41.001  
J02         0.000 0         0.00000         0.000           0.000    43314254.752 7         0.00000      -291.187          23.429  
C19  23393743.251 3 -11742530.43003      2410.833          36.511  
C20  22291706.771 3   -102660.16001      -176.122          43.326  
C26  26068287.990 5         0.00000     -1558.948          27.422  
C29  21602183.823 2  -1432433.80501      -191.746          47.031  
C30  23694088.511 4         0.00000     -2589.156          31.908  
C32  24919241.670 4         0.00000     -3072.738          34.628  
C35  24144510.495 3  -8057161.13402      1804.967          40.674  
E01  25765785.115 4   3310784.77702     -1742.958          38.543    25765788.116 6         0.00000     -1293.377          23.818  
E07  25632333.109 4  -2813380.67202      1775.090          40.527           0.000 0         0.00000         0.000           0.000  
E08  23767454.933 4    -33261.01902      -545.955          38.504    23767452.228 6         0.00000      -410.590          25.867  
E13  24559013.440 6         0.00000     -1775.124          24.300    24558997.263 4   5134810.35809     -1304.326          29.528  
E21  26642554.535 4  13135929.69203     -3417.617          38.136    26642559.334 5         0.00000     -2551.738          27.164  
E26  23530720.812 3  -1085178.19201       165.140          47.223    23530718.718 3   -817672.25306       123.627          32.673  
> 2021 07 14 20 51 51.9996552  0 22
G05  22265797.805 4  11095201.46002     -3514.305          39.982           0.000 0         0.00000         0.000           0.000  
G10  24253110.913 3   -390931.60501      2835.444          44.590    24253115.712 5         0.00000      2120.598          28.373  
G13  23394277.472 5         0.00000       343.883          28.834           0.000 0         0.00000         0.000           0.000  
G15  22194441.805 4  -7461705.57109      1352.324          36.622           0.000 0         0.00000         0.000           0.000  
G18  20736085.804 3  -3601577.52101       223.950          46.607           0.000 0         0.00000         0.000           0.000  
G23  21475752.040 4 -11450223.88502      1941.807          39.786           0.000 0         0.00000         0.000           0.000  
G25  24305097.328 4  17265225.76402     -4197.399          39.089    24305099.719 6         0.00000     -3134.405          27.486  
G29  20646906.833 4   2900908.10302     -1665.503          42.349           0.000 0         0.00000         0.000           0.000  
R05  21564514.300 6         0.00000      3444.401          34.404  
R20  21587494.596 6   -790154.15009      1761.998          30.615  
R04  19797580.724 5  -7735226.24502        74.451          41.081  
C19  23393282.461 4 -11744938.41704      2404.887          34.569  
C20  22291741.549 3   -102485.61402      -173.743          42.578  
C26  26068587.784 5         0.00000     -1559.331          24.343  
C29  21602217.991 2  -1432243.55901      -189.422          46.750  
C30  23694587.082 4         0.00000     -2580.720          32.727  
C32  24919830.458 4         0.00000     -3064.220          34.999  
E01  25766119.984 4         0.00000     -1749.940          37.591           0.000 0         0.00000         0.000           0.000  
E08  23767556.860 4    -32718.98002      -538.737          40.435    23767557.156 6         0.00000      -408.498          26.692  
E21  26643197.297 4  13139351.32203     -3425.422          37.584    26643209.878 5         0.00000     -2558.298          28.206  
E26  23530687.831 3  -1085343.68401       165.313          47.283    23530687.238 4   -817795.77306       123.221          32.106  
E13         0.000 0         0.00000         0.000           0.000    24559328.818 5   5136112.18409     -1299.144          28.899  
> 2021 07 14 20 51 52.9996552  0 22
G05  22266466.636 4  11098712.72202     -3507.628          41.092           0.000 0         0.00000         0.000           0.000  
G10  24252572.487 3   -393762.95501      2827.222          44.651    24252576.378 5         0.00000      2111.270          29.288  
G15  22194187.276 4  -7463059.60209      1355.559          39.913           0.000 0         0.00000         0.000           0.000  
G18  20736044.133 3  -3601801.48901       223.002          46.609           0.000 0         0.00000         0.000           0.000  
G23  21475383.299 4 -11452162.40802      1935.403          40.075           0.000 0         0.00000         0.000           0.000  
G25  24305897.473 4  17269426.80402     -4204.035          38.428    24305899.567 5         0.00000     -3138.976          27.291  
G29  20647224.025 4   2902572.71802     -1663.980          42.273           0.000 0         0.00000         0.000           0.000  
R05  21563877.838 6         0.00000      3438.655          34.143  
R20  21587154.317 7         0.00000      1763.429          26.085  
R04  19797551.948 5  -7735301.93102        76.909          40.613  
J02  43314400.758 4    120644.03609      -398.156          36.872           0.000 0         0.00000         0.000           0.000  
C19  23392825.282 4 -11747341.27109      2400.273          33.141  
C20  22291772.419 3   -102312.98602      -171.755          40.258  
C26  26068887.876 5         0.00000     -1559.613          24.460  
C29  21602254.566 2  -1432055.47401      -187.357          46.405  
C30  23695083.523 4         0.00000     -2576.618          31.776  
C32  24920419.542 4         0.00000     -3053.738          35.575  
E07  25631654.365 4  -2816932.14702      1775.272          39.066    25631658.274 7         0.00000      1326.574          23.170  
E08  23767662.992 4    -32183.60002      -532.238          41.395    23767660.881 6         0.00000      -407.001          26.480  
E21  26643860.143 4  13142780.81903     -3433.562          37.977    26643864.331 5         0.00000     -2562.760          29.212  
E26  23530656.054 4  -1085509.37301       165.596          45.261    23530656.368 4   -817919.54908       123.919          30.408  
E13         0.000 0         0.00000         0.000           0.000    24559658.592 5         0.00000     -1292.197          27.937  
> 2021 07 14 20 51 53.9996552  0 26
G05  22267133.985 4  11102221.56302     -3510.523          42.172           0.000 0         0.00000         0.000           0.000  
G10  24252034.060 4   -396591.06501      2829.862          42.797    24252040.360 5   -314384.94109      2113.285          29.016  
G13  23394141.971 5  -3074678.53609       339.931          36.114           0.000 0         0.00000         0.000           0.000  
G15  22193930.060 4  -7464414.26109      1353.769          40.339           0.000 0         0.00000         0.000           0.000  
G16  23834224.998 5         0.00000      1597.230          28.933           0.000 0         0.00000         0.000           0.000  
G18  20736001.258 3  -3602025.23201       223.314          45.473           0.000 0         0.00000         0.000           0.000  
G23  21475016.059 4 -11454098.56802      1936.970          40.691           0.000 0         0.00000         0.000           0.000  
G25  24306696.728 4  17273630.07402     -4202.196          38.509    24306700.026 5  12901864.99909     -3137.042          28.225  
G26  22580287.880 4  -4355082.00409      -304.353          36.295           0.000 0         0.00000         0.000           0.000  
G29  20647540.607 4   2904237.07802     -1665.334          42.033           0.000 0         0.00000         0.000           0.000  
R05  21563246.175 6         0.00000      3436.248          31.211  
R20  21586824.264 7         0.00000      1763.467          21.269  
R04  19797546.853 5  -7735377.76302        74.625          39.817  
C19  23392362.398 4         0.00000      2400.420          31.658  
C20  22291807.790 3         0.00000      -172.554          37.432  
C26  26069188.264 5         0.00000     -1560.456          22.458  
C29  21602291.439 3  -1431867.97501      -188.304          45.664  
C30  23695576.387 4         0.00000     -2577.501          32.422  
C32  24921008.644 4         0.00000     -3052.848          35.219  
C35  24143485.505 4         0.00000      1801.604          30.850  
E01  25766786.426 4   3316041.97501     -1756.234          43.891    25766788.520 5         0.00000     -1314.841          27.055  
E07  25631316.511 4  -2818707.87002      1774.968          38.874    25631322.497 7         0.00000      1325.987          22.365  
E08  23767761.010 4    -31650.34502      -535.052          40.341    23767764.308 6         0.00000      -405.579          24.828  
E21  26644507.389 4  13146212.97303     -3430.702          37.855    26644516.673 5         0.00000     -2562.120          28.688  
E26  23530623.981 4  -1085675.04601       164.967          44.250    23530624.888 4   -818043.36408       123.877          30.616  
E13         0.000 0         0.00000         0.000           0.000    24559988.366 5         0.00000     -1292.736          28.376  
> 2021 07 14 20 51 54.9996552  0 27
G05  22267802.224 4  11105735.68702     -3518.295          41.348           0.000 0         0.00000         0.000           0.000  
G10  24251492.336 4   -399424.33801      2836.590          42.732    24251501.934 6         0.00000      2112.220          26.639  
G13  23394076.306 4  -3075014.54802       332.765          39.606           0.000 0         0.00000         0.000           0.000  
G15  22193672.233 4  -7465766.21602      1350.209          40.682           0.000 0         0.00000         0.000           0.000  
G16  23833927.315 5         0.00000      1593.074          28.160           0.000 0         0.00000         0.000           0.000  
G18  20735958.696 4  -3602248.84501       224.387          43.927           0.000 0         0.00000         0.000           0.000  
G23  21474645.801 4 -11456037.86902      1941.644          41.623           0.000 0         0.00000         0.000           0.000  
G25  24307495.075 4  17277829.34702     -4197.338          39.500    24307501.654 5  12905000.95109     -3134.144          28.427  
G26  22580345.448 4  -4354778.56709      -301.609          36.836           0.000 0         0.00000         0.000           0.000  
G29  20647858.079 4   2905903.17202     -1667.047          41.199           0.000 0         0.00000         0.000           0.000  
R05  21562586.923 6         0.00000      3439.819          30.517  
R20  21586495.990 7         0.00000      1763.063          22.758  
R04  19797539.053 5  -7735450.66402        70.973          39.743  
J02  43314551.860 4         0.00000      -394.835          37.607           0.000 0         0.00000         0.000           0.000  
C19  23391903.719 4         0.00000      2405.801          30.070  
C20  22291838.974 4         0.00000      -171.169          34.492  
C26  26069486.872 5         0.00000     -1560.292          22.996  
C29  21602330.108 3  -1431678.70601      -190.250          45.614  
C30  23696071.938 4         0.00000     -2582.088          34.259  
C32  24921595.041 3   9335865.02409     -3066.684          36.267  
C35  24143138.053 4         0.00000      1801.088          29.002  
E01  25767118.887 3   3317795.84201     -1751.585          44.343    25767123.389 5         0.00000     -1307.775          27.742  
E07  25630982.235 4  -2820483.04702      1775.028          39.396    25630983.736 7         0.00000      1326.891          24.284  
E08  23767862.954 4    -31111.96302      -541.860          39.580    23767866.549 6         0.00000      -402.835          24.751  
E21  26645164.530 4  13149640.38402     -3423.868          38.148    26645169.328 5         0.00000     -2557.444          27.514  
E26  23530591.907 4  -1085840.66001       166.231          42.646    23530594.001 4   -818166.92008       123.735          30.488  
E13         0.000 0         0.00000         0.000           0.000    24560319.641 5   5140003.00508     -1300.824          29.665  
> 2021 07 14 20 51 55.9996552  0 24
G05  22268470.462 4  11109255.84109     -3523.947          40.291           0.000 0         0.00000         0.000           0.000  
G10  24250953.909 4   -402264.57402      2843.366          42.065    24250960.209 5   -318621.55509      2123.112          28.222  
G13  23394013.956 4  -3075344.14703       327.049          37.884           0.000 0         0.00000         0.000           0.000  
G15  22193416.221 4  -7467114.86202      1346.963          39.939           0.000 0         0.00000         0.000           0.000  
G16  23833612.827 5         0.00000      1598.137          34.254           0.000 0         0.00000         0.000           0.000  
G18  20735915.228 3  -3602472.83701       224.318          47.208           0.000 0         0.00000         0.000           0.000  
G23  21474274.669 4 -11457981.55602      1945.747          41.514           0.000 0         0.00000         0.000           0.000  
G25  24308295.220 4  17282023.55502     -4192.744          40.343    24308297.908 5         0.00000     -3129.909          28.658  
G29  20648175.568 4   2907571.47202     -1669.418          40.768           0.000 0         0.00000         0.000           0.000  
R05  21561960.967 6         0.00000      3441.507          30.100  
R20  21586169.811 7         0.00000      1763.605          21.577  
R04  19797518.060 5  -7735520.06402        68.743          39.708  
C19  23391442.039 4         0.00000      2412.565          30.774  
C20  22291872.251 4         0.00000      -178.592          35.221  
C26  26069784.555 5         0.00000     -1560.849          27.572  
C29  21602366.091 3  -1431487.57001      -192.081          45.657  
C30  23696565.709 4         0.00000     -2589.455          31.639  
C32  24922184.126 3   9338934.97009     -3073.457          37.419  
E01  25767451.052 3   3319544.91601     -1746.901          44.672           0.000 0         0.00000         0.000           0.000  
E07  25630640.473 4  -2822257.63202      1774.412          39.413    25630646.161 7         0.00000      1325.622          23.628  
E08  23767966.975 4    -30567.46802      -547.473          40.453    23767968.475 7         0.00000      -403.970          23.929  
E26  23530561.631 3  -1086006.17801       165.238          46.872    23530561.631 4   -818290.56206       123.632          31.996  
E13         0.000 0         0.00000         0.000           0.000    24560652.102 4   5141305.32507     -1304.296          31.188  
E21         0.000 0         0.00000         0.000           0.000    26645820.483 4   9800013.10208     -2552.469          30.034  
> 2021 07 14 20 51 56.9996552  0 26
G05  22269140.795 4  11112778.85809     -3527.825          37.302           0.000 0         0.00000         0.000           0.000  
G10  24250413.686 4   -405107.55301      2842.774          43.387           0.000 0         0.00000         0.000           0.000  
G13  23393951.607 4  -3075670.58702       327.522          38.527           0.000 0         0.00000         0.000           0.000  
G15  22193161.989 4  -7468462.07103      1347.860          37.817           0.000 0         0.00000         0.000           0.000  
G16  23833305.249 4  -2985661.40409      1596.665          37.633           0.000 0         0.00000         0.000           0.000  
G18  20735872.946 3  -3602697.18501       224.365          46.679           0.000 0         0.00000         0.000           0.000  
G23  21473905.911 4 -11459926.98402      1945.364          40.206           0.000 0         0.00000         0.000           0.000  
G25  24309090.566 4  17286215.53902     -4192.015          40.263    24309095.662 5  12911263.36509     -3129.549          28.738  
G26  22580455.175 3  -4354179.06509      -300.108          46.895    22580457.269 4         0.00000      -223.529          31.138  
G29  20648490.335 4   2909240.41002     -1668.596          41.381           0.000 0         0.00000         0.000           0.000  
R05  21561283.427 7         0.00000      3439.280          28.540  
R04  19797504.868 5  -7735587.48003        67.444          37.701  
J02  43314703.258 4    122223.69209      -393.446          41.841    43314709.243 7         0.00000      -293.038          23.270  
C19  23390970.167 4         0.00000      2410.836          31.703  
C20  22291904.028 3   -101612.72503      -177.759          37.708  
C26  26070082.553 5         0.00000     -1557.597          26.122  
C29  21602402.963 3  -1431295.81801      -191.740          45.386  
C30  23697067.264 4         0.00000     -2591.807          29.328  
C32  24922772.913 3   9342007.82002     -3072.755          39.494  
C35  24142431.442 3  -8067992.77509      1806.214          42.837  
E01  25767782.938 4   3321292.13601     -1747.823          43.480    25767786.829 4         0.00000     -1304.790          30.573  
E07  25630304.399 4  -2824032.02602      1774.903          40.290    25630308.011 6         0.00000      1326.079          24.783  
E08  23768071.903 4    -30020.30502      -546.944          40.293           0.000 0         0.00000         0.000           0.000  
E13  24560983.988 5         0.00000     -1746.008          32.870    24560984.285 4   5142609.04706     -1303.361          31.873  
E21  26646462.930 5  13156480.02103     -3418.263          35.596    26646470.434 4   9802565.86408     -2553.021          30.129  
E26  23530528.947 3  -1086172.01501       165.816          46.935    23530531.041 4   -818414.40005       124.101          33.423  
> 2021 07 14 20 51 57.9996552  0 27
G05  22269809.627 4  11116301.13802     -3521.673          39.150           0.000 0         0.00000         0.000           0.000  
G10  24249872.554 4   -407949.19302      2840.630          42.485    24249873.165 5         0.00000      2121.523          28.564  
G13  23393891.648 4  -3075997.35502       327.189          38.538           0.000 0         0.00000         0.000           0.000  
G15  22192904.476 4  -7469809.07102      1346.642          38.350           0.000 0         0.00000         0.000           0.000  
G16  23832998.858 4  -2987257.66009      1596.038          41.240           0.000 0         0.00000         0.000           0.000  
G18  20735830.071 3  -3602921.38901       224.104          45.896           0.000 0         0.00000         0.000           0.000  
G23  21473539.579 4 -11461871.28302      1943.033          38.862           0.000 0         0.00000         0.000           0.000  
G25  24309889.507 4  17290408.58302     -4193.713          39.966    24309894.306 5         0.00000     -3132.267          28.560  
G26  22580512.726 3  -4353878.62809      -301.104          47.146    22580513.633 4  -3303291.15506      -224.630          32.286  
G29  20648809.918 4   2910909.58001     -1669.583          43.304           0.000 0         0.00000         0.000           0.000  
R05  21560625.990 6         0.00000      3446.522          30.406  
R20  21585504.573 6   -800729.93804      1765.939          32.919  
R04  19797500.086 5  -7735654.69402        66.669          39.599  
J02  43314779.393 4    122617.04709      -393.379          41.164    43314784.192 7         0.00000      -292.612          23.471  
C19  23390504.892 4         0.00000      2394.608          28.187  
C20  22291942.698 3   -101434.72702      -178.103          41.297  
C26  26070380.253 5         0.00000     -1555.438          25.142  
C29  21602438.038 2  -1431104.21401      -191.766          46.342  
C30  23697561.907 5         0.00000     -2587.417          27.492  
C32  24923362.312 3   9345079.99503     -3071.955          36.717  
C35  24142083.083 3  -8069799.39509      1806.679          42.680  
E01  25768115.103 4   3323040.45302     -1749.094          42.406    25768118.697 4   2475660.50308     -1305.511          29.836  
E07  25629968.342 4  -2825806.07502      1773.458          40.274    25629969.843 6         0.00000      1325.780          24.986  
E08  23768175.330 4    -29473.62502      -546.492          38.378           0.000 0         0.00000         0.000           0.000  
E13  24561315.856 5   6887899.62403     -1744.957          36.092    24561316.746 4   5143912.28306     -1302.991          32.485  
E21  26647111.381 5  13159899.75404     -3421.709          34.679    26647121.886 4   9805119.50808     -2554.699          30.111  
E26  23530497.467 4  -1086337.90401       165.583          46.557    23530499.264 3   -818538.30205       124.054          33.697  
> 2021 07 14 20 51 58.9996552  0 27
G05  22270482.054 4  11119822.09602     -3519.609          39.056           0.000 0         0.00000         0.000           0.000  
G10  24249331.737 4   -410789.20502      2838.872          42.509    24249334.739 5         0.00000      2116.327          28.191  
G13  23393830.485 4  -3076325.11903       328.976          38.104           0.000 0         0.00000         0.000           0.000  
G15  22192647.539 4  -7471156.31303      1347.923          37.651           0.000 0         0.00000         0.000           0.000  
G16  23832696.655 4  -2988853.43409      1595.739          41.912           0.000 0         0.00000         0.000           0.000  
G18  20735787.510 3  -3603145.43601       224.078          46.230           0.000 0         0.00000         0.000           0.000  
G23  21473168.727 4 -11463814.34502      1942.619          38.579           0.000 0         0.00000         0.000           0.000  
G25  24310689.355 4  17294602.65002     -4195.169          40.327    24310691.153 6         0.00000     -3133.834          26.374  
G26  22580571.184 3  -4353576.92209      -302.481          46.898    22580571.184 4  -3303065.86106      -225.287          33.128  
G29  20649128.908 4   2912578.68901     -1669.306          43.494           0.000 0         0.00000         0.000           0.000  
R05  21560004.221 6         0.00000      3442.648          29.789  
R20  21585154.417 6   -802496.34705      1766.278          32.132  
R04  19797486.580 5  -7735721.74502        67.295          40.018  
J02  43314853.452 4    123010.96609      -394.608          37.674           0.000 0         0.00000         0.000           0.000  
C19  23390047.400 4         0.00000      2402.686          28.433  
C20  22291974.789 3   -101256.70502      -178.059          41.917  
C26  26070680.345 5         0.00000     -1556.715          24.959  
C29  21602477.318 2  -1430912.97001      -190.895          46.507  
C30  23698060.478 4         0.00000     -2588.236          28.590  
C32  24923952.600 4         0.00000     -3068.681          33.734  
C35  24141738.022 3  -8071605.74709      1806.636          42.106  
E01  25768451.176 4   3324790.14302     -1750.110          42.021    25768452.660 5   2476967.23708     -1307.610          29.549  
E07  25629631.379 4  -2827580.08902      1773.562          40.896    25629632.269 6         0.00000      1325.539          25.671  
E08  23768279.665 4    -28927.95402      -544.476          38.564           0.000 0         0.00000         0.000           0.000  
E13  24561648.911 4   6889643.48202     -1743.095          38.466    24561648.911 4   5145214.45106     -1301.401          32.590  
E21  26647768.521 5         0.00000     -3394.621          32.910    26647773.023 5   9807674.26609     -2555.290          28.927  
E26  23530466.894 4  -1086503.95501       166.132          46.696    23530467.487 3   -818662.20305       123.638          34.130  
> 2021 07 14 20 51 59.9996552  0 25
G05  22271151.793 4  11123341.95802     -3519.589          39.655           0.000 0         0.00000         0.000           0.000  
G10  24248791.513 4   -413626.90301      2836.783          42.924    24248796.295 4   -327106.43708      2118.670          30.137  
G13  23393767.228 4  -3076653.65903       328.483          37.977           0.000 0         0.00000         0.000           0.000  
G15  22192392.713 4  -7472503.59803      1347.324          37.250           0.000 0         0.00000         0.000           0.000  
G16  23832392.079 4  -2990448.54709      1594.986          41.741           0.000 0         0.00000         0.000           0.000  
G18  20735744.931 3  -3603369.01001       223.166          47.454           0.000 0         0.00000         0.000           0.000  
G23  21472796.688 4 -11465755.39502      1940.128          38.606           0.000 0         0.00000         0.000           0.000  
G25  24311488.296 4  17298798.39203     -4196.131          37.592    24311492.501 5  12920659.51409     -3133.217          28.058  
G26  22580627.252 3  -4353273.73009      -304.098          46.100    22580629.956 3  -3302839.43205      -226.906          33.567  
G29  20649445.490 3   2914247.99901     -1669.481          44.888           0.000 0         0.00000         0.000           0.000  
R05  21559354.864 6         0.00000      3442.431          29.686  
R20  21584830.629 6   -804262.58304      1766.221          32.657  
R04  19797471.887 5  -7735788.42602        66.439          41.232  
C19  23389577.326 4         0.00000      2407.370          30.115  
C20  22292010.160 3   -101078.53202      -178.439          42.099  
C26  26070980.436 5         0.00000     -1558.135          24.856  
C29  21602514.784 2  -1430721.78001      -191.239          45.970  
C30  23698558.123 4         0.00000     -2585.066          30.039  
C32  24924539.591 4   9351219.87109     -3068.782          33.566  
C35  24141392.054 3  -8073411.62109      1805.677          43.092  
E01  25768782.434 4   3326541.79102     -1752.791          40.722    25768785.435 5   2478275.12909     -1308.513          29.344  
E07  25629290.506 4  -2829353.75202      1773.613          40.314    25629294.712 6         0.00000      1326.023          26.201  
E13  24561981.984 4   6891386.14402     -1741.949          39.796    24561980.797 4   5146515.74906     -1300.246          32.771  
E21  26648410.986 5         0.00000     -3396.695          32.617           0.000 0         0.00000         0.000           0.000  
E26  23530434.506 3  -1086669.86801       165.588          47.061    23530436.321 3   -818786.11505       123.358          34.575  
> 2021 07 14 20 52 00.9996552  0 26
G05  22271821.236 4  11126860.42702     -3518.335          39.333           0.000 0         0.00000         0.000           0.000  
G10  24248253.384 4   -416462.48901      2834.710          42.860    24248255.181 5   -329223.84209      2117.028          28.770  
G13  23393705.175 4  -3076983.43602       330.234          39.244           0.000 0         0.00000         0.000           0.000  
G15  22192136.108 4  -7473850.99403      1346.965          36.854           0.000 0         0.00000         0.000           0.000  
G16  23832089.876 4  -2992042.95102      1594.186          40.963           0.000 0         0.00000         0.000           0.000  
G18  20735702.964 3  -3603592.18601       222.989          48.206           0.000 0         0.00000         0.000           0.000  
G23  21472426.150 4 -11467694.69102      1938.590          38.787           0.000 0         0.00000         0.000           0.000  
G25  24312288.144 4  17302995.47703     -4197.936          37.011    24312289.052 6  12923793.81509     -3135.021          26.580  
G26  22580685.116 3  -4352968.45001      -305.653          46.245    22580687.507 4  -3302611.70606      -228.525          33.205  
G29  20649762.665 3   2915917.43801     -1669.731          44.938           0.000 0         0.00000         0.000           0.000  
R05  21558719.606 6         0.00000      3435.856          30.748  
R20  21584503.262 6   -806028.52204      1765.940          34.120  
R04  19797467.699 5  -7735854.93802        66.507          41.881  
J02  43315007.537 5         0.00000      -397.649          31.518           0.000 0         0.00000         0.000           0.000  
C19  23389115.645 5         0.00000      2406.050          26.854  
C20  22292043.735 3   -100900.21602      -178.437          42.520  
C29  21602550.156 3  -1430530.75501      -191.049          45.773  
C30  23699058.473 4         0.00000     -2585.054          28.431  
C32  24925130.787 4   9354287.66709     -3067.577          33.513  
C35  24141045.196 3  -8075217.04609      1805.068          43.246  
E01  25769117.304 4   3328295.20102     -1754.755          41.086    25769118.508 5         0.00000     -1310.830          28.178  
E07  25628954.136 4  -2831127.11502      1773.263          40.759    25628956.841 6         0.00000      1325.320          24.593  
E08  23768487.707 4    -27839.34802      -543.527          38.156           0.000 0         0.00000         0.000           0.000  
E13  24562309.070 4   6893127.62602     -1741.593          40.133    24562312.054 3   5147816.27906     -1300.060          32.892  
E26  23530403.933 3  -1086835.65201       165.700          47.245    23530404.230 3   -818909.89905       123.464          34.475  
E21         0.000 0         0.00000         0.000           0.000    26649076.223 6         0.00000     -2558.421          26.753  
> 2021 07 14 20 52 01.9996552  0 25
G05  22272487.677 4  11130377.97002     -3517.203          39.358           0.000 0         0.00000         0.000           0.000  
G10  24247712.846 4   -419296.58502      2833.612          42.163    24247716.754 5   -331340.11409      2115.666          28.992  
G13  23393641.621 4  -3077313.69703       330.323          37.735           0.000 0         0.00000         0.000           0.000  
G15  22191880.968 4  -7475198.57803      1347.729          37.970           0.000 0         0.00000         0.000           0.000  
G16  23831786.801 4  -2993636.71502      1593.346          41.116           0.000 0         0.00000         0.000           0.000  
G18  20735660.996 3  -3603814.92301       222.442          48.809           0.000 0         0.00000         0.000           0.000  
G23  21472058.596 4 -11469632.61402      1937.674          39.997           0.000 0         0.00000         0.000           0.000  
G25  24313085.898 4  17307193.49402     -4198.985          40.067    24313090.400 4  12926928.72708     -3135.933          30.389  
G26  22580743.871 3  -4352662.33401      -306.858          46.243    22580745.669 3  -3302383.15105      -229.002          33.625  
G29  20650081.045 3   2917587.02401     -1669.766          45.165           0.000 0         0.00000         0.000           0.000  
R05  21558079.549 6         0.00000      3438.171          31.693  
R20  21584175.286 6   -807794.26304      1765.779          34.271  
R04  19797449.114 5  -7735920.90602        65.568          42.135  
J02  43315083.690 5         0.00000      -397.091          31.929           0.000 0         0.00000         0.000           0.000  
C19  23388657.560 5         0.00000      2405.633          25.726  
C20  22292077.606 3   -100721.71402      -178.740          42.453  
C29  21602586.138 3  -1430339.75001      -191.204          44.766  
C30  23699548.632 4         0.00000     -2586.576          30.117  
C32  24925716.277 4   9357354.66609     -3067.011          35.031  
C35  24140699.542 2  -8077022.07809      1804.551          44.233  
E01  25769452.173 4   3330050.03102     -1756.207          42.431    25769453.377 5         0.00000     -1311.671          28.166  
E07  25628615.375 4  -2832900.37902      1773.175          40.715    25628618.969 6         0.00000      1324.237          24.704  
E13  24562643.923 4   6894868.08702     -1740.332          41.336    24562643.329 3   5149115.94206     -1299.163          33.011  
E26  23530373.064 3  -1087001.26201       165.585          47.432    23530373.361 3   -819033.54704       123.182          35.172  
E21         0.000 0         0.00000         0.000           0.000    26649728.564 6         0.00000     -2562.527          27.088  
> 2021 07 14 20 52 02.9996552  0 26
G05  22273156.509 4  11133895.21302     -3517.165          40.253           0.000 0         0.00000         0.000           0.000  
G10  24247174.733 4   -422129.23102      2832.883          41.469    24247178.031 5   -333455.48109      2115.374          28.810  
G13  23393578.050 4  -3077644.15102       330.712          39.900           0.000 0         0.00000         0.000           0.000  
G15  22191626.753 4  -7476545.68603      1346.477          37.983           0.000 0         0.00000         0.000           0.000  
G16  23831484.598 4  -2995229.62602      1592.504          41.332           0.000 0         0.00000         0.000           0.000  
G18  20735618.731 3  -3604037.14501       222.152          48.894           0.000 0         0.00000         0.000           0.000  
G23  21471690.746 4 -11471569.25902      1936.643          39.529           0.000 0         0.00000         0.000           0.000  
G25  24313883.949 4  17311392.27102     -4198.594          38.832    24313887.247 6         0.00000     -3137.254          27.104  
G26  22580802.626 3  -4352354.88901      -308.133          46.478    22580803.534 4  -3302153.59706      -229.711          33.170  
G29  20650398.516 3   2919257.11901     -1670.377          44.804           0.000 0         0.00000         0.000           0.000  
R05  21557438.586 6         0.00000      3438.013          31.146  
R20  21583841.323 6   -809559.61903      1765.524          34.854  
R04  19797432.624 5  -7735986.26102        65.252          41.287  
J02  43315157.138 5         0.00000      -395.946          30.521           0.000 0         0.00000         0.000           0.000  
C19  23388200.975 4         0.00000      2405.174          30.479  
C20  22292113.291 3   -100542.74902      -178.906          41.229  
C29  21602623.918 3  -1430148.52301      -191.187          44.637  
C30  23700041.496 4         0.00000     -2586.777          31.755  
C32  24926305.972 4   9360421.20703     -3066.386          35.688  
C35  24140350.887 2  -8078826.61901      1804.741          44.074  
E01  25769781.040 4   3331806.37202     -1756.839          39.357    25769786.746 6   2482206.56209     -1314.018          25.494  
E07  25628279.615 4  -2834673.29402      1772.830          41.050    25628282.006 6         0.00000      1324.313          25.232  
E08  23768690.967 4    -26753.36203      -542.571          37.951    23768693.078 6         0.00000      -405.155          25.334  
E13  24562974.901 4   6896608.13102     -1739.818          41.381    24562973.697 4   5150415.44406     -1299.571          32.327  
E21  26650377.328 5  13176911.73903     -3427.700          34.833    26650381.220 6         0.00000     -2559.473          26.756  
E26  23530341.584 3  -1087166.53401       164.861          47.353    23530341.880 3   -819157.02605       123.090          34.918  
> 2021 07 14 20 52 03.9996552  0 26
G05  22273828.953 4  11137412.16002     -3516.884          40.818           0.000 0         0.00000         0.000           0.000  
G10  24246636.307 4   -424960.90402      2831.020          42.343    24246638.697 4   -335570.05808      2114.848          29.863  
G13  23393516.904 4  -3077974.66902       330.126          41.055           0.000 0         0.00000         0.000           0.000  
G15  22191371.020 4  -7477892.67103      1346.873          37.150           0.000 0         0.00000         0.000           0.000  
G16  23831181.209 4  -2996821.93802      1592.173          41.161           0.000 0         0.00000         0.000           0.000  
G18  20735576.746 3  -3604258.92501       221.533          48.852           0.000 0         0.00000         0.000           0.000  
G23  21471322.616 4 -11473504.81902      1935.238          39.998           0.000 0         0.00000         0.000           0.000  
G25  24314681.389 4  17315591.71903     -4198.849          36.929    24314687.392 5  12933200.11509     -3136.007          28.936  
G26  22580859.287 3  -4352046.28301      -309.348          45.829    22580862.882 3  -3301923.18105      -230.855          33.335  
G29  20650716.006 3   2920927.57401     -1670.536          45.648           0.000 0         0.00000         0.000           0.000  
R05  21556786.244 6         0.00000      3437.383          32.585  
R20  21583510.642 6   -811324.76603      1765.273          35.179  
R04  19797423.933 5  -7736050.83902        63.939          40.668  
J02  43315241.074 5         0.00000      -397.442          29.765           0.000 0         0.00000         0.000           0.000  
C19  23387730.901 4         0.00000      2401.183          30.919  
C20  22292145.661 3   -100363.22102      -179.926          40.821  
C29  21602661.680 3  -1429957.02301      -192.139          44.852  
C30  23700539.456 4         0.00000     -2585.979          32.758  
C32  24926894.166 3   9363487.38503     -3066.358          36.271  
C35  24140005.809 2  -8080630.74801      1803.407          43.913  
E01  25770120.115 4   3333564.61603     -1760.113          37.093    25770121.913 7   2483518.45809     -1306.402          22.584  
E07  25627942.634 4  -2836445.84102      1772.194          40.385    25627944.745 6         0.00000      1323.864          24.034  
E08  23768797.396 4    -26210.48602      -542.865          38.797    23768797.396 7         0.00000      -406.367          24.002  
E13  24563304.379 4   6898347.79402     -1739.491          41.660    24563304.379 3   5151714.49206     -1299.137          32.470  
E21  26651028.780 5         0.00000     -3467.575          33.403    26651032.078 5         0.00000     -2560.463          26.704  
E26  23530308.900 3  -1087331.66201       164.910          46.945    23530310.400 3   -819280.36205       123.472          34.682  
> 2021 07 14 20 52 04.9996552  0 26
G05  22274498.378 4  11140929.18002     -3518.236          39.796           0.000 0         0.00000         0.000           0.000  
G10  24246097.863 4   -427792.14201      2831.471          42.767    24246100.568 4   -337684.30206      2114.750          31.923  
G13  23393453.944 4  -3078304.95402       329.726          39.834           0.000 0         0.00000         0.000           0.000  
G15  22191113.211 4  -7479239.30902      1345.591          40.124           0.000 0         0.00000         0.000           0.000  
G16  23830876.022 4  -2998413.68902      1591.503          40.193           0.000 0         0.00000         0.000           0.000  
G18  20735534.778 3  -3604480.44301       221.142          48.363           0.000 0         0.00000         0.000           0.000  
G23  21470951.171 4 -11475439.91402      1936.029          39.324           0.000 0         0.00000         0.000           0.000  
G25  24315480.033 4  17319791.48503     -4199.063          37.714    24315486.333 5  12936336.29409     -3136.838          28.612  
G26  22580918.653 4  -4351736.98101      -309.648          43.636    22580921.951 4  -3301692.13407      -231.214          31.392  
G29  20651033.774 3   2922598.41301     -1671.347          46.156           0.000 0         0.00000         0.000           0.000  
R05  21556131.809 6         0.00000      3440.337          32.457  
R20  21583182.979 6   -813089.84903      1764.789          35.063  
R04  19797407.740 5  -7736114.79602        63.399          41.559  
J02  43315323.526 6         0.00000      -399.379          26.297           0.000 0         0.00000         0.000           0.000  
C19  23387272.815 4         0.00000      2399.570          29.923  
C20  22292181.033 3   -100183.40302      -180.171          41.172  
C29  21602692.863 3  -1429765.43601      -192.161          44.832  
C30  23701039.806 4         0.00000     -2585.553          34.207  
C32  24927484.455 4   9366553.45503     -3066.137          34.986  
C35  24139658.951 3  -8082434.82901      1803.247          42.784  
E01  25770454.985 5         0.00000     -1757.320          33.428           0.000 0         0.00000         0.000           0.000  
E07  25627606.281 4  -2838218.26702      1772.231          41.465    25627607.468 6         0.00000      1324.425          23.656  
E08  23768896.932 4    -25667.52503      -543.354          37.041    23768900.823 6         0.00000      -405.479          24.691  
E13  24563634.449 4   6900087.26402     -1739.667          41.262    24563636.247 4   5153013.40206     -1299.118          32.467  
E26  23530278.920 3  -1087496.76201       164.910          47.649    23530278.327 3   -819403.58805       122.992          33.671  
E21         0.000 0         0.00000         0.000           0.000    26651686.217 6         0.00000     -2565.999          24.977  
> 2021 07 14 20 52 05.9996552  0 27
G05  22275167.524 4  11144448.68802     -3521.053          39.345           0.000 0         0.00000         0.000           0.000  
G10  24245558.250 4   -430625.97102      2835.646          40.589    24245561.251 4         0.00000      2117.457          32.140  
G13  23393390.094 4  -3078632.25502       325.058          38.705           0.000 0         0.00000         0.000           0.000  
G15  22190857.181 4  -7480584.39802      1343.570          38.193           0.000 0         0.00000         0.000           0.000  
G16  23830577.135 4  -3000004.66703      1588.427          37.333           0.000 0         0.00000         0.000           0.000  
G18  20735493.718 4  -3604701.78501       220.384          44.078           0.000 0         0.00000         0.000           0.000  
G23  21470583.023 4 -11477376.33702      1937.736          42.461           0.000 0         0.00000         0.000           0.000  
G25  24316275.990 4  17323988.97502     -4196.205          38.348    24316282.883 5         0.00000     -3134.213          28.648  
G26  22580980.409 4         0.00000      -310.622          38.595    22580981.299 5  -3301461.32109      -230.994          28.974  
G29  20651351.560 3   2924270.13701     -1672.259          45.795           0.000 0         0.00000         0.000           0.000  
R05  21555487.546 6         0.00000      3440.032          32.615  
R20  21582860.394 6         0.00000      1767.064          32.456  
R04  19797406.239 5  -7736176.85902        61.353          39.672  
J02  43315405.367 6         0.00000      -399.093          23.267           0.000 0         0.00000         0.000           0.000  
C19  23386812.339 4         0.00000      2403.052          33.016  
C20  22292216.108 3   -100002.45702      -181.988          40.065  
C26  26072803.478 5         0.00000     -1571.980          23.865  
C29  21602731.830 3  -1429573.07501      -192.802          44.386  
C30  23701534.170 4         0.00000     -2589.147          35.516  
C32  24928074.150 4   9369622.66703     -3071.257          35.417  
C35  24139315.688 3  -8084239.44002      1805.014          38.785  
E01  25770788.947 4         0.00000     -1760.374          37.479           0.000 0         0.00000         0.000           0.000  
E07  25627267.206 4  -2839990.51802      1771.951          39.891           0.000 0         0.00000         0.000           0.000  
E08  23769004.565 5    -25121.84703      -547.749          35.477    23769003.954 6         0.00000      -406.362          26.299  
E13  24563969.616 4   6901828.68501     -1742.491          43.176    24563967.522 4   5154313.82006     -1301.144          32.124  
E21  26652334.667 5         0.00000     -3445.846          34.157    26652338.262 6   9825585.08709     -2561.162          23.677  
E26  23530246.550 4  -1087661.74201       166.139          43.377    23530246.847 5         0.00000       123.087          31.239  
> 2021 07 14 20 52 06.9996552  0 26
G05  22275838.450 4  11147972.45802     -3526.952          38.380           0.000 0         0.00000         0.000           0.000  
G10  24245018.916 4   -433464.11402      2840.614          40.764    24245021.010 4   -341919.76107      2121.298          30.920  
G13  23393328.634 4  -3078955.35702       320.474          40.149           0.000 0         0.00000         0.000           0.000  
G15  22190601.169 4  -7481927.44703      1341.318          37.843           0.000 0         0.00000         0.000           0.000  
G16  23830274.932 5         0.00000      1594.358          34.350           0.000 0         0.00000         0.000           0.000  
G18  20735449.639 4  -3604923.84109       222.933          42.831           0.000 0         0.00000         0.000           0.000  
G23  21470215.470 4 -11479315.59101      1941.064          43.400           0.000 0         0.00000         0.000           0.000  
G25  24317076.135 4  17328183.23203     -4191.875          37.422    24317082.138 5         0.00000     -3129.915          27.904  
G26  22581037.663 4         0.00000      -305.057          44.051    22581038.571 5         0.00000      -225.681          30.095  
G29  20651669.049 3   2925943.16201     -1673.622          45.729           0.000 0         0.00000         0.000           0.000  
R05  21554841.784 6         0.00000      3439.986          33.687  
R20  21582534.232 6         0.00000      1765.859          31.226  
R04  19797387.654 5  -7736236.49802        58.308          39.716  
J02  43315479.112 6         0.00000      -398.210          24.182           0.000 0         0.00000         0.000           0.000  
C19  23386353.956 4         0.00000      2405.867          31.959  
C20  22292253.591 3    -99819.98402      -183.324          41.186  
C26  26073101.161 5         0.00000     -1571.878          23.858  
C29  21602769.906 3  -1429379.49501      -194.145          44.220  
C30  23702031.519 3         0.00000     -2592.690          35.987  
C32  24928666.533 3   9372696.33303     -3076.564          36.511  
C35  24138967.032 3         0.00000      1805.906          39.706  
E07  25626928.741 4  -2841762.46302      1772.052          38.972           0.000 0         0.00000         0.000           0.000  
E08  23769104.991 5    -24572.17804      -552.221          34.524           0.000 0         0.00000         0.000           0.000  
E13  24564301.484 4   6903573.26901     -1746.383          43.844    24564298.779 4   5155616.60706     -1304.222          31.878  
E21  26652983.710 5         0.00000     -3423.328          34.928    26652989.120 7         0.00000     -2552.765          22.178  
E26  23530215.663 4         0.00000       165.521          39.513    23530216.274 5         0.00000       120.722          28.224  
> 2021 07 14 20 52 07.9996552  0 25
G05  22276510.580 4  11151501.56602     -3531.117          39.227           0.000 0         0.00000         0.000           0.000  
G10  24244476.301 4   -436308.27202      2847.065          38.304    24244480.193 4         0.00000      2125.354          30.877  
G13  23393268.082 4  -3079272.79402       314.450          39.968           0.000 0         0.00000         0.000           0.000  
G15  22190346.640 4  -7483267.94903      1338.859          36.888           0.000 0         0.00000         0.000           0.000  
G16  23829970.356 5         0.00000      1592.633          31.209           0.000 0         0.00000         0.000           0.000  
G18  20735407.374 3  -3605145.85701       221.929          48.786           0.000 0         0.00000         0.000           0.000  
G23  21469846.729 4 -11481258.63001      1945.014          43.399           0.000 0         0.00000         0.000           0.000  
G25  24317873.889 4  17332372.96102     -4187.342          39.380    24317878.670 5         0.00000     -3127.359          29.413  
G26  22581094.935 4  -4350810.03409      -304.321          42.119    22581096.732 4         0.00000      -226.636          30.602  
G29  20651987.725 3   2927617.74901     -1675.384          45.645           0.000 0         0.00000         0.000           0.000  
R05  21554200.244 6         0.00000      3438.450          31.693  
R20  21582208.349 6   -818386.22605      1765.270          32.263  
R04  19797369.070 5  -7736293.35402        55.656          40.155  
C19  23385885.977 4         0.00000      2407.116          33.862  
C20  22292287.165 3    -99635.56702      -185.842          40.712  
C26  26073403.050 5         0.00000     -1569.698          23.920  
C29  21602808.890 3  -1429184.32001      -196.230          44.935  
C30  23702530.368 4   9109095.99109     -2594.257          35.209  
C32  24929257.135 3   9375775.99503     -3082.631          37.656  
C35  24138618.970 3         0.00000      1806.429          40.226  
E01  25771454.184 4   3340565.02202     -1748.291          41.046    25771459.594 5         0.00000     -1304.411          26.928  
E08  23769206.621 5    -24017.33104      -557.562          32.671    23769211.420 5         0.00000      -416.025          27.109  
E13  24564632.759 4   6905322.15701     -1751.091          43.525    24564632.759 4   5156922.59907     -1307.815          31.633  
E21  26653638.460 5         0.00000     -3418.393          34.977    26653639.071 7         0.00000     -2552.347          22.888  
E26  23530182.385 4  -1087992.83401       164.700          46.777    23530184.794 3   -819773.30206       123.090          32.953  
> 2021 07 14 20 52 08.9996552  0 25
G05  22277181.227 4  11155035.95002     -3536.475          39.003           0.000 0         0.00000         0.000           0.000  
G10  24243932.169 4   -439158.14602      2853.036          38.372    24243938.172 4   -346171.73907      2129.807          31.641  
G13  23393207.215 4  -3079585.02002       310.016          39.400           0.000 0         0.00000         0.000           0.000  
G16  23829669.950 5         0.00000      1592.509          30.109           0.000 0         0.00000         0.000           0.000  
G18  20735365.703 3  -3605368.25101       222.895          48.241           0.000 0         0.00000         0.000           0.000  
G23  21469476.488 4 -11483205.48901      1948.614          43.566           0.000 0         0.00000         0.000           0.000  
G25  24318671.329 4  17336558.28002     -4183.692          39.517    24318675.831 4  12948856.78608     -3124.344          30.380  
G26  22581154.894 4  -4350507.59609      -300.732          42.571    22581154.283 5         0.00000      -225.141          29.322  
G29  20652306.994 3   2929293.57401     -1676.763          45.469           0.000 0         0.00000         0.000           0.000  
R05  21553541.289 6         0.00000      3446.564          34.280  
R20  21581862.992 6         0.00000      1766.521          30.069  
R04  19797356.471 5  -7736347.51302        53.046          40.806  
C19  23385425.500 4 -11785820.69103      2413.256          35.492  
C20  22292323.148 3    -99449.72902      -186.874          42.038  
C26  26073700.157 5         0.00000     -1567.646          23.662  
C29  21602844.261 3  -1428987.87101      -197.161          45.332  
C30  23703030.422 4   9111692.18109     -2596.712          33.229  
C32  24929847.720 3   9378861.39502     -3088.036          38.945  
C35  24138272.112 3         0.00000      1810.382          37.656  
E01  25771784.866 4   3342310.70602     -1743.562          41.917    25771788.757 6         0.00000     -1298.705          27.053  
E07  25626254.203 4  -2845305.92903      1770.372          37.447    25626260.206 7         0.00000      1320.958          22.250  
E13  24564966.721 4   6907074.92501     -1754.483          43.638    24564966.128 4   5158231.47407     -1310.443          31.643  
E21  26654284.816 4         0.00000     -3404.236          37.166    26654288.411 7         0.00000     -2552.067          22.595  
E26  23530153.017 3  -1088157.98501       165.750          46.970    23530153.610 3   -819896.63106       123.749          33.104  
E08         0.000 0         0.00000         0.000           0.000    23769318.145 5    -30289.53609      -419.348          27.721  
> 2021 07 14 20 52 09.9996552  0 27
G05  22277857.859 4  11158574.39602     -3539.353          39.319           0.000 0         0.00000         0.000           0.000  
G10  24243391.648 4   -442012.45603      2855.223          37.265    24243394.039 4   -348303.22007      2131.937          31.525  
G13  23393151.462 4  -3079892.94102       306.942          39.009           0.000 0         0.00000         0.000           0.000  
G15  22189833.988 5         0.00000      1335.444          34.535           0.000 0         0.00000         0.000           0.000  
G16  23829362.669 5         0.00000      1590.168          32.928           0.000 0         0.00000         0.000           0.000  
G18  20735322.828 3  -3605590.85301       222.399          48.697           0.000 0         0.00000         0.000           0.000  
G23  21469105.950 4 -11485155.30701      1949.960          44.307           0.000 0         0.00000         0.000           0.000  
G25  24319467.583 4  17340739.90402     -4180.983          40.352    24319471.177 4  12951979.49608     -3122.410          30.558  
G26  22581210.944 3  -4350206.53009      -301.192          46.319    22581210.351 3  -3300553.16406      -225.066          33.015  
G29  20652626.281 4   2930970.52901     -1677.609          44.068           0.000 0         0.00000         0.000           0.000  
R05  21552894.933 6         0.00000      3451.743          34.635  
R20  21581529.920 6   -821911.60505      1765.117          31.787  
R04  19797347.484 5  -7736399.53402        51.343          40.683  
J02  43315683.279 5         0.00000      -388.598          28.228           0.000 0         0.00000         0.000           0.000  
C19  23384959.632 3 -11788235.62503      2415.165          36.325  
C20  22292358.816 3    -99262.37401      -188.218          43.183  
C26  26074000.842 5         0.00000     -1566.552          24.350  
C29  21602884.729 3  -1428790.35201      -198.023          45.031  
C30  23703529.289 4         0.00000     -2599.097          32.024  
C32  24930443.715 3   9381951.34202     -3090.852          38.981  
C35  24137925.865 3  -8091467.21209      1808.431          41.499  
E01  25772117.031 4   3344053.68602     -1742.434          42.528    25772120.922 5   2491369.16209     -1301.104          28.822  
E07  25625917.536 4  -2847077.65603      1770.914          36.764           0.000 0         0.00000         0.000           0.000  
E13  24565300.387 3   6908830.75701     -1756.354          44.336    24565299.497 4         0.00000     -1312.034          30.884  
E21  26654931.765 4         0.00000     -3395.043          38.943    26654938.658 6         0.00000     -2550.461          24.511  
E26  23530121.537 4  -1088323.10101       165.057          46.728    23530122.427 3   -820019.91006       123.011          33.254  
E08         0.000 0         0.00000         0.000           0.000    23769426.371 5         0.00000      -422.014          27.224  
> 2021 07 14 20 52 10.9996552  0 27
G05  22278529.099 4  11162112.96702     -3538.491          39.619           0.000 0         0.00000         0.000           0.000  
G10  24242847.515 4   -444865.87502      2852.054          38.529    24242851.128 4   -350434.05406      2129.676          32.001  
G13  23393093.597 4  -3080200.39002       307.603          39.609           0.000 0         0.00000         0.000           0.000  
G15  22189582.774 5         0.00000      1331.454          34.257           0.000 0         0.00000         0.000           0.000  
G16  23829061.077 4  -3007969.94509      1589.388          36.228           0.000 0         0.00000         0.000           0.000  
G18  20735280.267 3  -3605813.08501       221.893          47.757           0.000 0         0.00000         0.000           0.000  
G23  21468734.504 4 -11487104.17201      1947.902          42.648           0.000 0         0.00000         0.000           0.000  
G25  24320264.429 4  17344922.12902     -4183.176          40.574    24320266.227 5  12955102.57609     -3123.593          29.376  
G26  22581267.901 3  -4349904.63509      -302.713          47.233    22581269.105 3  -3300327.72405      -226.244          33.529  
G29  20652945.550 3   2932648.13201     -1677.923          45.270           0.000 0         0.00000         0.000           0.000  
R05  21552257.284 6         0.00000      3449.484          33.449  
R20  21581216.339 6   -823677.30504      1765.256          32.638  
R04  19797349.578 5  -7736450.46502        50.671          41.029  
J02  43315754.930 4         0.00000      -390.675          37.463           0.000 0         0.00000         0.000           0.000  
C19  23384498.841 3 -11790649.74703      2413.225          35.846  
C20  22292393.594 3    -99074.34702      -188.331          41.236  
C26  26074295.245 4         0.00000     -1562.145          29.863  
C29  21602922.508 3  -1428592.44201      -197.911          45.610  
C30  23704026.637 4         0.00000     -2601.655          33.207  
C32  24931038.192 3   9385041.24102     -3089.070          39.672  
C35  24137578.396 3  -8093275.42809      1808.259          42.976  
E01  25772449.492 4   3345797.53801     -1745.063          42.769    25772454.588 4         0.00000     -1303.097          29.630  
E07  25625578.182 4  -2848848.85603      1770.651          36.871           0.000 0         0.00000         0.000           0.000  
E13  24565634.960 4   6910586.62801     -1755.296          43.459    24565633.459 4   5160853.86407     -1310.811          31.264  
E21  26655579.622 4  13204413.86402     -3408.691          38.358    26655587.422 6         0.00000     -2547.673          25.718  
E26  23530089.149 3  -1088488.06101       164.830          47.017    23530090.946 3   -820143.15105       123.537          33.640  
E08         0.000 0         0.00000         0.000           0.000    23769532.783 5    -29447.45409      -420.934          28.185  
> 2021 07 14 20 52 11.9996552  0 27
G05  22279201.526 4  11165648.10402     -3532.244          39.522           0.000 0         0.00000         0.000           0.000  
G10  24242304.901 4   -447714.62002      2844.378          39.710    24242308.496 4   -352561.32708      2123.769          30.256  
G13  23393033.341 4  -3080510.99202       313.944          38.230           0.000 0         0.00000         0.000           0.000  
G15  22189325.541 5  -7488609.20709      1337.921          35.783           0.000 0         0.00000         0.000           0.000  
G16  23828760.689 4  -3009558.91509      1587.913          38.475           0.000 0         0.00000         0.000           0.000  
G18  20735237.688 3  -3606034.54901       220.737          47.425           0.000 0         0.00000         0.000           0.000  
G23  21468363.949 4 -11489049.21202      1941.776          40.986           0.000 0         0.00000         0.000           0.000  
G25  24321059.479 4  17349107.87402     -4188.816          40.245    24321062.166 5  12958228.26909     -3127.614          29.185  
G26  22581325.173 3  -4349599.95709      -307.341          46.567    22581326.063 4  -3300100.19906      -229.449          32.926  
G29  20653265.744 3   2934325.63201     -1676.959          46.577           0.000 0         0.00000         0.000           0.000  
R05  21551626.511 6         0.00000      3442.966          31.545  
R20  21580875.170 6   -825442.76304      1765.329          33.816  
R04  19797337.293 5  -7736501.82502        52.709          41.337  
J02  43315827.767 4    128162.34309      -393.324          42.572           0.000 0         0.00000         0.000           0.000  
C19  23384033.863 4 -11793060.44304      2407.116          33.813  
C20  22292428.966 3    -98886.51402      -186.936          40.211  
C26  26074585.442 4         0.00000     -1559.847          32.305  
C29  21602956.379 2  -1428395.06501      -196.594          45.927  
C30  23704529.099 4   9119483.11809     -2595.094          34.462  
C32  24931627.590 3   9388127.44602     -3082.299          40.306  
C35  24137230.334 3  -8095082.67209      1806.345          42.801  
E01  25772783.769 4   3347544.99702     -1750.809          42.582    25772786.770 5   2493976.42208     -1307.407          29.551  
E07  25625243.312 4  -2850619.52803      1770.774          37.723           0.000 0         0.00000         0.000           0.000  
E08  23769638.915 5         0.00000      -557.562          32.905    23769639.822 5         0.00000      -416.808          27.438  
E13  24565967.125 4   6912339.59402     -1749.897          42.387    24565967.125 4         0.00000     -1306.741          31.858  
E21  26656226.572 4  13207826.00502     -3416.076          38.154    26656236.466 6         0.00000     -2548.361          24.638  
E26  23530057.983 3  -1088652.77401       164.392          46.926    23530059.466 3   -820266.14905       123.009          34.327  
> 2021 07 14 20 52 12.9996552  0 27
G05  22279872.452 4  11169175.41102     -3523.516          40.281           0.000 0         0.00000         0.000           0.000  
G10  24241766.178 4   -450553.00202      2832.997          40.405    24241769.162 4   -354680.95207      2115.542          31.542  
G13  23392972.772 4  -3080829.07502       322.375          39.570           0.000 0         0.00000         0.000           0.000  
G15  22189071.623 4  -7489948.27402      1340.597          38.850           0.000 0         0.00000         0.000           0.000  
G16  23828456.095 4  -3011146.62802      1587.265          40.842           0.000 0         0.00000         0.000           0.000  
G18  20735196.611 3  -3606254.46501       218.966          46.804           0.000 0         0.00000         0.000           0.000  
G23  21467994.615 4 -11490986.40002      1932.670          38.684           0.000 0         0.00000         0.000           0.000  
G25  24321859.327 4  17353301.17602     -4197.413          40.025    24321861.124 5  12961359.59509     -3133.962          28.745  
G26  22581383.928 3  -4349289.10101      -313.314          46.467    22581385.132 4  -3299868.45305      -234.281          33.355  
G29  20653584.717 3   2936002.26901     -1676.416          46.781           0.000 0         0.00000         0.000           0.000  
R05  21550991.864 6   -862062.69009      3434.144          28.200  
R20  21580552.586 6   -827207.23904      1763.885          33.612  
R04  19797322.897 5  -7736555.10302        54.277          41.185  
J02  43315903.623 4    128556.83509      -396.727          40.072           0.000 0         0.00000         0.000           0.000  
C19  23383573.683 4         0.00000      2399.291          31.514  
C20  22292465.245 3    -98699.82302      -186.024          40.193  
C26  26074881.624 4         0.00000     -1566.722          33.066  
C29  21602997.457 2  -1428199.04501      -195.498          46.357  
C30  23705025.243 4   9122075.51109     -2589.691          35.553  
C32  24932220.880 3   9391204.96202     -3073.565          39.498  
C35  24136884.384 3  -8096887.61809      1803.620          42.829  
E01  25773115.637 4   3349300.32202     -1759.395          42.312    25773119.232 4         0.00000     -1313.643          29.984  
E07  25624905.738 4  -2852389.62002      1769.914          38.183           0.000 0         0.00000         0.000           0.000  
E08  23769748.049 5    -21215.05604      -550.212          32.821    23769744.437 6    -28614.83409      -410.773          25.985  
E13  24566300.197 4   6914086.14602     -1743.467          41.043    24566299.604 4   5163467.12006     -1301.671          32.180  
E21  26656881.025 4  13211247.63003     -3426.084          37.696    26656885.509 5         0.00000     -2550.990          27.326  
E26  23530026.799 3  -1088816.83501       163.540          47.276    23530028.597 3   -820388.62005       122.114          34.393  
> 2021 07 14 20 52 13.9996552  0 26
G05  22280541.598 4  11172696.16702     -3520.884          39.447           0.000 0         0.00000         0.000           0.000  
G10  24241227.751 4   -453383.20402      2829.285          41.841    24241230.735 4   -356794.33308      2112.536          30.246  
G13  23392912.219 4  -3081153.25902       323.734          39.286           0.000 0         0.00000         0.000           0.000  
G15  22188816.501 4  -7491289.67702      1340.827          40.486           0.000 0         0.00000         0.000           0.000  
G16  23828155.707 4         0.00000      1591.804          37.952           0.000 0         0.00000         0.000           0.000  
G18  20735154.643 3  -3606473.39401       218.744          46.496           0.000 0         0.00000         0.000           0.000  
G23  21467625.561 4 -11492917.58202      1929.933          39.001           0.000 0         0.00000         0.000           0.000  
G25  24322658.564 4  17357500.29302     -4199.721          38.450    24322662.159 5  12964495.53009     -3137.514          28.644  
G26  22581444.183 3  -4348974.16601      -315.900          44.364    22581446.278 4  -3299633.36807      -235.368          31.778  
G29  20653903.393 3   2937678.02301     -1676.393          47.068           0.000 0         0.00000         0.000           0.000  
R05  21550336.818 6         0.00000      3430.978          28.933  
R20  21580223.125 6   -828971.28404      1764.082          33.410  
R04  19797315.393 5  -7736610.07802        54.331          41.695  
C19  23383115.597 4         0.00000      2393.515          30.658  
C20  22292500.913 3    -98514.29902      -186.132          41.523  
C26  26075189.516 4         0.00000     -1574.906          31.008  
C29  21603034.033 2  -1428004.41601      -194.837          46.961  
C30  23705522.906 4   9124664.42209     -2588.946          35.191  
C32  24932809.668 3   9394275.12102     -3070.314          38.617  
C35  24136538.416 3  -8098690.86809      1803.950          42.010  
E01  25773452.304 4   3351061.81402     -1761.817          42.276    25773454.712 5   2496602.58008     -1315.850          29.562  
E07  25624570.275 4  -2854159.41902      1769.050          38.595           0.000 0         0.00000         0.000           0.000  
E08  23769855.961 5         0.00000      -571.428          33.286    23769848.475 6    -28205.40909      -405.559          24.952  
E13  24566631.769 4   6915827.15202     -1740.816          40.319    24566630.268 3   5164767.22106     -1300.014          32.518  
E21  26657531.569 4  13214676.87403     -3430.525          36.665    26657536.664 5         0.00000     -2560.245          27.597  
E26  23529993.818 3  -1088980.61601       163.493          46.991    23529997.710 3   -820510.92805       122.060          34.515  
> 2021 07 14 20 52 14.9996552  0 25
G05  22281213.432 4  11176217.61302     -3522.837          39.621           0.000 0         0.00000         0.000           0.000  
G10  24240689.307 4   -456213.54602      2831.574          40.333    24240694.106 5         0.00000      2113.927          27.714  
G13  23392849.556 4  -3081476.08702       320.492          38.710           0.000 0         0.00000         0.000           0.000  
G15  22188561.082 4  -7492629.53602      1338.396          39.603           0.000 0         0.00000         0.000           0.000  
G16  23827849.613 5         0.00000      1596.157          33.025           0.000 0         0.00000         0.000           0.000  
G18  20735113.582 3  -3606692.32301       219.329          48.439           0.000 0         0.00000         0.000           0.000  
G23  21467259.228 4 -11494848.42302      1931.497          39.346           0.000 0         0.00000         0.000           0.000  
G25  24323459.320 4  17361699.85402     -4198.698          38.013    24323461.711 5         0.00000     -3134.910          27.012  
G26  22581503.846 4  -4348659.61001      -313.273          42.645    22581507.737 4  -3299398.31207      -234.184          31.528  
G29  20654222.976 3   2939354.78801     -1677.529          45.157           0.000 0         0.00000         0.000           0.000  
R05  21549685.960 6         0.00000      3432.991          29.800  
R20  21579878.658 6   -830735.71604      1764.943          32.554  
R04  19797306.406 5  -7736663.59401        52.286          42.524  
C19  23382659.920 4         0.00000      2398.010          31.825  
C20  22292536.895 3    -98327.70202      -187.698          42.411  
C26  26075490.218 4         0.00000     -1572.462          34.723  
C29  21603073.592 2  -1427809.29101      -195.567          46.284  
C30  23706020.255 4         0.00000     -2586.248          33.927  
C32  24933398.456 3   9397345.96303     -3072.279          37.825  
C35  24136190.354 3  -8100494.70402      1805.890          39.420  
E01  25773785.970 4   3352823.11802     -1759.706          40.939    25773790.769 5   2497917.98709     -1315.311          29.045  
E13  24566960.042 4   6917568.90302     -1742.775          38.874    24566962.136 4   5166067.94406     -1301.625          32.313  
E21  26658182.724 4  13218106.10103     -3427.790          38.025    26658190.820 5   9848537.00009     -2559.574          28.609  
E26  23529967.137 3  -1089144.62001       164.223          46.877    23529966.247 3   -820633.45805       123.171          34.764  
E08         0.000 0         0.00000         0.000           0.000    23769951.902 6         0.00000      -411.045          25.245  
> 2021 07 14 20 52 15.9996552  0 26
G05  22281885.858 4  11179741.25902     -3525.159          39.360           0.000 0         0.00000         0.000           0.000  
G10  24240152.992 4         0.00000      2835.086          39.251    24240153.289 6         0.00000      2115.495          25.486  
G13  23392789.300 4  -3081794.68902       316.412          37.945           0.000 0         0.00000         0.000           0.000  
G15  22188304.755 4  -7493966.30702      1333.770          38.422           0.000 0         0.00000         0.000           0.000  
G18  20735072.208 3  -3606912.75001       221.564          49.170           0.000 0         0.00000         0.000           0.000  
G23  21466892.268 4 -11496779.41901      1929.893          43.724           0.000 0         0.00000         0.000           0.000  
G25  24324254.369 4  17365900.30909     -4197.717          36.634    24324260.058 6         0.00000     -3134.684          25.249  
G26  22581563.508 3  -4348347.73601      -310.690          45.702    22581566.510 5         0.00000      -233.196          29.663  
G29  20654541.948 4   2941034.13002     -1681.655          40.000           0.000 0         0.00000         0.000           0.000  
R05  21549040.808 6         0.00000      3433.208          32.762  
R20  21579549.791 6         0.00000      1767.105          31.139  
R04  19797295.011 5  -7736713.35101        47.649          44.899  
J02  43316129.970 4    129741.46409      -390.049          36.702           0.000 0         0.00000         0.000           0.000  
C19  23382190.439 3 -11802658.13609      2394.823          38.268  
C20  22292570.766 3         0.00000      -186.876          38.619  
C26  26075789.995 3   5108457.66909     -1564.424          38.518  
C29  21603111.372 3  -1427613.79401      -195.249          43.065  
C30  23706517.307 4         0.00000     -2592.998          33.860  
C32  24933988.151 3   9400419.26202     -3073.955          40.093  
C35  24135846.497 3  -8102302.07502      1809.669          42.158  
E01  25774122.637 4   3354581.93902     -1757.918          41.693    25774125.935 5         0.00000     -1312.854          28.233  
E07  25623895.737 4  -2857693.58802      1764.680          39.374    25623905.037 7         0.00000      1318.983          22.710  
E08  23770061.629 5         0.00000      -552.086          33.088    23770055.923 6         0.00000      -410.908          23.989  
E13  24567292.207 4   6919313.49103     -1746.096          36.305    24567294.004 5   5167370.33008     -1302.891          30.253  
E21  26658837.770 4  13221534.88001     -3429.574          42.946    26658842.569 6         0.00000     -2560.330          26.945  
E26  23529930.858 3  -1089310.30201       166.747          47.006    23529934.156 3   -820757.16805       124.683          34.122  
> 2021 07 14 20 52 16.9996552  0 27
G05  22282555.301 4  11183263.51402     -3519.728          41.056           0.000 0         0.00000         0.000           0.000  
G10  24239613.065 4   -461873.25109      2825.962          41.736           0.000 0         0.00000         0.000           0.000  
G13  23392727.840 4  -3082111.65302       315.365          38.170           0.000 0         0.00000         0.000           0.000  
G15  22188050.523 4  -7495297.63409      1334.957          36.352           0.000 0         0.00000         0.000           0.000  
G16  23827247.930 4  -3017510.59409      1595.758          37.146           0.000 0         0.00000         0.000           0.000  
G18  20735029.036 3  -3607135.61201       223.416          46.109           0.000 0         0.00000         0.000           0.000  
G23  21466525.935 4 -11498706.93301      1926.578          43.573           0.000 0         0.00000         0.000           0.000  
G25  24325053.903 5         0.00000     -4200.855          34.425    24325060.203 6  12973909.62709     -3144.089          24.621  
G26  22581622.856 4  -4348038.50401      -308.716          43.134           0.000 0         0.00000         0.000           0.000  
G29  20654861.235 3   2942715.62601     -1682.027          45.740           0.000 0         0.00000         0.000           0.000  
R05  21548397.750 5         0.00000      3423.647          38.864  
R20  21579218.220 6   -834276.21704      1775.017          33.176  
R19  20205120.386 6         0.00000      -990.080          32.358  
R04  19797290.527 5  -7736760.86001        47.188          45.117  
C19  23381733.854 3         0.00000      2387.226          35.839  
C20  22292613.641 2    -97946.97409      -192.485          44.399  
C26  26076088.900 3   5110020.46709     -1561.633          42.671  
C29  21603147.354 3         0.00000      -196.313          39.745  
C30  23707012.876 3         0.00000     -2596.517          40.132  
C32  24934579.050 3         0.00000     -3070.428          37.557  
C35  24135495.748 2  -8104113.86101      1812.716          44.805  
E01  25774460.211 3   3356339.88301     -1758.473          45.075    25774459.007 5         0.00000     -1310.839          28.064  
E07  25623564.776 4         0.00000      1761.313          36.844    25623569.260 6         0.00000      1315.664          24.743  
E08  23770166.557 5         0.00000      -551.508          35.863    23770163.259 7         0.00000      -422.097          23.610  
E13  24567626.483 5   6921056.67803     -1741.477          36.029    24567626.483 6         0.00000     -1305.860          26.721  
E21  26659488.907 4  13224967.89002     -3435.007          38.504    26659493.706 6         0.00000     -2559.579          24.929  
E26  23529900.582 3  -1089479.19101       169.664          46.276    23529902.990 4         0.00000       125.794          31.466  
> 2021 07 14 20 52 17.9996552  0 29
G05  22283222.946 4  11186781.47202     -3517.407          42.067           0.000 0         0.00000         0.000           0.000  
G10  24239077.029 4         0.00000      2826.506          39.352    24239078.827 6         0.00000      2103.266          25.382  
G13  23392669.086 4  -3082428.78602       315.071          39.463           0.000 0         0.00000         0.000           0.000  
G15  22187800.200 4  -7496626.65503      1328.316          37.028           0.000 0         0.00000         0.000           0.000  
G16  23826941.242 4  -3019110.57809      1602.616          42.905           0.000 0         0.00000         0.000           0.000  
G18  20734984.067 4  -3607361.65502       230.400          40.125           0.000 0         0.00000         0.000           0.000  
G20  24976702.881 6         0.00000     -3988.031          26.754           0.000 0         0.00000         0.000           0.000  
G23  21466161.679 4 -11500630.05902      1920.312          39.070           0.000 0         0.00000         0.000           0.000  
G25  24325859.754 5         0.00000     -4214.067          34.859    24325861.848 7         0.00000     -3154.654          22.796  
G26  22581681.018 3  -4347730.50001      -306.991          45.442    22581682.222 5         0.00000      -225.534          27.174  
G29  20655182.912 4   2944398.96401     -1683.923          43.022           0.000 0         0.00000         0.000           0.000  
R05  21547768.495 5         0.00000      3417.742          38.199  
R20  21578885.147 6   -836053.60203      1779.481          35.107  
R19  20205250.494 6         0.00000      -986.389          29.112  
R04  19797274.629 5  -7736806.71102        45.080          42.184  
J02  43316274.458 4    130511.78909      -380.875          42.781    43316279.553 7         0.00000      -292.672          22.348  
C19  23381274.582 3         0.00000      2380.689          40.598  
C20  22292648.716 3    -97753.45409      -194.589          42.362  
C26  26076387.194 3         0.00000     -1559.920          40.872  
C29  21603183.930 3  -1427226.07409      -192.144          41.588  
C30  23707513.226 3   9135045.95309     -2598.934          39.220  
C32  24935166.634 3         0.00000     -3065.251          37.880  
C35  24135146.482 3  -8105929.46802      1817.297          42.182  
E01  25774790.875 4   3358099.01301     -1759.555          43.987    25774793.877 5   2501858.38809     -1314.653          29.519  
E07  25623230.499 5         0.00000      1751.428          34.569    25623234.705 6         0.00000      1311.830          27.031  
E08  23770270.578 4    -18397.39903      -550.956          37.990    23770270.578 7         0.00000      -419.634          23.165  
E13  24567961.056 5   6922798.04203     -1741.117          34.915    24567960.446 6         0.00000     -1300.584          24.607  
E26  23529868.212 4  -1089650.85502       174.096          41.424    23529870.306 6         0.00000       130.251          27.217  
E21         0.000 0         0.00000         0.000           0.000    26660148.752 7         0.00000     -2567.274          23.548  
> 2021 07 14 20 52 18.9996552  0 27
G05  22283890.278 4         0.00000     -3513.399          39.376           0.000 0         0.00000         0.000           0.000  
G10  24238541.604 4         0.00000      2816.521          36.946    24238544.606 6         0.00000      2101.994          24.445  
G13  23392610.331 4         0.00000       316.360          37.312           0.000 0         0.00000         0.000           0.000  
G15  22187547.172 4  -7497950.73402      1321.586          39.647           0.000 0         0.00000         0.000           0.000  
G16  23826635.759 4  -3020716.45902      1609.192          40.966           0.000 0         0.00000         0.000           0.000  
G18  20734946.287 4  -3607589.31109       227.826          38.657           0.000 0         0.00000         0.000           0.000  
G20  24977474.547 6         0.00000     -3977.258          25.767           0.000 0         0.00000         0.000           0.000  
G23  21465796.830 4         0.00000      1916.421          36.896           0.000 0         0.00000         0.000           0.000  
G25  24326659.899 4  17378524.07709     -4224.187          38.062    24326664.698 7         0.00000     -3155.808          22.731  
G26  22581740.087 3  -4347425.00701      -302.888          45.156    22581741.588 4  -3298474.94908      -225.918          30.174  
G29  20655501.885 4   2946084.20701     -1686.392          42.833           0.000 0         0.00000         0.000           0.000  
R05  21547119.434 5         0.00000      3411.202          37.017  
R20  21578555.077 6   -837837.01303      1786.764          35.264  
J02  43316347.313 4    130889.92502      -374.063          38.924    43316352.705 6         0.00000      -289.008          24.707  
C19  23380817.997 3         0.00000      2379.089          37.319  
C20  22292684.699 3    -97557.96309      -196.870          42.027  
C26  26076688.786 3         0.00000     -1552.277          37.788  
C29  21603220.506 2  -1427034.77809      -190.432          44.856  
C30  23708009.388 5         0.00000     -2592.520          37.111  
C32  24935756.626 4         0.00000     -3056.922          34.399  
C35  24134800.217 2  -8107750.18001      1823.613          47.415  
E01  25775126.949 4   3359857.65302     -1757.682          41.912    25775127.839 6         0.00000     -1333.043          24.748  
E07  25622890.534 5         0.00000      1742.153          34.596    25622898.928 6         0.00000      1306.451          25.453  
E08  23770375.210 4         0.00000      -551.432          37.295    23770377.304 7         0.00000      -419.859          22.863  
E13  24568289.923 5         0.00000     -1739.750          35.507    24568288.422 6         0.00000     -1297.111          27.057  
E21  26660802.612 5         0.00000     -3444.802          34.099           0.000 0         0.00000         0.000           0.000  
E26  23529835.824 4  -1089826.12402       177.168          38.323    23529836.435 5         0.00000       135.087          28.459  
> 2021 07 14 20 52 19.9996552  0 27
G05  22284558.516 4  11193805.71809     -3512.783          41.288           0.000 0         0.00000         0.000           0.000  
G10  24238004.679 5         0.00000      2810.933          34.279    24238010.071 7         0.00000      2096.829          23.288  
G13  23392552.169 5         0.00000       317.059          32.698           0.000 0         0.00000         0.000           0.000  
G15  22187294.754 4  -7499267.68102      1312.737          38.179           0.000 0         0.00000         0.000           0.000  
G16  23826328.164 4  -3022329.74202      1616.844          39.021           0.000 0         0.00000         0.000           0.000  
G18  20734903.726 4  -3607820.78102       233.637          39.164           0.000 0         0.00000         0.000           0.000  
G20  24978236.319 6         0.00000     -3961.890          25.992           0.000 0         0.00000         0.000           0.000  
G23  21465434.686 4 -11504464.87009      1913.907          39.051           0.000 0         0.00000         0.000           0.000  
G25  24327467.844 4         0.00000     -4232.290          36.893    24327470.532 7         0.00000     -3155.779          23.013  
G26  22581795.247 3  -4347124.28001      -298.622          44.698    22581798.545 5  -3298250.27409      -223.207          29.334  
G29  20655822.672 4   2947772.81701     -1690.480          43.457           0.000 0         0.00000         0.000           0.000  
R05  21546483.286 5   -886023.62502      3399.875          38.883  
R20  21578220.207 5   -839627.60203      1794.413          37.929  
R19  20205663.907 6   2984193.50103      -982.260          35.672  
R04  19797264.438 6         0.00000        39.924          35.277  
J02         0.000 0         0.00000         0.000           0.000    43316423.762 6         0.00000      -283.529          26.609  
C19  23380364.099 4         0.00000      2372.128          34.869  
C20  22292726.963 2    -97358.80209      -200.946          44.677  
C29  21603257.064 2  -1426844.80809      -189.354          43.415  
C30  23708507.940 4         0.00000     -2606.820          35.254  
C32  24936342.726 3         0.00000     -3060.412          40.976  
C35  24134447.967 2  -8109577.50301      1830.453          47.926  
E01  25775463.320 4   3361613.44109     -1757.726          37.429    25775461.522 7         0.00000     -1305.815          23.011  
E07  25622564.965 5         0.00000      1733.574          34.277    25622568.560 6         0.00000      1295.843          24.594  
E08  23770478.637 5         0.00000      -554.681          34.917    23770483.436 7         0.00000      -418.325          22.893  
E13  24568620.291 4   6926278.96702     -1741.010          39.729    24568619.087 4   5172568.94208     -1300.282          30.498  
E26  23529801.360 4  -1090005.61702       181.474          38.607    23529801.657 6         0.00000       137.040          26.405  
> 2021 07 14 20 52 20.9996552  0 28
G05  22285224.957 4  11197318.50909     -3512.741          41.684           0.000 0         0.00000         0.000           0.000  
G10  24237470.440 4         0.00000      2806.643          39.148           0.000 0         0.00000         0.000           0.000  
G13  23392487.411 4         0.00000       306.867          41.726           0.000 0         0.00000         0.000           0.000  
G15  22187044.117 4         0.00000      1306.187          36.763           0.000 0         0.00000         0.000           0.000  
G16  23826018.789 4  -3023951.12102      1625.500          41.225           0.000 0         0.00000         0.000           0.000  
G18  20734858.146 4  -3608056.18401       237.497          42.683           0.000 0         0.00000         0.000           0.000  
G20  24978984.898 6         0.00000     -3973.912          24.905           0.000 0         0.00000         0.000           0.000  
G25  24328271.584 5  17386988.68309     -4239.350          35.318           0.000 0         0.00000         0.000           0.000  
G26  22581853.112 3  -4346828.79801      -292.995          44.946    22581854.298 5         0.00000      -218.618          29.444  
G29  20656145.536 3   2949465.33201     -1694.526          44.853           0.000 0         0.00000         0.000           0.000  
R05  21545833.336 5   -889419.74603      3391.535          37.338  
R20  21577871.255 5   -841425.83202      1802.279          38.289  
R19  20205850.084 5   2985175.85903      -982.354          36.918  
R04  19797253.043 5  -7736931.26403        33.098          37.310  
J02         0.000 0         0.00000         0.000           0.000    43316495.413 6         0.00000      -280.016          26.938  
C19  23379907.515 3 -11814555.50709      2363.014          36.600  
C20  22292765.336 3    -97155.03601      -205.251          43.180  
C26  26077284.170 3         0.00000     -1539.780          35.793  
C29  21603291.545 3  -1426655.43602      -188.390          42.399  
C30  23709013.683 3         0.00000     -2616.844          41.093  
C32  24936928.216 3   9415747.68702     -3059.122          41.841  
C35  24134093.605 3  -8111412.07201      1838.231          45.362  
E01  25775799.079 5   3363366.82103     -1751.766          34.735    25775796.374 6         0.00000     -1312.689          23.520  
E07  25622240.287 4         0.00000      1726.845          38.836           0.000 0         0.00000         0.000           0.000  
E08  23770582.064 5    -16733.07903      -559.276          35.185           0.000 0         0.00000         0.000           0.000  
E13  24568952.159 4   6928020.80801     -1742.604          44.138    24568950.065 5   5173869.58207     -1301.044          30.809  
E21  26662120.487 5  13238754.59503     -3455.952          36.126    26662119.597 6         0.00000     -2581.362          23.794  
E26  23529767.175 4  -1090189.59302       186.239          39.041    23529763.877 6         0.00000       141.662          25.129  
> 2021 07 14 20 52 21.9996552  0 28
G05  22285895.290 4  11200831.21309     -3512.954          41.904           0.000 0         0.00000         0.000           0.000  
G10  24236933.811 4         0.00000      2804.387          38.054           0.000 0         0.00000         0.000           0.000  
G13  23392431.658 3  -3083688.44509       302.022          45.236           0.000 0         0.00000         0.000           0.000  
G15  22186798.592 4  -7501880.21309      1298.221          38.601           0.000 0         0.00000         0.000           0.000  
G16  23825709.396 4  -3025580.06202      1632.285          41.854           0.000 0         0.00000         0.000           0.000  
G18  20734813.177 3  -3608294.71501       239.625          44.341           0.000 0         0.00000         0.000           0.000  
G20  24979723.601 5         0.00000     -3972.386          31.076           0.000 0         0.00000         0.000           0.000  
G25  24329078.621 5  17391231.60709     -4246.098          34.781           0.000 0         0.00000         0.000           0.000  
G26  22581908.569 3  -4346538.11601      -288.556          46.849    22581909.162 5  -3297812.54309      -215.804          28.035  
G29  20656469.011 3   2951162.18101     -1699.399          44.409           0.000 0         0.00000         0.000           0.000  
R05  21545212.457 6   -892807.91103      3384.284          35.308  
R20  21577550.171 5         0.00000      1808.171          36.797  
R19  20206033.555 5   2986158.13003      -982.615          36.666  
R04  19797257.842 5  -7736961.62002        27.703          39.244  
J02  43316550.276 5    131982.91709      -349.863          35.860    43316564.969 6         0.00000      -276.923          26.233  
C19  23379456.042 4 -11816915.32809      2356.200          34.203  
C20  22292807.304 3    -96947.19602      -210.389          40.225  
C26  26077574.367 4         0.00000     -1533.476          35.373  
C29  21603330.826 2  -1426466.87401      -188.908          43.887  
C30  23709517.942 3   9145468.13609     -2623.652          42.930  
C32  24937516.114 3   9418806.95802     -3059.302          41.593  
C35  24133741.355 2  -8113253.14901      1844.056          43.642  
E07  25621905.417 4  -2868169.56602      1720.728          39.004           0.000 0         0.00000         0.000           0.000  
E08  23770688.790 5    -16172.09704      -563.358          34.445           0.000 0         0.00000         0.000           0.000  
E13  24569282.841 4   6929764.34901     -1744.854          43.678    24569281.636 4   5175171.65108     -1302.933          30.539  
E21  26662776.144 5         0.00000     -3460.038          34.670    26662775.237 6         0.00000     -2589.214          23.801  
E26  23529732.100 4  -1090377.18003       189.149          37.548    23529727.005 7   -821538.90909       142.815          23.425  
E01         0.000 0         0.00000         0.000           0.000    25776131.244 6         0.00000     -1311.410          26.292  
> 2021 07 14 20 52 22.9996552  0 27
G05  22286563.529 4  11204344.57309     -3514.578          41.848           0.000 0         0.00000         0.000           0.000  
G10  24236406.483 5         0.00000      2799.414          35.716           0.000 0         0.00000         0.000           0.000  
G13  23392372.886 4  -3083987.81509       297.020          43.857           0.000 0         0.00000         0.000           0.000  
G16  23825398.817 4  -3027216.36202      1638.465          41.737           0.000 0         0.00000         0.000           0.000  
G18  20734766.707 4  -3608535.78001       241.545          42.802           0.000 0         0.00000         0.000           0.000  
G20  24980480.277 5         0.00000     -3977.136          29.061           0.000 0         0.00000         0.000           0.000  
G23  21464339.842 5 -11510190.21709      1903.714          33.311           0.000 0         0.00000         0.000           0.000  
G26  22581963.432 3  -4346252.01001      -284.796          47.982    22581962.525 6         0.00000      -208.227          24.848  
G29  20656794.300 4   2952864.04101     -1703.941          43.599           0.000 0         0.00000         0.000           0.000  
R05  21544579.590 6   -896188.18604      3377.434          33.670  
R20  21577192.511 6   -845042.86603      1813.740          36.439  
R19  20206215.526 5   2987141.30103      -984.331          37.398  
R04  19797244.650 5  -7736986.15502        22.241          38.114  
J02  43316619.222 4    132328.60709      -343.278          36.706           0.000 0         0.00000         0.000           0.000  
C19  23379000.347 4         0.00000      2350.991          29.496  
C20  22292849.882 3    -96734.36703      -214.554          37.368  
C26  26077869.363 3   5119296.32309     -1526.862          36.025  
C29  21603367.698 2  -1426277.93501      -189.512          44.828  
C30  23710024.295 3   9148095.12209     -2629.628          41.225  
C32  24938104.012 3   9421866.52002     -3062.310          40.471  
C35  24133386.697 2  -8115100.73401      1849.474          45.969  
E07  25621581.052 4  -2869886.40502      1713.826          38.595           0.000 0         0.00000         0.000           0.000  
E08  23770794.311 5    -15607.13904      -567.209          32.956    23770800.611 5         0.00000      -423.258          29.222  
E13  24569617.396 4   6931510.36001     -1747.495          44.159    24569613.208 4         0.00000     -1304.710          31.007  
E21  26663433.581 5         0.00000     -3459.415          31.237           0.000 0         0.00000         0.000           0.000  
E26  23529695.821 4  -1090567.95002       191.684          38.522           0.000 0         0.00000         0.000           0.000  
E01         0.000 0         0.00000         0.000           0.000    25776465.520 6         0.00000     -1309.722          26.929  
> 2021 07 14 20 52 23.9996552  0 27
G05  22287230.563 4  11207858.17109     -3513.539          41.680           0.000 0         0.00000         0.000           0.000  
G13  23392316.836 4  -3084283.96109       296.632          42.759           0.000 0         0.00000         0.000           0.000  
G16  23825087.034 4  -3028855.68702      1640.146          41.789           0.000 0         0.00000         0.000           0.000  
G18  20734718.754 4  -3608777.93902       242.280          40.804           0.000 0         0.00000         0.000           0.000  
G20  24981239.938 5         0.00000     -3973.203          28.132           0.000 0         0.00000         0.000           0.000  
G23  21463982.182 5 -11512093.53109      1902.519          35.484           0.000 0         0.00000         0.000           0.000  
G25  24330695.698 5  17399733.45209     -4251.006          33.924    24330704.092 7         0.00000     -3167.655          25.092  
G26  22582017.388 3  -4345967.66601      -284.192          47.623           0.000 0         0.00000         0.000           0.000  
G29  20657118.665 4   2954568.34101     -1705.190          42.977           0.000 0         0.00000         0.000           0.000  
R05  21543952.429 6   -899564.50303      3374.558          34.734  
R20  21576874.149 5   -846857.76403      1815.554          36.994  
R19  20206398.108 5   2988124.91502      -983.851          37.988  
R04  19797240.148 5  -7737007.81703        20.376          37.366  
J02  43316682.776 4    132670.93209      -342.458          36.618           0.000 0         0.00000         0.000           0.000  
C19  23378553.953 4         0.00000      2352.269          28.048  
C20  22292890.053 4         0.00000      -217.257          34.273  
C26  26078161.951 4   5120822.82809     -1525.519          35.625  
C29  21603403.366 2  -1426088.70301      -189.404          45.332  
C30  23710528.239 3   9150725.43309     -2631.181          40.106  
C32  24938691.595 3         0.00000     -3059.063          40.799  
C35  24133030.852 2  -8116951.19301      1851.111          46.862  
E07  25621252.465 4  -2871599.22403      1711.986          37.254           0.000 0         0.00000         0.000           0.000  
E13  24569949.578 3   6933257.49701     -1747.653          44.780    24569947.170 4   5177780.15507     -1304.949          31.341  
E21  26664093.723 5         0.00000     -3463.237          29.242           0.000 0         0.00000         0.000           0.000  
E26  23529660.153 4  -1090760.21402       192.424          41.650           0.000 0         0.00000         0.000           0.000  
E01         0.000 0         0.00000         0.000           0.000    25776798.593 6         0.00000     -1308.032          26.432  
E08         0.000 0         0.00000         0.000           0.000    23770908.541 5         0.00000      -423.680          29.269  
> 2021 07 14 20 52 24.9996552  0 28
G05  22287900.006 4  11211372.61302     -3514.545          42.040           0.000 0         0.00000         0.000           0.000  
G10  24235336.226 4   -484324.29202      2799.594          42.031    24235338.914 6         0.00000      2089.271          26.210  
G13  23392261.065 4  -3084579.35301       294.191          42.655           0.000 0         0.00000         0.000           0.000  
G15  22186064.409 5         0.00000      1285.000          31.318           0.000 0         0.00000         0.000           0.000  
G16  23824774.640 4  -3030496.84302      1642.236          41.727           0.000 0         0.00000         0.000           0.000  
G18  20734671.987 4  -3609021.29402       242.451          40.934           0.000 0         0.00000         0.000           0.000  
G20  24981993.613 6         0.00000     -3969.321          25.765           0.000 0         0.00000         0.000           0.000  
G23  21463618.537 4 -11513995.03803      1900.727          36.822           0.000 0         0.00000         0.000           0.000  
G25  24331500.642 5         0.00000     -4255.378          30.708    24331508.739 7         0.00000     -3169.120          22.256  
G26  22582071.955 3  -4345684.25701      -283.194          47.318           0.000 0         0.00000         0.000           0.000  
G29  20657442.140 4   2956274.27001     -1707.009          42.798           0.000 0         0.00000         0.000           0.000  
R05  21543320.469 6         0.00000      3371.329          35.282  
R20  21576528.775 5   -848674.64403      1817.580          37.116  
R19  20206580.969 5   2989108.80102      -984.363          37.977  
R04  19797240.462 5  -7737027.50303        18.031          37.051  
C19  23378101.871 5         0.00000      2349.453          27.199  
C20  22292934.411 4    -96301.93909      -217.988          32.584  
C26  26078456.057 3   5122347.61009     -1523.869          36.799  
C29  21603439.645 2  -1425899.30501      -189.944          45.522  
C30  23711032.795 3   9153357.78209     -2633.076          39.827  
C32  24939281.884 3   9427984.81209     -3057.285          39.669  
C35  24132675.897 2  -8118803.59101      1853.205          48.007  
E07  25620932.288 4  -2873309.49703      1708.916          36.628           0.000 0         0.00000         0.000           0.000  
E08  23771017.657 5    -14471.95404      -568.854          33.520    23771016.470 5    -23667.66608      -425.111          29.546  
E13  24570282.040 3   6935005.18701     -1748.223          44.848    24570279.353 4   5179085.28907     -1305.871          30.953  
E21  26664761.368 6         0.00000     -3486.656          26.886           0.000 0         0.00000         0.000           0.000  
E26  23529622.373 4  -1090953.49102       193.264          42.179           0.000 0         0.00000         0.000           0.000  
E01         0.000 0         0.00000         0.000           0.000    25777131.351 6         0.00000     -1306.807          26.457  
> 2021 07 14 20 52 25.9996552  0 28
G05  22288568.838 4         0.00000     -3512.062          41.031           0.000 0         0.00000         0.000           0.000  
G10  24234803.489 4   -487124.09702      2799.909          40.551    24234807.694 6         0.00000      2089.177          25.683  
G13  23392206.201 4  -3084873.22002       294.230          39.922           0.000 0         0.00000         0.000           0.000  
G15  22185822.776 5  -7507037.54009      1282.832          31.354           0.000 0         0.00000         0.000           0.000  
G16  23824461.967 4  -3032140.05702      1644.504          41.040           0.000 0         0.00000         0.000           0.000  
G18  20734624.313 4  -3609265.18602       244.619          41.842           0.000 0         0.00000         0.000           0.000  
G20  24982750.289 6         0.00000     -3967.408          23.429           0.000 0         0.00000         0.000           0.000  
G23  21463259.097 4 -11515896.07903      1900.904          37.224           0.000 0         0.00000         0.000           0.000  
G26  22582126.208 3  -4345402.14801      -281.504          47.254           0.000 0         0.00000         0.000           0.000  
G29  20657768.616 4   2957982.03801     -1708.379          42.698           0.000 0         0.00000         0.000           0.000  
R05  21542698.997 5         0.00000      3369.517          36.957  
R20  21576180.416 5   -850493.83403      1820.468          37.364  
R19  20206762.346 5   2990093.12402      -984.066          37.850  
R04  19797229.660 5  -7737044.93402        16.713          38.300  
J02  43316813.495 5    133347.85804      -336.132          34.554    43316813.792 6         0.00000      -252.823          25.578  
C19  23377646.193 4         0.00000      2342.961          31.097  
C20  22292975.786 4         0.00000      -218.799          31.461  
C26  26078748.645 4         0.00000     -1523.760          35.534  
C29  21603475.628 2  -1425709.84801      -189.040          45.643  
C30  23711539.445 3   9155992.56609     -2635.827          40.019  
C32  24939863.779 3         0.00000     -3058.871          37.445  
C35  24132320.646 2  -8120658.16201      1855.923          47.891  
E01  25777455.733 5         0.00000     -1744.185          32.852    25777464.127 6         0.00000     -1305.692          26.426  
E07  25620606.423 5  -2875016.97203      1706.074          35.513           0.000 0         0.00000         0.000           0.000  
E08  23771127.384 5         0.00000      -579.762          34.845    23771124.993 5         0.00000      -429.237          28.064  
E13  24570615.409 3   6936753.72601     -1748.293          45.158    24570613.018 4   5180391.01707     -1305.807          31.858  
E21  26665418.212 6         0.00000     -3487.693          25.885           0.000 0         0.00000         0.000           0.000  
E26  23529588.799 4  -1091148.02102       195.667          42.056    23529589.392 5         0.00000       146.086          29.013  
> 2021 07 14 20 52 26.9996552  0 27
G05  22289238.281 4  11218401.13509     -3514.469          42.205           0.000 0         0.00000         0.000           0.000  
G10  24234271.658 4   -489922.79101      2799.152          42.755    24234275.550 5   -384095.50809      2089.601          29.057  
G13  23392149.854 4  -3085164.73502       290.908          39.706           0.000 0         0.00000         0.000           0.000  
G15  22185576.641 5         0.00000      1279.405          30.645           0.000 0         0.00000         0.000           0.000  
G16  23824147.480 4  -3033785.67102      1647.076          41.542           0.000 0         0.00000         0.000           0.000  
G18  20734576.046 4  -3609510.10302       245.708          41.077           0.000 0         0.00000         0.000           0.000  
G20  24983506.965 6         0.00000     -3967.353          23.082           0.000 0         0.00000         0.000           0.000  
G23  21462899.640 4 -11517795.65703      1899.318          37.200           0.000 0         0.00000         0.000           0.000  
G26  22582179.274 3  -4345121.39301      -279.742          46.929           0.000 0         0.00000         0.000           0.000  
G29  20658093.591 4   2959691.34301     -1709.688          42.626           0.000 0         0.00000         0.000           0.000  
R05  21542051.158 5   -909677.55203      3366.863          36.573  
R20  21575852.753 5   -852315.50803      1822.965          37.227  
R19  20206953.007 5   2991077.45202      -984.572          37.674  
R04  19797224.861 5  -7737060.22103        14.428          37.280  
J02  43316876.141 5    133682.28303      -332.670          34.920    43316878.846 6         0.00000      -251.694          25.155  
C19  23377199.206 4         0.00000      2343.035          29.857  
C20  22293014.159 4         0.00000      -220.824          30.874  
C26  26079041.547 4         0.00000     -1520.167          34.416  
C29  21603513.390 2  -1425520.44001      -189.321          45.514  
C30  23712047.595 3   9158629.33302     -2637.945          39.812  
C35  24131962.689 2  -8122515.06701      1858.305          47.955  
E01  25777788.805 5         0.00000     -1746.258          33.536    25777796.292 6         0.00000     -1304.704          25.137  
E07  25620281.447 5  -2876721.58503      1703.486          35.200           0.000 0         0.00000         0.000           0.000  
E08  23771235.907 5    -13330.75304      -571.958          34.101    23771234.406 5         0.00000      -427.510          29.418  
E13  24570947.277 3   6938502.75801     -1749.228          45.131    24570945.777 4   5181697.05407     -1306.216          31.569  
E21  26666078.650 6         0.00000     -3463.766          25.023           0.000 0         0.00000         0.000           0.000  
E26  23529551.019 4  -1091343.85902       196.386          41.694    23529550.722 5   -822260.85909       146.610          29.004  
> 2021 07 14 20 52 27.9996552  0 29
G05  22289907.113 4         0.00000     -3511.619          40.795           0.000 0         0.00000         0.000           0.000  
G10  24233739.828 4   -492720.03002      2795.458          40.255    24233742.219 6         0.00000      2089.121          26.033  
G13  23392094.677 4  -3085453.83302       287.224          42.518           0.000 0         0.00000         0.000           0.000  
G15  22185336.508 5         0.00000      1278.405          30.928           0.000 0         0.00000         0.000           0.000  
G16  23823835.103 4  -3035432.94902      1647.720          42.341           0.000 0         0.00000         0.000           0.000  
G18  20734530.187 4  -3609756.33902       247.113          41.609           0.000 0         0.00000         0.000           0.000  
G20  24984264.549 6         0.00000     -3966.460          22.700           0.000 0         0.00000         0.000           0.000  
G23  21462535.384 5 -11519695.06603      1898.976          36.187           0.000 0         0.00000         0.000           0.000  
G25  24333938.559 5  17416757.47809     -4261.275          33.707    24333941.858 6         0.00000     -3178.286          26.139  
G26  22582232.637 3  -4344841.93301      -279.006          47.829           0.000 0         0.00000         0.000           0.000  
G29  20658419.177 4   2961401.54701     -1710.205          42.982           0.000 0         0.00000         0.000           0.000  
R05  21541441.971 6         0.00000      3366.742          35.915  
R20  21575509.490 5   -854139.26503      1824.538          36.607  
R19  20207144.890 5   2992061.78102      -984.043          37.566  
R04  19797209.575 5  -7737074.21103        13.175          36.771  
J02  43316939.695 5    134014.67403      -332.087          35.410    43316943.901 5         0.00000      -249.342          26.868  
C19  23376755.499 5         0.00000      2342.573          27.238  
C20  22293059.739 4    -95639.93109      -221.721          34.702  
C26  26079332.058 3         0.00000     -1518.332          36.117  
C29  21603548.168 2  -1425331.54601      -188.282          45.401  
C30  23712555.135 3   9161267.80602     -2638.223          40.451  
C32  24941038.370 4         0.00000     -3055.199          35.278  
C35  24131606.531 2  -8124374.05001      1859.923          47.939  
E01  25778121.878 5   3375729.93004     -1743.870          32.700    25778128.474 6         0.00000     -1304.345          24.977  
E07  25619957.362 4  -2878424.46003      1702.763          36.450           0.000 0         0.00000         0.000           0.000  
E08  23771347.728 5         0.00000      -569.011          32.686    23771340.835 5    -22387.67709      -428.665          28.866  
E13  24571279.756 4   6940252.10001     -1747.645          44.076    24571278.849 4         0.00000     -1305.373          31.198  
E21  26666736.401 6         0.00000     -3466.561          27.473           0.000 0         0.00000         0.000           0.000  
E26  23529511.756 4  -1091541.21502       197.888          40.902    23529513.257 5         0.00000       148.076          28.417  
> 2021 07 14 20 52 28.9996552  0 26
G05  22290576.852 4  11225430.76109     -3513.928          42.675           0.000 0         0.00000         0.000           0.000  
G10  24233208.888 4   -495517.71502      2798.189          39.161    24233209.498 6   -388274.03709      2090.891          25.873  
G15  22185088.279 5         0.00000      1279.952          35.513           0.000 0         0.00000         0.000           0.000  
G16  23823521.209 4  -3037080.86501      1648.051          42.816           0.000 0         0.00000         0.000           0.000  
G18  20734484.013 4  -3610003.62102       247.708          42.079           0.000 0         0.00000         0.000           0.000  
G23  21462175.334 5 -11521594.81503      1899.932          34.844           0.000 0         0.00000         0.000           0.000  
G25  24334751.600 5  17421017.63009     -4262.474          31.981    24334753.397 7         0.00000     -3178.211          22.577  
G26  22582285.109 3  -4344563.05401      -278.728          47.690           0.000 0         0.00000         0.000           0.000  
G29  20658744.153 4   2963111.52001     -1709.607          43.366           0.000 0         0.00000         0.000           0.000  
R05  21540814.199 6   -916410.44103      3366.418          34.730  
R20  21575160.538 5   -855964.37203      1825.810          37.052  
R19  20207322.359 5   2993045.42403      -983.043          37.402  
R04  19797218.579 5  -7737088.02902        13.693          38.320  
J02  43316998.153 4    134345.88003      -330.647          36.876    43317004.750 5     90702.24509      -247.209          28.373  
C19  23376305.214 5         0.00000      2334.497          26.252  
C20  22293100.206 3    -95418.17209      -221.233          37.099  
C26  26079624.942 4         0.00000     -1517.133          33.632  
C29  21603583.243 2  -1425143.48701      -187.394          44.954  
C30  23713058.189 3   9163906.45902     -2638.375          40.691  
C32  24941629.270 3         0.00000     -3062.101          41.308  
C35  24131246.777 2  -8126234.19101      1860.473          46.362  
E01  25778453.449 5   3377473.80805     -1744.035          31.833           0.000 0         0.00000         0.000           0.000  
E07  25619634.184 4  -2880126.99203      1702.833          37.844           0.000 0         0.00000         0.000           0.000  
E08  23771453.860 5    -12185.95804      -571.938          33.550    23771451.155 5         0.00000      -426.610          28.637  
E13  24571612.218 4   6942000.81701     -1748.151          44.179    24571611.328 4   5184309.23307     -1305.135          30.815  
E26  23529474.587 4  -1091739.92802       198.848          39.212    23529475.180 6         0.00000       148.072          26.741  
> 2021 07 14 20 52 29.9996552  0 28
G05  22291244.794 4  11228944.67609     -3513.944          41.748           0.000 0         0.00000         0.000           0.000  
G10  24232673.759 4   -498315.42202      2797.816          41.392    24232677.668 5         0.00000      2088.311          26.996  
G13  23391987.061 4  -3086031.33002       288.011          39.070           0.000 0         0.00000         0.000           0.000  
G15  22184842.754 4  -7512146.24809      1279.875          38.176           0.000 0         0.00000         0.000           0.000  
G16  23823206.424 4  -3038728.36302      1647.407          41.980           0.000 0         0.00000         0.000           0.000  
G18  20734439.044 4  -3610250.90301       247.532          43.392           0.000 0         0.00000         0.000           0.000  
G20  24985768.915 6         0.00000     -3974.815          26.195           0.000 0         0.00000         0.000           0.000  
G23  21461816.191 5         0.00000      1898.100          32.622           0.000 0         0.00000         0.000           0.000  
G25  24335558.638 4  17425278.34209     -4259.899          36.355    24335564.326 7         0.00000     -3178.518          23.135  
G26  22582338.769 3  -4344283.51801      -279.556          47.770           0.000 0         0.00000         0.000           0.000  
G29  20659070.926 4   2964821.79201     -1709.963          43.673           0.000 0         0.00000         0.000           0.000  
R05  21540178.645 6         0.00000      3363.496          32.428  
R20  21574825.058 5   -857789.43603      1825.402          37.260  
R19  20207498.047 5   2994028.97003      -983.326          36.851  
R04  19797224.565 5  -7737101.11502        13.035          40.103  
J02  43317065.616 4    134677.24203      -331.014          37.029    43317067.413 6     90949.71709      -251.390          26.082  
C19  23375856.429 5         0.00000      2336.202          26.552  
C20  22293142.174 3    -95196.10109      -221.502          37.782  
C26  26079915.140 4         0.00000     -1521.149          31.823  
C29  21603620.412 2  -1424955.51701      -187.685          44.956  
C30  23713565.432 3   9166545.18902     -2637.977          40.899  
C32  24942212.962 3   9443277.16609     -3059.283          40.077  
C35  24130890.932 3  -8128094.40801      1860.432          45.888  
E01  25778782.019 5         0.00000     -1719.870          30.272           0.000 0         0.00000         0.000           0.000  
E07  25619307.115 4  -2881829.35903      1703.025          37.879           0.000 0         0.00000         0.000           0.000  
E08  23771559.992 5    -11613.35604      -572.320          34.209    23771560.585 5    -21533.03609      -427.732          29.433  
E13  24571943.789 4   6943749.22401     -1748.022          43.433    24571944.086 4   5185614.87408     -1305.281          30.389  
E26  23529433.806 4  -1091938.77503       198.939          37.675    23529437.104 6         0.00000       146.703          26.332  
> 2021 07 14 20 52 30.9996552  0 28
G05  22291912.718 4  11232458.80102     -3514.441          42.003           0.000 0         0.00000         0.000           0.000  
G10  24232138.928 4   -501113.04602      2797.423          40.889    24232145.524 5         0.00000      2088.778          27.891  
G13  23391929.807 4  -3086319.75901       287.615          42.668           0.000 0         0.00000         0.000           0.000  
G15  22184598.120 4  -7513425.08102      1278.929          38.401           0.000 0         0.00000         0.000           0.000  
G16  23822894.955 4  -3040375.41902      1646.636          41.868           0.000 0         0.00000         0.000           0.000  
G18  20734391.370 4  -3610498.01901       246.576          43.234           0.000 0         0.00000         0.000           0.000  
G20  24986527.389 6         0.00000     -3972.483          27.330           0.000 0         0.00000         0.000           0.000  
G23  21461454.937 5 -11525392.92509      1900.031          31.582           0.000 0         0.00000         0.000           0.000  
G25  24336370.771 4  17429539.58302     -4260.807          38.730    24336374.069 6         0.00000     -3179.371          24.948  
G26  22582390.631 3  -4344003.47101      -280.582          47.773           0.000 0         0.00000         0.000           0.000  
G29  20659396.791 4   2966532.47601     -1711.239          43.558           0.000 0         0.00000         0.000           0.000  
R05  21539544.574 6         0.00000      3365.079          32.016  
R20  21574471.603 5   -859614.59703      1824.997          37.581  
R19  20207687.208 5   2995012.72403      -984.216          36.990  
R04  19797216.468 5  -7737113.39102        11.723          40.310  
J02  43317129.170 4    135008.50403      -331.246          36.836    43317131.264 6         0.00000      -248.201          27.997  
C19  23375407.034 5         0.00000      2341.858          24.849  
C20  22293186.235 3    -94973.66709      -222.585          38.153  
C26  26080206.244 4         0.00000     -1524.146          28.960  
C29  21603656.098 2  -1424767.37301      -188.433          45.003  
C30  23714071.785 3   9169184.04002     -2639.234          41.058  
C32  24942805.048 3   9446336.86509     -3060.266          39.208  
C35  24130533.883 3  -8129954.65801      1860.030          45.775  
E07  25618983.640 4  -2883531.43503      1701.951          37.801           0.000 0         0.00000         0.000           0.000  
E08  23771666.718 5    -11040.38604      -573.481          33.248    23771669.405 4    -21105.22208      -428.184          30.176  
E13  24572276.268 4   6945497.66801     -1748.870          43.015    24572275.954 4   5186920.53707     -1305.815          30.769  
E21  26668707.526 6         0.00000     -3461.830          26.474           0.000 0         0.00000         0.000           0.000  
E26  23529395.730 4  -1092137.59103       198.333          37.598    23529400.825 6         0.00000       144.257          26.510  
> 2021 07 14 20 52 31.9996552  0 29
G05  22292582.458 4  11235973.34602     -3514.874          42.350           0.000 0         0.00000         0.000           0.000  
G10  24231610.692 4         0.00000      2795.264          39.782    24231611.006 6         0.00000      2088.506          26.633  
G13  23391875.537 4  -3086607.55302       287.802          41.021           0.000 0         0.00000         0.000           0.000  
G15  22184353.189 4  -7514703.74202      1278.005          38.869           0.000 0         0.00000         0.000           0.000  
G16  23822581.968 4  -3042021.89802      1645.912          41.678           0.000 0         0.00000         0.000           0.000  
G18  20734344.307 4  -3610744.79501       246.260          43.057           0.000 0         0.00000         0.000           0.000  
G20  24987289.457 6         0.00000     -3966.417          23.529           0.000 0         0.00000         0.000           0.000  
G23  21461092.496 5 -11527291.12009      1897.919          32.160           0.000 0         0.00000         0.000           0.000  
G25  24337180.810 4  17433800.42803     -4260.599          37.859    24337184.108 6         0.00000     -3180.290          25.362  
G26  22582444.901 3  -4343722.71701      -281.145          47.569           0.000 0         0.00000         0.000           0.000  
G29  20659719.672 4   2968243.75101     -1711.817          43.624           0.000 0         0.00000         0.000           0.000  
R05  21538916.226 6         0.00000      3363.702          32.365  
R20  21574134.936 5   -861439.62403      1824.849          37.154  
R19  20207868.882 5   2995996.87603      -984.558          37.030  
R04  19797218.265 5  -7737124.67002        10.603          40.218  
J02  43317190.926 4    135339.92203      -331.061          38.079    43317194.521 5     91444.67909      -248.411          28.295  
C19  23374960.343 5         0.00000      2335.815          23.297  
C20  22293229.407 3    -94750.51909      -223.929          37.839  
C26  26080497.035 4         0.00000     -1519.656          30.876  
C29  21603691.173 2  -1424578.78001      -189.024          45.105  
C30  23714579.639 3   9171823.22402     -2639.539          41.449  
C32  24943393.242 3         0.00000     -3060.573          39.745  
C35  24130178.021 3  -8131814.81601      1860.464          45.455  
E01  25779448.147 5         0.00000     -1744.041          31.746           0.000 0         0.00000         0.000           0.000  
E07  25618659.275 4  -2885233.25203      1701.303          37.995           0.000 0         0.00000         0.000           0.000  
E13  24572610.527 4   6947246.26001     -1748.670          43.046    24572607.526 4   5188226.26707     -1305.664          30.748  
E21  26669365.870 6         0.00000     -3463.604          26.670           0.000 0         0.00000         0.000           0.000  
E26  23529359.154 4  -1092336.21803       198.527          37.927    23529361.562 6         0.00000       155.018          25.916  
E08         0.000 0         0.00000         0.000           0.000    23771777.631 5         0.00000      -428.583          28.335  
> 2021 07 14 20 52 32.9996552  0 28
G05  22293251.307 4  11239488.70302     -3516.316          40.083           0.000 0         0.00000         0.000           0.000  
G10  24231076.768 4   -506706.89509      2796.429          40.735    24231079.769 6         0.00000      2084.472          25.794  
G13  23391819.783 4  -3086894.28402       285.006          42.523           0.000 0         0.00000         0.000           0.000  
G15  22184109.461 4  -7515981.85503      1278.635          38.139           0.000 0         0.00000         0.000           0.000  
G16  23822269.278 4  -3043667.92902      1645.618          42.154           0.000 0         0.00000         0.000           0.000  
G18  20734297.837 4  -3610991.33101       246.620          42.586           0.000 0         0.00000         0.000           0.000  
G20  24988044.633 6         0.00000     -3966.169          23.738           0.000 0         0.00000         0.000           0.000  
G23  21460733.039 5         0.00000      1896.712          31.554           0.000 0         0.00000         0.000           0.000  
G25  24337990.849 4  17438061.06703     -4261.604          36.411    24337995.055 6         0.00000     -3179.643          23.661  
G26  22582498.264 3  -4343441.45001      -281.390          47.149           0.000 0         0.00000         0.000           0.000  
G29  20660046.445 4   2969955.67301     -1711.553          43.439           0.000 0         0.00000         0.000           0.000  
R05  21538294.754 6         0.00000      3363.692          31.058  
R20  21573800.974 5   -863264.60203      1824.984          37.135  
R19  20208054.744 5   2996981.57203      -984.275          36.781  
R04  19797208.074 5  -7737134.86302        10.174          39.652  
J02  43317255.684 4    135671.29203      -332.640          36.780    43317256.888 5         0.00000      -247.395          27.524  
C19  23374511.262 5         0.00000      2336.753          22.127  
C20  22293272.579 3    -94526.12903      -224.542          38.072  
C26  26080791.734 4         0.00000     -1520.354          31.617  
C29  21603728.639 2  -1424389.79701      -188.951          44.985  
C30  23715086.585 3   9174462.93502     -2640.248          41.396  
C32  24943979.936 3         0.00000     -3068.930          38.611  
C35  24129818.878 3  -8133674.88701      1860.153          45.660  
E01  25779781.219 5         0.00000     -1745.188          33.250    25779786.925 5         0.00000     -1304.237          26.998  
E07  25618336.394 4  -2886934.72602      1701.268          38.537           0.000 0         0.00000         0.000           0.000  
E08  23771886.765 5     -9892.41704      -574.833          34.288    23771887.655 5         0.00000      -430.798          27.865  
E13  24572943.303 4   6948995.42402     -1748.290          42.060    24572941.209 4   5189532.44708     -1305.595          30.218  
E26  23529320.484 4  -1092534.77203       198.751          37.993    23529321.985 6         0.00000       152.604          25.946  
> 2021 07 14 20 52 33.9996552  0 29
G05  22293919.528 4  11243003.86202     -3514.929          41.343           0.000 0         0.00000         0.000           0.000  
G10  24230542.843 4   -509504.06209      2795.268          40.686    24230547.642 6   -398719.19109      2089.724          26.277  
G13  23391765.810 4         0.00000       291.186          38.245           0.000 0         0.00000         0.000           0.000  
G15  22183865.123 4  -7517259.21303      1277.548          37.111           0.000 0         0.00000         0.000           0.000  
G16  23821955.104 4  -3045313.68301      1645.720          42.761           0.000 0         0.00000         0.000           0.000  
G18  20734250.477 4  -3611237.76401       246.427          43.303           0.000 0         0.00000         0.000           0.000  
G20  24988802.513 6         0.00000     -3966.484          20.618           0.000 0         0.00000         0.000           0.000  
G23  21460369.987 5 -11531086.56109      1897.296          31.804           0.000 0         0.00000         0.000           0.000  
G25  24338800.592 5  17442321.44103     -4260.661          36.052    24338805.984 6         0.00000     -3179.357          24.929  
G26  22582551.627 3  -4343159.80601      -281.902          47.392           0.000 0         0.00000         0.000           0.000  
G29  20660371.124 4   2971668.14601     -1712.750          43.533           0.000 0         0.00000         0.000           0.000  
R05  21537653.790 6         0.00000      3369.536          30.368  
R20  21573455.617 5   -865089.72903      1825.229          37.317  
R19  20208243.922 5   2997966.56903      -985.034          37.129  
R04  19797208.074 5  -7737144.09602         8.731          39.826  
J02  43317315.346 4    136002.33703      -331.035          36.718    43317319.237 5         0.00000      -247.564          27.406  
C19  23374062.163 5         0.00000      2337.876          23.816  
C20  22293316.658 3    -94301.87002      -224.509          38.334  
C26  26081085.229 4         0.00000     -1523.572          30.699  
C29  21603765.528 2  -1424200.62201      -189.245          45.269  
C30  23715591.141 3   9177102.73502     -2639.951          40.926  
C32  24944566.927 3         0.00000     -3059.628          35.785  
C35  24129460.014 3  -8135535.16301      1859.900          45.744  
E01  25780113.401 5         0.00000     -1749.777          33.704    25780119.090 6   2522684.97909     -1304.509          27.692  
E07  25618012.308 4  -2888635.90302      1700.932          38.561           0.000 0         0.00000         0.000           0.000  
E08  23771994.991 5         0.00000      -574.372          34.786    23771997.382 5         0.00000      -426.536          27.849  
E13  24573275.171 4   6950744.33101     -1749.253          43.023    24573273.967 4   5190838.41607     -1305.577          30.917  
E21  26670690.952 5         0.00000     -3463.711          27.993           0.000 0         0.00000         0.000           0.000  
E26  23529284.816 4  -1092733.39503       198.671          37.911    23529285.706 6         0.00000       143.959          26.049  
> 2021 07 14 20 52 34.9996552  0 28
G05  22294588.674 4  11246519.60602     -3515.485          42.257           0.000 0         0.00000         0.000           0.000  
G13  23391710.353 4         0.00000       286.694          36.923           0.000 0         0.00000         0.000           0.000  
G15  22183623.787 4  -7518536.68203      1278.747          37.439           0.000 0         0.00000         0.000           0.000  
G16  23821642.414 4  -3046958.23902      1642.835          42.530           0.000 0         0.00000         0.000           0.000  
G18  20734204.601 4  -3611483.75001       245.512          42.992           0.000 0         0.00000         0.000           0.000  
G20  24989554.094 6         0.00000     -3966.356          20.461           0.000 0         0.00000         0.000           0.000  
G23  21460009.640 5         0.00000      1897.610          31.356           0.000 0         0.00000         0.000           0.000  
G25  24339611.538 5         0.00000     -4260.318          35.908           0.000 0         0.00000         0.000           0.000  
G26  22582605.583 3  -4342877.18501      -283.912          46.910           0.000 0         0.00000         0.000           0.000  
G29  20660697.600 4   2973380.73201     -1711.988          43.343           0.000 0         0.00000         0.000           0.000  
R05  21537021.534 6         0.00000      3368.052          31.646  
R20  21573110.556 5   -866914.26903      1823.159          37.515  
R19  20208425.300 5   2998951.81103      -984.938          37.327  
R04  19797221.267 5  -7737152.91702         9.424          39.653  
J02  43317379.493 4    136334.09302      -333.575          39.116    43317382.791 5     92186.89009      -249.106          28.511  
C19  23373611.581 5         0.00000      2338.403          25.057  
C20  22293355.921 3    -94077.26202      -223.996          38.344  
C26  26081377.834 4         0.00000     -1522.325          33.369  
C29  21603801.197 2  -1424011.16001      -189.515          45.067  
C30  23716100.181 3   9179742.43502     -2638.519          41.188  
C32  24945156.029 3         0.00000     -3061.726          38.148  
C35  24129104.466 3  -8137394.91201      1858.503          45.275  
E01  25780447.660 5   3387848.02104     -1746.988          34.618    25780450.068 6         0.00000     -1305.130          26.821  
E07  25617689.444 4  -2890337.47502      1702.579          38.432           0.000 0         0.00000         0.000           0.000  
E08  23772102.607 5     -8743.01103      -574.511          35.277    23772106.812 5         0.00000      -427.946          28.948  
E13  24573609.133 4   6952493.29401     -1748.392          43.184    24573607.039 4   5192144.48607     -1305.435          30.711  
E21  26671351.408 6         0.00000     -3462.109          27.808           0.000 0         0.00000         0.000           0.000  
E26  23529250.334 4  -1092931.60503       197.186          37.033    23529249.741 6   -823446.47609       142.665          26.087  
> 2021 07 14 20 52 35.9996552  0 28
G05  22295257.210 4         0.00000     -3508.585          40.091           0.000 0         0.00000         0.000           0.000  
G13  23391656.694 4         0.00000       292.787          39.264           0.000 0         0.00000         0.000           0.000  
G15  22183377.966 4  -7519818.54403      1285.448          36.919           0.000 0         0.00000         0.000           0.000  
G16  23821329.741 4  -3048596.46902      1633.734          41.992           0.000 0         0.00000         0.000           0.000  
G18  20734158.131 4  -3611726.49402       239.792          41.463           0.000 0         0.00000         0.000           0.000  
G20  24990305.972 6         0.00000     -3965.260          24.883           0.000 0         0.00000         0.000           0.000  
G23  21459649.590 5         0.00000      1901.902          32.905           0.000 0         0.00000         0.000           0.000  
G25  24340426.062 5         0.00000     -4258.196          32.865           0.000 0         0.00000         0.000           0.000  
G26  22582658.945 3  -4342589.42701      -291.800          46.807           0.000 0         0.00000         0.000           0.000  
G29  20661023.465 4   2975091.50101     -1709.519          43.171           0.000 0         0.00000         0.000           0.000  
R05  21536394.967 6         0.00000      3369.714          31.732  
R20  21572785.563 5   -868733.39903      1814.456          37.970  
R19  20208606.381 6         0.00000      -985.139          35.278  
R04  19797206.888 5  -7737163.37402        11.307          38.375  
J02  43317443.954 4    136671.68002      -342.268          39.517    43317447.846 5     92438.97009      -255.536          28.953  
C19  23373161.295 5         0.00000      2341.993          27.059  
C20  22293399.704 3    -93854.71102      -221.226          39.191  
C26  26081667.438 4         0.00000     -1531.893          35.275  
C29  21603838.069 2  -1423820.67301      -191.691          44.838  
C30  23716603.829 3   9182377.93202     -2632.871          40.045  
C32  24945743.019 3         0.00000     -3057.059          36.367  
C35  24128750.104 3  -8139249.42101      1850.464          45.605  
E01  25780779.825 5   3389598.00404     -1752.434          33.554    25780784.327 5   2525295.63309     -1308.486          26.703  
E07  25617362.672 4  -2892044.04803      1710.196          37.921           0.000 0         0.00000         0.000           0.000  
E08  23772212.334 5         0.00000      -565.656          33.311    23772215.928 6         0.00000      -427.744          26.133  
E13  24573939.815 4         0.00000     -1748.539          38.860    24573939.518 5         0.00000     -1306.281          28.366  
E21  26672013.644 5         0.00000     -3460.512          28.707           0.000 0         0.00000         0.000           0.000  
E26  23529206.569 4  -1093126.53602       191.822          38.717    23529212.258 6         0.00000       143.461          26.489  
> 2021 07 14 20 52 36.9996552  0 25
G05  22295928.153 4         0.00000     -3517.214          40.468           0.000 0         0.00000         0.000           0.000  
G13  23391600.033 4  -3088046.43103       295.268          37.606           0.000 0         0.00000         0.000           0.000  
G16  23821020.052 4  -3050224.18402      1622.757          41.623           0.000 0         0.00000         0.000           0.000  
G18  20734111.364 4  -3611964.10502       235.636          40.779           0.000 0         0.00000         0.000           0.000  
G20  24991060.850 6         0.00000     -3964.702          21.067           0.000 0         0.00000         0.000           0.000  
G23  21459285.334 5         0.00000      1900.053          34.084           0.000 0         0.00000         0.000           0.000  
G26  22582715.310 3  -4342293.64901      -300.170          46.804           0.000 0         0.00000         0.000           0.000  
G29  20661348.144 4   2976799.08901     -1705.067          43.166           0.000 0         0.00000         0.000           0.000  
R05  21535766.305 6         0.00000      3376.102          33.127  
R20  21572451.305 5         0.00000      1805.448          37.209  
R19  20208790.742 6   3000924.66603      -986.869          36.228  
R04  19797198.180 5  -7737176.93602        15.970          38.277  
J02  43317512.603 4    137019.30502      -353.182          39.227    43317514.401 5     92698.55809      -263.241          28.758  
C19  23372702.616 4         0.00000      2353.499          28.111  
C20  22293442.562 3    -93635.38802      -216.640          38.876  
C26  26081963.935 4         0.00000     -1541.324          35.103  
C29  21603876.145 2  -1423628.28801      -192.807          44.471  
C32  24946334.512 5         0.00000     -3061.236          33.228  
C35  24128393.352 3  -8141095.22501      1841.499          45.284  
E01  25781111.100 5   3391352.99405     -1757.437          32.035    25781118.604 6   2526606.24409     -1312.289          26.213  
E07  25617039.197 4  -2893758.86302      1719.310          38.371           0.000 0         0.00000         0.000           0.000  
E08  23772328.360 5         0.00000      -563.601          33.031    23772324.155 6         0.00000      -420.192          25.751  
E13  24574274.685 4         0.00000     -1745.560          40.830    24574272.887 5         0.00000     -1303.910          29.351  
E21  26672673.786 5         0.00000     -3463.822          28.761           0.000 0         0.00000         0.000           0.000  
E26  23529174.478 4  -1093316.05902       187.214          39.874    23529175.682 6         0.00000       139.601          26.097  
> 2021 07 14 20 52 37.9996552  0 26
G05  22296597.282 4  11257063.23509     -3518.127          42.135           0.000 0         0.00000         0.000           0.000  
G13  23391543.372 4  -3088344.02301       299.768          43.147           0.000 0         0.00000         0.000           0.000  
G16  23820712.160 4  -3051840.44402      1610.563          41.145           0.000 0         0.00000         0.000           0.000  
G18  20734069.100 4  -3612196.18902       229.236          41.849           0.000 0         0.00000         0.000           0.000  
G20  24991813.025 6         0.00000     -3966.405          20.011           0.000 0         0.00000         0.000           0.000  
G23  21458923.800 5         0.00000      1903.850          34.768           0.000 0         0.00000         0.000           0.000  
G25  24342036.560 5         0.00000     -4234.643          29.957           0.000 0         0.00000         0.000           0.000  
G26  22582773.175 3  -4341989.56201      -308.448          46.903           0.000 0         0.00000         0.000           0.000  
G29  20661674.010 4   2978503.04401     -1701.890          42.964           0.000 0         0.00000         0.000           0.000  
R05  21535147.817 6         0.00000      3389.025          31.290  
R20  21572102.038 5         0.00000      1795.134          37.093  
R19  20208973.010 5   3001912.48702      -988.247          37.503  
R04  19797208.982 5  -7737193.99002        18.448          38.801  
J02  43317578.268 4         0.00000      -364.938          36.681    43317581.567 5         0.00000      -271.681          29.286  
C19  23372252.627 4         0.00000      2361.335          31.555  
C20  22293484.529 3    -93419.92203      -213.008          38.144  
C26  26082264.323 4         0.00000     -1552.638          34.903  
C29  21603913.314 2  -1423434.08901      -195.005          44.194  
C30  23717616.832 3         0.00000     -2616.522          38.807  
C32  24946919.705 3   9467770.19209     -3065.709          41.777  
C35  24128040.195 3  -8142931.64101      1831.625          44.993  
E07  25616708.515 4  -2895483.08403      1728.882          37.577           0.000 0         0.00000         0.000           0.000  
E08  23772433.585 4         0.00000      -564.599          37.177    23772432.084 5         0.00000      -419.548          28.645  
E13  24574606.850 3   6957714.71801     -1743.514          44.518    24574604.459 4   5196060.32807     -1302.067          31.569  
E26  23529136.105 4  -1093499.67602       180.726          38.812    23529139.717 6         0.00000       139.249          24.513  
E01         0.000 0         0.00000         0.000           0.000    25781452.566 6         0.00000     -1314.886          26.257  
> 2021 07 14 20 52 38.9996552  0 28
G05  22297266.428 4  11260581.55809     -3518.604          42.663           0.000 0         0.00000         0.000           0.000  
G10  24227878.282 4   -523502.39509      2806.826          39.923    24227882.785 6         0.00000      2094.585          24.739  
G13  23391486.415 4  -3088646.77002       304.483          41.464           0.000 0         0.00000         0.000           0.000  
G15  22182646.173 5  -7523705.62309      1309.723          35.917           0.000 0         0.00000         0.000           0.000  
G16  23820406.973 4  -3053444.57902      1598.437          41.628           0.000 0         0.00000         0.000           0.000  
G18  20734027.429 4  -3612422.31102       223.050          40.923           0.000 0         0.00000         0.000           0.000  
G20  24992565.810 6         0.00000     -3967.798          20.140           0.000 0         0.00000         0.000           0.000  
G23  21458564.046 5 -11540593.23609      1904.396          34.326           0.000 0         0.00000         0.000           0.000  
G25  24342844.488 5  17463561.59609     -4228.862          35.799           0.000 0         0.00000         0.000           0.000  
G26  22582833.727 3  -4341676.12801      -317.991          46.633           0.000 0         0.00000         0.000           0.000  
G29  20661996.594 4   2980202.78501     -1698.105          42.819           0.000 0         0.00000         0.000           0.000  
R05  21534508.668 6         0.00000      3405.962          30.615  
R20  21571765.075 5   -874133.29403      1785.019          37.617  
R19  20209156.795 5   3002900.96103      -988.798          37.395  
R04  19797207.184 5  -7737215.59302        23.577          39.426  
J02  43317650.809 5         0.00000      -375.307          34.522    43317652.013 5     93242.54909      -280.530          28.461  
C19  23371797.840 4         0.00000      2368.432          31.394  
C20  22293525.607 3    -93208.83003      -208.869          37.966  
C26  26082557.818 4         0.00000     -1563.659          34.395  
C29  21603948.686 2  -1423238.10001      -196.878          43.956  
C30  23718114.181 3   9190235.01702     -2608.945          40.755  
C32  24947509.103 3         0.00000     -3066.414          38.839  
C35  24127689.149 3  -8144757.85301      1821.575          45.594  
E01  25781792.234 5   3394924.57405     -1758.579          32.228    25781786.842 6         0.00000     -1323.040          26.556  
E07  25616383.837 4  -2897217.36203      1738.394          37.785           0.000 0         0.00000         0.000           0.000  
E08  23772541.811 4         0.00000      -563.286          38.599    23772539.403 5    -17682.15609      -418.758          29.368  
E13  24574934.826 3   6959456.87101     -1741.117          44.441    24574935.716 4   5197361.28906     -1300.352          32.080  
E26  23529107.941 4  -1093677.03802       174.182          38.818    23529103.735 6         0.00000       131.103          23.711  
> 2021 07 14 20 52 39.9996552  0 25
G05  22297937.057 4  11264100.68409     -3518.473          39.439           0.000 0         0.00000         0.000           0.000  
G10  24227344.951 4   -526310.38409      2810.334          39.761    24227348.843 6         0.00000      2095.103          26.202  
G15  22182392.552 4  -7525019.31209      1317.453          38.533           0.000 0         0.00000         0.000           0.000  
G16  23820105.084 4  -3055037.88202      1588.497          40.681           0.000 0         0.00000         0.000           0.000  
G18  20733984.553 4  -3612643.38002       219.016          42.181           0.000 0         0.00000         0.000           0.000  
G23  21458200.995 5         0.00000      1910.967          32.248           0.000 0         0.00000         0.000           0.000  
G26  22582894.890 3  -4341354.58401      -325.586          46.605           0.000 0         0.00000         0.000           0.000  
G29  20662318.865 4   2981898.78702     -1693.654          42.216           0.000 0         0.00000         0.000           0.000  
R05  21533863.813 6         0.00000      3418.562          29.560  
R20  21571437.394 5   -875913.62203      1776.361          37.197  
R19  20209344.455 5   3003890.25902      -989.660          37.582  
R04  19797195.196 5  -7737240.66702        27.593          40.146  
J02  43317720.959 4    138128.11909      -385.167          37.475    43317724.850 5         0.00000      -289.451          28.056  
C19  23371343.349 4         0.00000      2383.785          28.869  
C20  22293566.685 3         0.00000      -205.026          38.035  
C26  26082862.412 4         0.00000     -1572.370          34.968  
C29  21603987.966 2  -1423040.59701      -198.026          44.630  
C30  23718615.438 3   9192840.76402     -2602.741          38.353  
C32  24948100.892 4         0.00000     -3069.910          33.495  
C35  24127341.383 3  -8146575.14901      1813.322          45.467  
E01  25782121.101 5         0.00000     -1772.155          33.655    25782127.697 5   2530562.91609     -1325.136          27.785  
E07  25616048.670 4  -2898960.60102      1748.013          38.246           0.000 0         0.00000         0.000           0.000  
E08  23772647.629 4     -5952.65102      -559.764          38.932    23772646.129 5         0.00000      -417.834          28.727  
E13  24575267.288 4   6961197.10801     -1739.491          43.436    24575266.398 4         0.00000     -1299.014          31.060  
E26  23529069.864 4  -1093849.11603       170.304          36.945    23529072.255 7         0.00000       129.325          22.214  
> 2021 07 14 20 52 40.9996552  0 26
G05  22298609.187 4  11267620.76809     -3523.359          38.687           0.000 0         0.00000         0.000           0.000  
G10  24226811.027 4   -529120.22809      2812.003          39.075    24226815.215 6         0.00000      2095.140          26.415  
G15  22182141.321 4  -7526340.03409      1323.803          39.252           0.000 0         0.00000         0.000           0.000  
G16  23819803.492 4  -3056621.49502      1579.436          40.353           0.000 0         0.00000         0.000           0.000  
G18  20733942.882 4  -3612859.75701       214.583          44.255           0.000 0         0.00000         0.000           0.000  
G23  21457834.051 5         0.00000      1911.331          31.269           0.000 0         0.00000         0.000           0.000  
G25  24344454.078 5  17472003.43509     -4212.733          33.705    24344460.378 7         0.00000     -3156.892          23.276  
G26  22582957.833 3  -4341025.75601      -331.829          46.873           0.000 0         0.00000         0.000           0.000  
G29  20662641.153 4   2983591.69801     -1691.988          43.187           0.000 0         0.00000         0.000           0.000  
R05  21533252.235 6         0.00000      3421.488          29.849  
R20  21571104.026 5   -877685.60503      1768.233          37.343  
R19  20209524.332 5   3004880.21603      -990.846          36.931  
R04  19797190.694 5  -7737268.70202        29.279          42.174  
J02  43317796.204 4    138517.68309      -392.707          36.920    43317799.206 4     93817.52708      -293.691          30.279  
C19  23370879.575 4         0.00000      2380.851          30.811  
C20  22293599.055 3    -92797.49303      -202.692          36.751  
C26  26083164.300 3   5146874.03403     -1580.198          36.018  
C29  21604024.245 2  -1422841.59901      -199.514          44.245  
C30  23719115.492 3         0.00000     -2595.669          37.329  
C32  24948704.670 4         0.00000     -3076.100          29.046  
C35  24126992.431 3  -8148384.44901      1805.831          43.268  
E01  25782458.379 5   3398469.84704     -1778.554          34.120    25782463.160 6   2531889.42909     -1327.560          28.137  
E07  25615713.207 4  -2900711.67602      1753.988          38.615           0.000 0         0.00000         0.000           0.000  
E08  23772755.559 4         0.00000      -559.939          37.792    23772751.964 6         0.00000      -412.079          25.108  
E13  24575597.970 4   6962935.58902     -1738.743          41.835    24575597.656 5         0.00000     -1297.975          29.664  
E26  23529034.789 4  -1094016.11603       164.447          36.373           0.000 0         0.00000         0.000           0.000  
> 2021 07 14 20 52 41.9996552  0 27
G05  22299278.630 4         0.00000     -3519.902          40.918           0.000 0         0.00000         0.000           0.000  
G10  24226277.399 4         0.00000      2811.669          37.176    24226280.994 6         0.00000      2095.903          24.299  
G13  23391316.432 5         0.00000       312.644          29.350           0.000 0         0.00000         0.000           0.000  
G15  22181888.886 4  -7527664.46209      1323.240          40.328           0.000 0         0.00000         0.000           0.000  
G16  23819501.289 4  -3058199.37502      1578.550          40.599           0.000 0         0.00000         0.000           0.000  
G18  20733902.119 3  -3613073.31001       213.789          44.602           0.000 0         0.00000         0.000           0.000  
G23  21457475.798 5         0.00000      1905.943          29.394           0.000 0         0.00000         0.000           0.000  
G25  24345253.926 5         0.00000     -4210.708          32.521           0.000 0         0.00000         0.000           0.000  
G26  22583021.090 3  -4340692.36501      -332.971          47.119           0.000 0         0.00000         0.000           0.000  
G29  20662962.220 4   2985282.90102     -1692.142          42.059           0.000 0         0.00000         0.000           0.000  
R05  21532599.597 6         0.00000      3414.410          32.616  
R20  21570771.267 5   -879452.84703      1767.664          37.471  
R19  20209712.602 5   3005870.48703      -990.231          36.870  
R04  19797187.692 5  -7737298.21301        28.764          42.594  
J02  43317871.450 4    138912.64709      -394.279          37.217    43317873.858 5         0.00000      -294.585          28.823  
C19  23370425.380 4         0.00000      2376.830          29.955  
C20  22293643.431 3    -92595.20403      -202.983          37.649  
C26  26083468.580 4         0.00000     -1582.258          34.559  
C29  21604063.508 2  -1422641.61701      -200.210          44.402  
C30  23719616.452 3   9198035.11009     -2596.266          40.161  
C35  24126644.666 3  -8150189.13802      1804.852          42.653  
E01  25782796.233 5   3400249.16503     -1779.073          35.330    25782801.939 5   2533218.21809     -1328.864          28.113  
E07  25615382.543 4  -2902467.39503      1755.359          38.089           0.000 0         0.00000         0.000           0.000  
E08  23772860.487 4     -4840.67003      -555.443          36.361    23772855.392 7         0.00000      -403.116          23.541  
E13  24575931.339 4   6964672.98202     -1737.322          40.185    24575928.634 4   5201256.47508     -1297.457          30.027  
E21  26675956.521 5         0.00000     -3446.073          34.979           0.000 0         0.00000         0.000           0.000  
E26  23529010.795 4  -1094180.17803       164.327          36.425           0.000 0         0.00000         0.000           0.000  
