     3.03           O                   M                   RINEX VERSION / TYPE
Android_Rinex                           2024-06-03 09:04:34 PGM / RUN BY / DATE
                                                            MARKER NAME
SMARTPHONE                                                  MARKER TYPE
                                                            OBSERVER / AGENCY
                                                            REC # / TYPE / VERS
                                                            ANT # / TYPE
        0.0000        0.0000        0.0000                  APPROX POSITION XYZ
        0.0000        0.0000        0.0000                  ANTENNA: DELTA H/E/N
G    8 C1C L1C D1C S1C C5Q L5Q D5Q S5Q                      SYS / # / OBS TYPES
R    4 C1C L1C D1C S1C                                      SYS / # / OBS TYPES
J    8 C1C L1C D1C S1C C5Q L5Q D5Q S5Q                      SYS / # / OBS TYPES
E    8 C1C L1C D1C S1C C5Q L5Q D5Q S5Q                      SYS / # / OBS TYPES
  2023    09    07    19    33    44.0004160                TIME OF FIRST OBS
  2023    09    07    19    51    51.9994160                TIME OF LAST OBS
  9 R10 -7 R02 -4 R11  0 R01  1 R24  2 R23  3 R17  4 R08  6   9 R10 -7 R02 -4 R11  0 R01  1 R24  2 R23  3 R17  4 R08  6 GLONASS SLOT / FRQ #
    R03  5 GLONASS SLOT / FRQ #
                                                            GLONASS COD/PHS/BIS#
                                                            END OF HEADER
> 2023 09 07 19 33 44.0004163  0 22
G08  22517210.944 4     18309.77402      -280.243          40.599    22517044.557 2     27478.74004      -209.296          36.206  
G10  21157689.626 4     22679.36202      -331.256          39.191    21157523.535 2     30717.84106      -247.312          31.961  
G18  24721372.936 5    186693.73704     -2831.908          31.711    24721219.444 2    145771.29908     -2114.638          28.791  
G21  22566337.338 4   -197050.21202      2885.498          39.991           0.000 0         0.00000         0.000           0.000  
G23  23253351.625 5    115634.95809     -1733.259          27.715    23253169.951 2     87653.18909     -1295.589          24.672  
G24  24505925.882 6         0.00000     -1713.730          24.075           0.000 0         0.00000         0.000           0.000  
G27  22745495.408 4    148485.88802     -2175.562          39.903    22745329.631 2    123611.46304     -1624.939          35.011  
G28  23664603.315 4   -272140.67203      3989.234          37.121           0.000 0         0.00000         0.000           0.000  
G32  20558778.347 5    -66277.05803       958.936          35.008    20558606.567 2    -34972.37606       716.250          31.498  
R10  23928059.147 7         0.00000      1782.313          20.817  
R02  20741687.115 5   -173705.70502      2531.313          40.878  
R01  19701905.839 6     52584.86603      -764.956          34.807  
R24  19252760.984 5     10016.09703      -167.208          36.647  
R23  21984563.395 5    229535.06103     -3403.956          36.691  
R17  21092804.342 5   -268156.37002      3886.719          38.564  
R08  23140167.384 5    189997.83002     -2804.122          37.475  
J03         0.000 0         0.00000         0.000           0.000    43924170.523 2         0.00000       472.771          20.268  
E07  23503219.653 5     10774.82807      -169.365          28.050    23503053.858 2      7927.44609      -127.381          28.161  
E13  25793650.513 6    110654.87709     -1740.549          25.727    25793490.128 3     77992.68309     -1300.017          23.306  
E08         0.000 0         0.00000         0.000           0.000    27004588.706 2         0.00000     -1494.635          21.244  
E26         0.000 0         0.00000         0.000           0.000    23165713.892 2    -25641.54509       412.560          26.746  
E33         0.000 0         0.00000         0.000           0.000    25071426.502 2   -133010.22307      2092.785          29.782  
> 2023 09 07 19 33 45.0004163  0 22
G02  23439044.278 5   -240515.55206      3475.382          29.105           0.000 0         0.00000         0.000           0.000  
G08  22517264.307 4     18588.69102      -277.795          39.360    22517097.919 2     27686.95204      -207.316          36.462  
G10  21157756.478 4     23009.21802      -328.589          40.009    21157587.699 2     30964.09806      -244.854          31.929  
G18  24721911.362 5    189523.95505     -2829.160          31.625    24721757.870 2    147884.77307     -2112.484          29.866  
G21  22565789.908 4   -199936.77602      2887.817          39.341           0.000 0         0.00000         0.000           0.000  
G23  23253675.100 5    117367.31007     -1731.055          27.302    23253497.631 2     88946.74909     -1292.694          25.703  
G24  24506250.560 6         0.00000     -1713.886          24.435           0.000 0         0.00000         0.000           0.000  
G27  22745908.525 4    150660.62502     -2173.486          39.802    22745743.638 2    125235.40004     -1622.752          35.534  
G28  23663843.044 4   -276130.95203      3991.456          36.593           0.000 0         0.00000         0.000           0.000  
G32  20558594.562 5    -67237.33103       961.399          35.029    20558423.689 2    -35689.49005       718.236          33.068  
R02  20741211.945 5   -176238.19202      2533.757          41.198  
R01  19702048.547 6     53348.30703      -762.376          34.795  
R24  19252797.560 5     10181.83803      -164.524          35.662  
R23  21985187.868 5    232937.77403     -3401.364          36.416  
R17  21092076.144 5   -272044.13402      3888.903          38.266  
R08  23140687.837 5    192800.95203     -2801.695          36.742  
E07  23503255.618 5     10943.26607      -166.993          27.448    23503086.839 2      8053.26309      -125.122          28.342  
E13  25793980.584 6         0.00000     -1741.148          23.812    25793821.699 2     79291.74309     -1298.083          23.528  
E19  28642226.290 6   -222193.41009      3446.923          24.271           0.000 0         0.00000         0.000           0.000  
E08         0.000 0         0.00000         0.000           0.000    27004970.639 2     89920.75109     -1493.117          23.418  
E26         0.000 0         0.00000         0.000           0.000    23165607.167 2    -26055.55109       414.449          27.598  
E33         0.000 0         0.00000         0.000           0.000    25070892.561 2   -135104.20606      2095.134          31.000  
> 2023 09 07 19 33 46.0004163  0 22
G02  23438391.030 5   -243992.03705      3477.228          30.802           0.000 0         0.00000         0.000           0.000  
G08  22517316.780 4     18865.60302      -275.799          40.021    22517150.689 2     27893.80603      -206.228          37.021  
G10  21157812.842 4     23336.70202      -326.286          39.725    21157649.159 2     31208.69405      -243.517          32.464  
G18  24722453.680 5    192351.79305     -2827.067          31.152    24722295.703 2    149996.43807     -2110.823          29.710  
G21  22565239.789 4   -202825.73302      2890.078          39.514           0.000 0         0.00000         0.000           0.000  
G23  23254004.578 5    119097.18306     -1728.720          29.110    23253826.498 2     90238.48009     -1290.463          26.836  
G24  24506577.630 6         0.00000     -1713.388          23.743           0.000 0         0.00000         0.000           0.000  
G27  22746319.844 4    152833.07802     -2171.459          39.780    22746157.051 2    126857.68904     -1621.330          35.761  
G28  23663084.274 4   -280123.75502      3994.050          37.607           0.000 0         0.00000         0.000           0.000  
G32  20558412.294 5    -68199.67203       963.712          34.039    20558240.217 2    -36408.06005       719.321          33.681  
R02  20740738.277 5   -178772.81602      2535.672          41.237  
R01  19702198.741 6     54109.53103      -760.327          35.326  
R24  19252822.741 5     10345.79503      -163.135          36.310  
R23  21985838.116 5    236338.31602     -3399.458          37.260  
R17  21091350.651 5   -275933.99402      3890.937          38.442  
R08  23141219.650 5    195601.32602     -2799.213          37.723  
E07  23503280.205 6     11109.56708      -164.843          26.865    23503118.616 2      8177.37208      -123.114          28.635  
E13  25794309.450 6         0.00000     -1739.647          22.634    25794151.474 2     80588.98809     -1296.080          24.453  
E19  28641573.338 6   -225641.40209      3448.469          23.536           0.000 0         0.00000         0.000           0.000  
E33  25070526.821 5   -195820.74003      2807.659          34.710    25070358.933 2   -137199.94206      2096.919          31.325  
E08         0.000 0         0.00000         0.000           0.000    27005351.665 2     91413.73008     -1491.887          25.766  
E26         0.000 0         0.00000         0.000           0.000    23165500.738 2    -26471.11409       415.835          28.021  
> 2023 09 07 19 33 47.0004163  0 23
G02  23437728.183 5   -247471.05405      3480.001          31.131           0.000 0         0.00000         0.000           0.000  
G08  22517365.344 4     19140.46902      -273.643          39.873    22517202.254 2     28099.03503      -204.280          36.983  
G10  21157878.786 4     23661.68902      -324.014          40.034    21157710.915 2     31451.42706      -241.755          32.081  
G18  24722992.717 5    195177.05405     -2823.942          30.637    24722832.926 2    152106.26907     -2108.975          30.250  
G21  22564690.282 4   -205717.08402      2892.434          39.439           0.000 0         0.00000         0.000           0.000  
G23  23254335.242 5    120824.38407     -1725.434          28.247    23254155.068 2     91528.45009     -1289.439          27.111  
G24  24506905.013 6         0.00000     -1712.165          24.837           0.000 0         0.00000         0.000           0.000  
G27  22746737.148 4    155003.15302     -2169.350          39.239    22746569.871 2    128478.16404     -1619.589          36.137  
G28  23662321.001 4   -284119.13403      3996.750          36.642           0.000 0         0.00000         0.000           0.000  
G32  20558227.915 5    -69164.20704       965.906          33.337    20558056.746 2    -37128.28605       720.898          33.959  
R02  20740265.515 5   -181309.74602      2538.178          41.144  
R01  19702335.446 6     54868.39103      -757.532          35.172  
R24  19252862.004 5     10507.94003      -161.433          36.191  
R23  21986473.077 5    239736.49702     -3397.145          37.142  
R17  21090625.159 5   -279826.09402      3893.306          39.040  
R08  23141725.113 5    198398.87603     -2796.261          36.984  
J03         0.000 0         0.00000         0.000           0.000    43923808.675 2         0.00000       480.420          20.196  
E07  23503309.591 6         0.00000      -164.484          25.839    23503149.503 2      8299.72807      -121.516          29.877  
E08         0.000 0         0.00000         0.000           0.000    27005733.004 2     92904.69309     -1489.967          25.876  
E13         0.000 0         0.00000         0.000           0.000    25794481.544 2     81884.59709     -1294.392          25.502  
E19         0.000 0         0.00000         0.000           0.000    28640750.106 2         0.00000      2575.906          21.682  
E26         0.000 0         0.00000         0.000           0.000    23165395.810 2    -26888.54209       418.506          27.856  
E33         0.000 0         0.00000         0.000           0.000    25069824.101 2   -139297.55906      2098.893          31.602  
> 2023 09 07 19 33 48.0004163  0 23
G02  23437062.946 5   -250952.32806      3482.274          29.283           0.000 0         0.00000         0.000           0.000  
G08  22517418.410 4     19413.57202      -272.769          41.550    22517255.617 2     28302.91704      -203.143          36.604  
G10  21157941.747 4     23984.51802      -322.215          41.184    21157772.358 2     31692.45207      -240.012          30.549  
G18  24723524.844 5    198000.19905     -2822.569          31.283    24723371.352 2    154214.38106     -2107.432          30.886  
G21  22564137.163 4   -208610.58502      2894.251          40.400           0.000 0         0.00000         0.000           0.000  
G23  23254656.326 5    122549.24607     -1723.697          27.722    23254484.546 2     92816.60809     -1288.028          28.426  
G24  24507229.692 6         0.00000     -1709.082          25.669           0.000 0         0.00000         0.000           0.000  
G27  22747145.169 4    157171.15102     -2167.521          38.880    22746982.080 2    130097.11304     -1618.464          35.347  
G28  23661561.027 4   -288116.78503      3998.299          37.128           0.000 0         0.00000         0.000           0.000  
G32  20558045.944 4    -70130.48103       966.695          35.436    20557872.663 2    -37849.82905       721.871          33.494  
R10  23926748.443 7         0.00000      1785.926          23.467  
R02  20739787.030 5   -183848.63201      2539.595          42.247  
R01  19702473.949 6     55625.31203      -756.454          34.941  
R24  19252885.387 6     10668.48603      -160.594          35.319  
R23  21987105.036 5    243132.69303     -3395.773          36.077  
R17  21089903.854 5   -283720.13002      3894.482          40.342  
R08  23142248.846 5    201193.99602     -2794.352          37.462  
E07  23503337.459 6         0.00000      -159.630          23.272    23503180.076 2      8420.61206      -120.540          30.951  
E19  28640259.040 6   -232545.04709      3454.112          23.560    28640091.762 2         0.00000      2578.413          21.690  
E33  25069456.565 4   -201440.86903      2811.828          35.802    25069289.584 2   -141396.77605      2099.821          32.860  
E08         0.000 0         0.00000         0.000           0.000    27006112.547 2     94393.86009     -1488.231          25.573  
E13         0.000 0         0.00000         0.000           0.000    25794811.319 2     83178.53709     -1294.898          23.010  
E26         0.000 0         0.00000         0.000           0.000    23165289.695 2    -27307.30208       418.912          28.657  
> 2023 09 07 19 33 49.0004163  0 24
G02  23436410.604 5   -254435.01705      3483.686          31.209           0.000 0         0.00000         0.000           0.000  
G08  22517474.460 4     19685.44801      -270.852          42.236    22517307.182 2     28505.99303      -202.235          37.033  
G10  21158006.208 4     24305.79402      -320.075          40.160    21157832.927 2     31932.39007      -239.213          30.642  
G18  24724062.067 5    200821.66605     -2820.249          30.689    24723908.889 2    156321.45706     -2106.411          31.351  
G21  22563590.342 4   -211505.54502      2896.097          40.778           0.000 0         0.00000         0.000           0.000  
G23  23254991.196 5    124272.91507     -1723.483          27.396    23254812.209 2     94103.47409     -1285.835          27.560  
G24  24507557.966 6         0.00000     -1705.248          26.659           0.000 0         0.00000         0.000           0.000  
G27  22747556.785 4    159337.70702     -2165.408          38.323    22747393.695 2    131715.03004     -1617.343          34.984  
G28  23660802.553 4   -292116.11603      4000.778          36.851           0.000 0         0.00000         0.000           0.000  
G32  20557866.067 4    -71097.98903       968.493          36.582    20557688.302 2    -38572.33205       723.049          33.466  
R10  23926412.090 7         0.00000      1787.615          25.265  
R02  20739312.472 5   -186388.76301      2541.366          42.118  
R01  19702616.656 6     56380.88603      -754.746          34.950  
R24  19252913.272 5     10828.10302      -158.669          37.805  
R23  21987732.197 5    246527.35102     -3393.212          37.571  
R17  21089163.075 5   -287615.41401      3896.284          41.889  
R08  23142777.082 5    203987.36102     -2791.968          37.772  
J03         0.000 0         0.00000         0.000           0.000    43923559.538 2         0.00000       483.393          21.823  
E19  28639596.804 6   -235999.59209      3455.367          24.872    28639434.622 2   -171111.02609      2580.131          21.810  
E07         0.000 0         0.00000         0.000           0.000    23503210.352 2      8540.48506      -118.634          30.878  
E08         0.000 0         0.00000         0.000           0.000    27006492.089 2     95881.88109     -1487.087          25.627  
E13         0.000 0         0.00000         0.000           0.000    25795140.779 2     84471.36309     -1291.954          22.312  
E26         0.000 0         0.00000         0.000           0.000    23165185.063 2    -27727.21908       420.575          29.453  
E33         0.000 0         0.00000         0.000           0.000    25068753.251 2   -143497.16306      2101.231          31.022  
> 2023 09 07 19 33 50.0004163  0 22
G02  23435747.165 5   -257919.99004      3484.643          31.816           0.000 0         0.00000         0.000           0.000  
G08  22517524.821 4     19955.53301      -269.628          42.502    22517358.748 2     28707.70804      -201.618          36.590  
G10  21158067.668 4     24624.92902      -318.773          41.575    21157894.073 2     32170.71406      -238.245          31.795  
G18  24724597.806 5    203641.09805     -2818.954          31.275    24724445.814 2    158426.72306     -2105.311          31.102  
G21  22563037.223 4   -214402.62301      2897.270          41.762           0.000 0         0.00000         0.000           0.000  
G23  23255328.159 5         0.00000     -1720.087          27.326    23255140.186 2     95388.83108     -1284.903          29.463  
G27  22747968.994 4    161502.26602     -2164.394          39.151    22747806.201 2    133331.41804     -1616.099          34.576  
G28  23660041.078 4   -296117.60602      4001.563          37.685           0.000 0         0.00000         0.000           0.000  
G32  20557677.500 4    -72067.33602       969.584          38.022    20557504.220 2    -39296.15505       723.930          33.278  
R10  23926067.920 7         0.00000      1791.702          24.688  
R02  20738831.299 5   -188930.78201      2542.126          41.952  
R01  19702756.660 6     57134.38603      -753.578          35.226  
R24  19252937.563 5     10986.36902      -158.446          38.513  
R23  21988378.850 5    249920.13503     -3392.257          36.999  
R17  21088430.375 5   -291512.53501      3897.309          41.972  
R08  23143286.140 5    206778.27202     -2790.564          37.580  
J03         0.000 0         0.00000         0.000           0.000    43923436.619 2         0.00000       484.309          21.794  
E19  28638940.868 6         0.00000      3458.580          24.243    28638777.481 2         0.00000      2580.242          21.422  
E33  25068388.995 4   -207068.48903      2815.140          37.086    25068218.123 2   -145599.18907      2102.732          30.599  
E07         0.000 0         0.00000         0.000           0.000    23503239.738 2      8658.83407      -118.565          30.365  
E08         0.000 0         0.00000         0.000           0.000    27006869.520 2     97368.17909     -1485.954          26.253  
E26         0.000 0         0.00000         0.000           0.000    23165075.633 2    -28148.55307       422.127          29.980  
> 2023 09 07 19 33 51.0004163  0 21
G08  22517577.591 4     20224.85901      -268.880          41.954    22517409.406 2     28908.82804      -200.738          35.475  
G10  21158125.515 4     24942.90801      -317.418          41.735    21157954.642 2     32408.12806      -237.000          31.738  
G18  24725139.234 5    206459.22203     -2817.417          33.992    24724981.536 2    160531.24407     -2104.414          30.237  
G21  22562485.011 4   -217300.85502      2898.886          40.897           0.000 0         0.00000         0.000           0.000  
G23  23255644.444 5    127717.82609     -1719.059          29.758    23255467.866 2     96673.13207     -1283.670          30.627  
G27  22748380.017 4    163665.68402     -2162.816          38.627    22748217.520 2    134946.92805     -1615.116          33.570  
G28  23659280.510 4   -300120.51903      4003.670          37.080           0.000 0         0.00000         0.000           0.000  
G32  20557493.435 4    -73037.44502       970.432          38.293    20557318.951 2    -40020.66005       724.998          32.394  
R10  23925718.968 7         0.00000      1796.457          23.248  
R02  20738359.131 5   -191473.77001      2543.376          42.540  
R01  19702903.852 5     57886.89602      -752.060          36.609  
R24  19252973.546 5     11143.96502      -157.090          38.063  
R23  21989006.028 6    253311.79003     -3390.983          35.432  
R17  21087717.778 5   -295410.51502      3898.309          40.713  
R08  23143819.453 5    209567.71603     -2788.713          36.269  
J03         0.000 0         0.00000         0.000           0.000    43923311.012 2         0.00000       485.576          21.220  
E07  23503421.709 6     11912.78609      -156.706          25.546    23503270.311 2      8776.40007      -117.275          30.804  
E19  28638279.819 6   -242914.53809      3458.790          25.073           0.000 0         0.00000         0.000           0.000  
E26  23165143.392 6         0.00000       567.665          25.190    23164968.908 2    -28570.54307       422.149          30.089  
E08         0.000 0         0.00000         0.000           0.000    27007248.154 2     98853.48309     -1485.056          27.807  
E33         0.000 0         0.00000         0.000           0.000    25067682.698 2   -147702.08206      2103.336          30.987  
> 2023 09 07 19 33 52.0004163  0 23
G02  23434421.472 6         0.00000      3489.103          26.620           0.000 0         0.00000         0.000           0.000  
G08  22517629.453 4     20492.95802      -267.853          41.641    22517460.378 2     29109.00904      -199.864          35.550  
G10  21158186.085 4     25259.25102      -316.010          40.929    21158014.601 2     32644.38107      -235.960          30.786  
G18  24725673.455 5    209275.78403     -2816.160          34.349    24725516.961 2    162634.47008     -2103.673          29.532  
G21  22561933.689 4   -220200.58102      2900.117          40.156           0.000 0         0.00000         0.000           0.000  
G23  23255974.219 5         0.00000     -1717.750          28.736    23255794.638 2     97956.19607     -1282.827          30.552  
G27  22748791.632 4    165827.68102     -2161.617          39.316    22748629.433 2    136561.40705     -1614.477          33.789  
G28  23658518.127 4   -304125.01703      4004.905          36.275           0.000 0         0.00000         0.000           0.000  
G32  20557308.166 4    -74008.87202       971.547          38.273    20557133.978 2    -40746.08406       725.787          31.444  
R10  23925389.490 7         0.00000      1796.784          22.820  
R02  20737870.473 5   -194018.14801      2544.658          42.444  
R01  19703039.667 5     58638.00903      -750.886          36.545  
R24  19252997.819 5     11300.62102      -156.435          37.523  
R23  21989643.973 6    256702.07203     -3389.943          35.047  
R17  21086979.983 5   -299309.83302      3899.576          40.693  
R08  23144343.204 5    212355.30903     -2786.795          36.032  
J03         0.000 0         0.00000         0.000           0.000    43923188.389 2    -31998.58109       487.952          22.724  
E07  23503447.483 6     12069.00409      -156.439          23.380    23503298.790 2      8892.86607      -116.334          30.560  
E13  25796281.499 6    124527.31809     -1726.784          25.532           0.000 0         0.00000         0.000           0.000  
E19  28637625.366 6         0.00000      3461.054          24.455           0.000 0         0.00000         0.000           0.000  
E26  23165041.762 6         0.00000       566.973          22.117    23164860.385 2    -28993.67509       422.895          28.533  
E08         0.000 0         0.00000         0.000           0.000    27007627.103 2    100337.50909     -1484.029          27.967  
E33         0.000 0         0.00000         0.000           0.000    25067146.662 2   -149806.21706      2104.325          31.455  
> 2023 09 07 19 33 53.0004163  0 23
G02  23433752.936 5   -268382.69809      3488.680          30.287           0.000 0         0.00000         0.000           0.000  
G08  22517681.315 4     20760.58602      -267.365          41.505    22517511.647 2     29308.83204      -199.402          34.839  
G10  21158246.637 4     25574.74202      -315.185          40.842    21158074.857 2     32879.92806      -235.018          31.205  
G18  24726211.881 5    212091.36703     -2815.107          34.523    24726052.090 2    164736.92208     -2102.189          28.885  
G21  22561379.365 4   -223101.16702      2901.004          39.932           0.000 0         0.00000         0.000           0.000  
G23  23256303.679 6         0.00000     -1717.915          25.330    23256121.708 2     99238.46907     -1281.632          30.711  
G27  22749202.044 4    167988.85402     -2160.641          38.135    22749040.455 2    138175.27805     -1613.680          33.304  
G28  23657759.357 5   -308130.55803      4006.041          35.175           0.000 0         0.00000         0.000           0.000  
G32  20557121.990 4    -74980.83402       972.264          37.944    20556949.599 2    -41471.89206       726.200          31.646  
R10  23925050.415 7         0.00000      1796.276          21.754  
R02  20737398.287 5   -196563.13102      2545.197          41.479  
R01  19703181.764 5     59388.45803      -750.313          35.789  
R24  19253022.703 5     11457.07702      -156.371          37.656  
R23  21990278.341 6    260091.60903     -3389.269          35.040  
R17  21086254.472 5   -303209.71602      3900.153          40.410  
R08  23144847.149 5    215141.76203     -2786.045          36.875  
J03         0.000 0         0.00000         0.000           0.000    43923064.580 2    -32486.99809       488.701          22.690  
E13  25796611.256 6    126252.78209     -1725.395          24.672           0.000 0         0.00000         0.000           0.000  
E19  28636963.130 6         0.00000      3460.469          24.005           0.000 0         0.00000         0.000           0.000  
E26  23164930.238 6         0.00000       570.671          21.460    23164751.565 2    -29417.42809       424.566          28.245  
E07         0.000 0         0.00000         0.000           0.000    23503329.066 2      9008.76806      -115.648          31.045  
E08         0.000 0         0.00000         0.000           0.000    27008004.237 2    101820.67709     -1482.504          26.681  
E33         0.000 0         0.00000         0.000           0.000    25066610.033 2   -151911.04707      2105.182          30.712  
> 2023 09 07 19 33 54.0004163  0 23
G02  23433083.197 5   -271872.64109      3489.925          30.490           0.000 0         0.00000         0.000           0.000  
G08  22517730.490 4     21027.47202      -266.767          41.354    22517562.008 2     29508.15904      -199.396          35.021  
G10  21158304.799 4     25889.12802      -313.987          40.824    21158135.113 2     33114.72207      -234.535          30.563  
G18  24726748.807 5    214905.82703     -2814.029          34.627    24726588.125 2    166838.67709     -2101.848          27.932  
G21  22560830.451 4   -226002.79902      2901.904          40.205           0.000 0         0.00000         0.000           0.000  
G23  23256631.359 6         0.00000     -1718.857          24.643    23256449.074 2    100519.89507     -1281.068          30.492  
G24  24509147.157 5         0.00000     -1701.641          27.372           0.000 0         0.00000         0.000           0.000  
G27  22749613.956 4    170149.08502     -2160.031          38.091    22749451.163 2    139788.44305     -1613.293          33.115  
G28  23656995.195 4   -312137.33103      4006.998          35.663           0.000 0         0.00000         0.000           0.000  
G32  20556936.424 4    -75953.54102       972.783          38.146    20556764.941 2    -42198.23406       726.325          31.564  
R02  20736917.726 5   -199108.99002      2545.886          40.957  
R01  19703315.782 6     60137.91303      -749.341          35.385  
R24  19253061.983 5     11612.99603      -155.787          36.967  
R23  21990904.909 6    263480.18403     -3388.373          34.882  
R17  21085516.084 5   -307110.43802      3900.634          40.471  
R08  23145376.588 5    217926.87803     -2784.970          36.957  
J03         0.000 0         0.00000         0.000           0.000    43922939.863 2    -32976.42809       490.024          22.159  
E13  25796940.437 6    127977.43409     -1724.319          23.938           0.000 0         0.00000         0.000           0.000  
E19  28636304.192 6         0.00000      3461.509          23.801           0.000 0         0.00000         0.000           0.000  
E07         0.000 0         0.00000         0.000           0.000    23503358.155 2      9123.99207      -115.325          30.555  
E08         0.000 0         0.00000         0.000           0.000    27008381.372 2    103302.98009     -1481.587          27.374  
E26         0.000 0         0.00000         0.000           0.000    23164643.339 2    -29841.76008       424.600          28.762  
E33         0.000 0         0.00000         0.000           0.000    25066073.107 2   -154016.69207      2105.887          30.660  
> 2023 09 07 19 33 55.0004163  0 23
G08  22517783.852 4     21293.96801      -266.230          41.765    22517612.962 2     29707.15904      -198.809          35.093  
G10  21158364.461 4     26202.77602      -313.165          40.841    21158194.775 2     33348.97507      -233.994          30.163  
G18  24727285.139 5    217719.55304     -2812.905          32.910    24727123.847 2    168939.71308     -2100.442          29.239  
G21  22560278.535 4   -228905.15202      2902.817          41.056           0.000 0         0.00000         0.000           0.000  
G23  23256961.133 6         0.00000     -1717.455          24.004    23256774.957 2    101800.67707     -1280.332          29.879  
G24  24509473.930 6         0.00000     -1703.266          26.496           0.000 0         0.00000         0.000           0.000  
G27  22750025.275 4    172308.62702     -2159.157          39.027    22749862.482 2    141401.07605     -1612.578          33.339  
G28  23656228.624 5   -316144.93003      4008.118          34.950           0.000 0         0.00000         0.000           0.000  
G32  20556757.734 4    -76926.75003       973.712          37.111    20556579.969 2    -42924.97505       727.135          32.342  
R10  23924385.178 7         0.00000      1794.947          20.542  
R02  20736442.556 5   -201655.32902      2546.649          40.480  
R01  19703459.973 6     60886.89603      -748.672          34.820  
R24  19253087.461 5     11769.02003      -156.032          35.935  
R23  21991535.071 6    266868.15303     -3387.355          34.612  
R17  21084790.294 5   -311011.54002      3901.420          40.124  
R08  23145896.727 5    220710.89102     -2783.407          38.261  
J03         0.000 0         0.00000         0.000           0.000    43922815.147 2         0.00000       489.432          20.662  
E13  25797266.302 6         0.00000     -1723.774          24.043           0.000 0         0.00000         0.000           0.000  
E19  28635648.239 6         0.00000      3463.224          22.041    28635481.257 4         0.00000      2585.357          20.789  
E26  23164711.988 6         0.00000       568.202          20.963    23164535.113 2    -30266.50308       425.147          28.599  
E33  25065701.068 4   -221161.10903      2821.211          37.075    25065537.071 2   -156122.85406      2106.210          31.219  
E07         0.000 0         0.00000         0.000           0.000    23503387.524 2      9238.71207      -114.109          30.245  
E08         0.000 0         0.00000         0.000           0.000    27008760.303 2    104784.67309     -1481.685          26.184  
> 2023 09 07 19 33 56.0004163  0 24
G02  23431759.912 5   -278854.73905      3491.870          30.578           0.000 0         0.00000         0.000           0.000  
G08  22517827.024 4     21560.02501      -265.974          41.716    22517663.027 2     29905.86804      -198.312          34.370  
G10  21158423.216 4     26514.81102      -311.110          40.824    21158255.327 2     33582.03306      -232.581          31.108  
G18  24727828.068 5    220531.52305     -2810.065          31.213    24727659.883 2    171039.39307     -2098.955          30.411  
G21  22559718.226 4   -231808.27002      2903.474          39.163           0.000 0         0.00000         0.000           0.000  
G23  23257288.499 6         0.00000     -1717.562          25.585    23257100.822 2    103079.87308     -1278.210          29.073  
G24  24509798.312 6         0.00000     -1704.083          26.228           0.000 0         0.00000         0.000           0.000  
G27  22750441.376 4    174467.20602     -2157.990          39.444    22750273.208 2    143012.98305     -1611.768          33.658  
G28  23655463.851 5   -320154.46403      4010.426          34.998           0.000 0         0.00000         0.000           0.000  
G32  20556563.775 4    -77900.86103       974.746          35.601    20556393.792 2    -43652.44005       728.090          33.876  
R10  23924043.119 7         0.00000      1796.971          25.770  
R02  20735973.076 5   -204202.30202      2547.346          41.061  
R01  19703592.787 6     61634.69903      -747.331          34.508  
R24  19253119.237 5     11924.31203      -155.093          37.003  
R23  21992167.938 6    270254.52503     -3385.301          34.870  
R17  21084056.705 5   -314913.26402      3902.284          40.204  
R08  23146407.565 5    223493.04803     -2782.004          36.279  
J03         0.000 0         0.00000         0.000           0.000    43922688.650 2         0.00000       490.378          20.843  
E13  25797595.483 5    131423.29606     -1720.373          28.808           0.000 0         0.00000         0.000           0.000  
E26  23164601.964 6         0.00000       569.404          20.158    23164426.886 2    -30692.22507       426.415          30.323  
E33  25065165.329 4   -223982.50503      2821.713          36.605    25064999.849 2   -158229.70706      2106.733          31.561  
E07         0.000 0         0.00000         0.000           0.000    23503416.614 2      9352.41607      -112.753          30.377  
E08         0.000 0         0.00000         0.000           0.000    27009138.048 2    106264.82409     -1479.154          24.426  
E19         0.000 0         0.00000         0.000           0.000    28634823.803 2         0.00000      2586.771          21.592  
> 2023 09 07 19 33 57.0004163  0 24
G02  23431091.080 5   -282345.95906      3490.306          29.790           0.000 0         0.00000         0.000           0.000  
G08  22517879.480 4     21826.70901      -267.228          42.452    22517713.406 2     30104.97904      -199.544          35.214  
G10  21158481.377 4     26825.69402      -310.662          39.749    21158313.489 2     33814.10206      -231.792          31.465  
G18  24728353.599 5    223341.25104     -2809.094          32.331    24728194.418 2    173137.39107     -2097.189          30.768  
G21  22559174.390 4   -234711.22502      2902.601          40.156           0.000 0         0.00000         0.000           0.000  
G23  23257603.877 6         0.00000     -1710.815          25.417    23257426.705 2    104357.64707     -1276.536          30.372  
G24  24510124.474 6         0.00000     -1703.912          25.449           0.000 0         0.00000         0.000           0.000  
G27  22750850.008 4    176625.62602     -2158.209          39.261    22750683.620 2    144624.73905     -1612.157          33.557  
G28  23654698.781 5   -324165.65603      4011.617          34.949           0.000 0         0.00000         0.000           0.000  
G32  20556382.397 4    -78875.55703       974.367          35.488    20556209.117 2    -44380.31004       727.830          34.621  
R10  23923733.447 7         0.00000      1795.214          24.541  
R02  20735491.903 5   -206748.93702      2546.263          40.677  
R01  19703736.978 5     62381.99403      -747.201          35.887  
R24  19253145.622 6     12079.41503      -155.160          35.290  
R23  21992803.492 6    273639.62403     -3384.993          35.481  
R17  21083339.902 5   -318814.70702      3901.695          40.252  
R08  23146922.311 6    226274.52003     -2781.555          35.456  
J03         0.000 0         0.00000         0.000           0.000    43922563.323 2         0.00000       491.453          22.383  
E13  25797925.554 5    133143.48307     -1719.070          27.657           0.000 0         0.00000         0.000           0.000  
E19  28634331.253 6   -263677.10609      3465.057          23.354    28634163.661 2         0.00000      2587.355          21.544  
E26  23164492.534 6         0.00000       570.529          23.068    23164318.067 2    -31118.40007       426.226          30.186  
E33  25064629.904 4   -226803.84303      2820.759          37.217    25064462.312 2   -160336.65905      2106.750          32.641  
E07         0.000 0         0.00000         0.000           0.000    23503446.890 2      9465.58307      -113.177          30.029  
E08         0.000 0         0.00000         0.000           0.000    27009514.589 2    107744.24309     -1479.901          24.625  
> 2023 09 07 19 33 58.0004163  0 22
G02  23430429.438 5   -285837.37704      3491.273          33.339           0.000 0         0.00000         0.000           0.000  
G08  22517927.747 4     22094.53502      -268.737          40.713    22517764.657 2     30304.77604      -199.946          34.930  
G10  21158541.633 4     27134.58802      -307.584          37.639    21158371.947 2     34044.83507      -230.072          30.828  
G18  24728884.836 5    226149.16104     -2807.529          33.318    24728729.250 2    175234.32407     -2096.486          29.915  
G21  22558617.973 4   -237614.14902      2903.464          40.981           0.000 0         0.00000         0.000           0.000  
G23  23257908.174 6         0.00000     -1708.250          26.271    23257751.384 2    105633.51106     -1274.529          32.176  
G24  24510447.059 6         0.00000     -1696.535          24.693    24510272.574 4     96772.12909     -1267.287          23.573  
G27  22751259.215 4    178784.55302     -2158.961          38.790    22751094.625 2    146236.90105     -1612.279          33.921  
G28  23653933.414 5   -328177.92203      4013.317          35.093           0.000 0         0.00000         0.000           0.000  
G32  20556195.628 5    -79850.67003       974.650          34.772    20556023.254 2    -45108.50305       728.550          33.516  
R10  23923380.586 7         0.00000      1797.820          25.104  
R02  20735007.747 5   -209294.88802      2545.701          40.890  
R01  19703873.386 5     63128.45402      -745.749          38.423  
R24  19253180.697 6     12234.56503      -155.380          34.208  
R23  21993438.157 5    277023.72503     -3383.887          36.277  
R17  21082600.920 5   -322716.00401      3901.837          42.336  
R08  23147455.939 6    229055.50103     -2780.835          34.911  
E13  25798255.032 5    134862.18407     -1718.192          27.549           0.000 0         0.00000         0.000           0.000  
E33  25064094.776 4   -229625.28602      2821.563          38.235    25063926.294 2   -162443.71005      2107.312          33.039  
E07         0.000 0         0.00000         0.000           0.000    23503474.775 2      9577.69208      -112.114          28.844  
E08         0.000 0         0.00000         0.000           0.000    27009889.925 3         0.00000     -1476.940          23.077  
E26         0.000 0         0.00000         0.000           0.000    23164209.841 2    -31545.21808       427.151          29.548  
> 2023 09 07 19 33 59.0004163  0 23
G02  23429764.794 4   -289328.36301      3490.308          42.170           0.000 0         0.00000         0.000           0.000  
G08  22517982.610 4     22362.98602      -268.941          41.159    22517814.722 2     30505.33306      -200.680          31.962  
G10  21158600.388 4     27442.96803      -308.456          35.350    21158430.405 2     34274.76105      -229.765          33.652  
G18  24729423.855 5         0.00000     -2807.987          29.341    24729264.675 2    177329.76708     -2094.012          29.299  
G21  22558067.261 4   -240516.85101      2902.137          42.720           0.000 0         0.00000         0.000           0.000  
G23  23258243.637 5         0.00000     -1709.691          28.708    23258075.748 2    106907.97605     -1274.039          33.204  
G24  24510771.126 6         0.00000     -1693.774          23.287    24510593.064 2         0.00000     -1266.793          21.975  
G27  22751670.238 4    180943.42603     -2157.604          37.096    22751505.351 2    147849.17604     -1611.921          34.854  
G28  23653173.143 5   -332191.49604      4013.815          33.732           0.000 0         0.00000         0.000           0.000  
G32  20556008.265 5         0.00000       972.619          31.141    20555837.375 2    -45836.86606       728.451          31.615  
R10  23923028.022 7         0.00000      1803.546          24.397  
R02  20734535.876 5   -211840.30202      2545.379          41.371  
R01  19704011.592 5     63874.42902      -746.265          38.462  
R24  19253206.471 6     12389.77703      -155.555          34.293  
R23  21994072.210 6    280406.94704     -3383.363          33.419  
R17  21081867.924 5   -326616.96402      3900.529          40.957  
R08  23147988.677 6         0.00000     -2781.877          34.287  
E33  25063557.554 4   -232446.70302      2821.206          40.338    25063390.555 2   -164550.63404      2106.456          34.133  
E07         0.000 0         0.00000         0.000           0.000    23503502.050 2      9689.16008      -111.160          28.688  
E08         0.000 0         0.00000         0.000           0.000    27010265.262 2         0.00000     -1477.369          25.638  
E13         0.000 0         0.00000         0.000           0.000    25798420.512 3         0.00000     -1281.801          22.886  
E19         0.000 0         0.00000         0.000           0.000    28632848.770 2         0.00000      2587.217          21.361  
E26         0.000 0         0.00000         0.000           0.000    23164100.707 2         0.00000       427.430          29.261  
> 2023 09 07 19 34 00.0004163  0 24
G02  23429098.056 4   -292820.60301      3494.739          42.496           0.000 0         0.00000         0.000           0.000  
G08  22518026.986 4         0.00000      -264.305          37.524    22517865.694 2         0.00000      -197.712          30.217  
G10  21158659.753 4     27751.05303      -308.827          36.696    21158487.677 2     34504.84005      -230.805          33.223  
G18  24729944.902 5         0.00000     -2808.066          28.975    24729798.006 2    179424.42809     -2094.135          25.575  
G21  22557514.438 4   -243420.64301      2906.369          42.203           0.000 0         0.00000         0.000           0.000  
G23  23258563.220 5    143132.87309     -1708.748          31.634    23258399.834 2    108182.88406     -1275.705          31.047  
G24  24511093.118 6         0.00000     -1695.689          23.202    24510915.632 2         0.00000     -1267.999          20.170  
G27  22752078.555 4    183100.00003     -2155.388          35.458    22751916.356 2    149460.03105     -1609.696          32.870  
G28  23652406.869 5   -336205.92409      4012.744          31.134           0.000 0         0.00000         0.000           0.000  
G32  20555827.480 5         0.00000       975.482          27.970    20555651.809 2    -46565.62307       728.358          30.741  
R10  23922711.440 7         0.00000      1804.647          24.530  
R02  20734063.097 5   -214387.25902      2548.880          39.349  
R01  19704153.689 5     64620.25902      -745.722          40.163  
R24  19253229.261 6     12544.67304      -154.764          32.977  
R23  21994689.180 6         0.00000     -3382.457          28.992  
R17  21081135.835 5   -330518.64401      3903.629          42.100  
R08  23148501.626 6         0.00000     -2778.464          33.984  
J03  43922350.779 6         0.00000       657.452          25.204           0.000 0         0.00000         0.000           0.000  
E13  25798908.577 5         0.00000     -1714.650          28.123    25798746.692 2     98630.80409     -1282.240          26.277  
E19  28632346.029 6         0.00000      3463.140          23.474    28632186.238 2         0.00000      2588.995          21.898  
E26  23164160.980 6         0.00000       573.648          23.650    23163992.481 2    -32400.03008       427.737          29.396  
E33  25063017.923 4   -235269.21202      2824.792          39.049    25062853.629 2   -166658.55805      2109.031          33.242  
E07         0.000 0         0.00000         0.000           0.000    23503528.435 2      9800.59807      -112.015          30.149  
E08         0.000 0         0.00000         0.000           0.000    27010643.304 3    112174.41109     -1477.126          23.152  
> 2023 09 07 19 34 01.0004163  0 24
G02  23428437.617 4   -296316.40901      3496.044          42.589           0.000 0         0.00000         0.000           0.000  
G08  22518081.239 5     22893.54803      -263.725          35.287    22517916.963 2     30901.61106      -197.257          31.362  
G10  21158723.010 4     28059.72302      -308.631          40.353    21158546.432 2     34735.30304      -229.942          34.928  
G18  24730487.830 5    234569.15204     -2808.441          32.132    24730331.040 3         0.00000     -2099.564          22.510  
G21  22556962.820 4   -246327.62002      2907.291          40.941           0.000 0         0.00000         0.000           0.000  
G23  23258890.883 5    144842.58304     -1710.503          31.843    23258725.106 2         0.00000     -1276.679          27.933  
G27  22752491.061 4    185255.76303     -2155.260          36.657    22752325.284 2    151069.58005     -1609.773          33.261  
G28  23651641.799 5         0.00000      4015.381          27.991           0.000 0         0.00000         0.000           0.000  
G32  20555641.618 5         0.00000       977.084          27.619    20555465.633 2    -47294.50706       728.591          32.102  
G24         0.000 0         0.00000         0.000           0.000    24511237.606 2         0.00000     -1266.780          20.649  
R10  23922380.479 6         0.00000      1798.554          27.783  
R02  20733565.748 5   -216937.09303      2549.999          36.356  
R01  19704297.898 5     65365.34801      -744.993          41.554  
R24  19253253.552 6     12699.32809      -154.733          29.706  
R23  21995328.940 6         0.00000     -3385.913          30.023  
R17  21080418.718 5   -334422.84101      3903.977          42.649  
R08  23149007.961 5    237395.59109     -2777.982          36.288  
J03         0.000 0         0.00000         0.000           0.000    43922064.770 2         0.00000       493.903          21.034  
E07  23503723.004 6         0.00000      -148.510          23.942    23503557.821 2      9912.32306      -111.907          31.528  
E13  25799239.242 6         0.00000     -1716.847          24.829    25799074.651 2     99914.67509     -1283.529          25.347  
E26  23164052.143 6         0.00000       572.646          25.227    23163883.364 2    -32827.65407       427.555          29.973  
E33  25062482.795 4   -238094.81602      2825.677          39.373    25062316.407 2   -168768.59906      2109.450          31.460  
E08         0.000 0         0.00000         0.000           0.000    27011022.253 2         0.00000     -1476.797          21.855  
E19         0.000 0         0.00000         0.000           0.000    28631527.893 2         0.00000      2590.394          24.787  
> 2023 09 07 19 34 02.0004163  0 24
G02  23427770.879 4   -299813.07201      3498.344          42.949           0.000 0         0.00000         0.000           0.000  
G08  22518131.304 5     23157.03903      -262.363          34.906    22517967.324 2         0.00000      -195.376          31.028  
G10  21158777.874 4     28368.05202      -308.710          38.508    21158605.483 2     34965.55404      -230.218          34.684  
G18  24731020.865 5    237377.80904     -2810.496          32.816    24730865.872 2         0.00000     -2098.093          21.936  
G21  22556403.418 4   -249235.39902      2909.413          40.774           0.000 0         0.00000         0.000           0.000  
G23  23259221.268 5    146551.75705     -1709.949          30.982    23259050.081 2    110736.02109     -1276.034          26.974  
G24  24511741.254 5         0.00000     -1694.944          27.486           0.000 0         0.00000         0.000           0.000  
G27  22752900.879 4    187410.77402     -2154.780          37.600    22752735.399 2    152678.76305     -1609.046          32.605  
G28  23650874.635 6         0.00000      4017.170          25.020           0.000 0         0.00000         0.000           0.000  
G32  20555454.238 6         0.00000       974.949          26.616    20555279.456 2    -48023.46506       728.935          31.292  
R10  23922024.617 6   -155713.99609      1797.446          29.060  
R02  20733100.177 5   -219487.13102      2550.537          37.643  
R01  19704442.089 5     66110.05301      -743.643          41.575  
R24  19253292.518 6     12854.60205      -154.672          30.278  
R23  21995957.916 6    290555.82209     -3385.218          28.460  
R17  21079689.631 5   -338327.54201      3906.114          43.196  
R08  23149527.210 5    240172.35309     -2775.339          36.545  
J03  43922119.930 6         0.00000       669.205          24.143    43921938.570 2    -36886.58809       496.596          21.697  
E13  25799572.907 6         0.00000     -1718.488          22.405    25799403.239 2    101198.61309     -1285.467          25.632  
E19  28631024.838 6   -281003.21208      3469.126          26.562    28630868.345 3         0.00000      2590.781          24.573  
E26  23163940.933 6    -45676.34909       575.205          25.084    23163773.637 2    -33255.56507       428.617          29.680  
E33  25061944.665 4   -240921.23802      2828.202          39.274    25061778.870 2   -170879.35306      2112.471          31.927  
E07         0.000 0         0.00000         0.000           0.000    23503585.689 2     10023.79505      -111.671          32.337  
E08         0.000 0         0.00000         0.000           0.000    27011399.090 2    115129.01409     -1477.202          21.752  
> 2023 09 07 19 34 03.0004163  0 23
G02  23427104.438 4   -303314.20901      3503.864          42.147           0.000 0         0.00000         0.000           0.000  
G08  22518181.979 5     23418.38703      -259.941          34.183    22518017.389 2         0.00000      -194.508          32.426  
G10  21158841.428 4     28675.90103      -308.135          37.238    21158664.849 2     35195.44404      -229.752          35.917  
G18  24731555.679 5    240190.82804     -2815.962          32.387    24731401.000 2         0.00000     -2100.794          21.051  
G21  22555854.486 4   -252147.07702      2914.072          41.072           0.000 0         0.00000         0.000           0.000  
G23  23259541.445 5    148262.94005     -1713.344          31.041    23259375.650 2         0.00000     -1277.667          25.972  
G24  24512066.840 6         0.00000     -1693.883          22.834    24511883.072 2         0.00000     -1266.887          20.346  
G27  22753317.294 4    189566.30802     -2155.865          37.514    22753146.404 2    154288.51204     -1610.143          34.791  
G28  23650110.159 6         0.00000      4016.917          24.187           0.000 0         0.00000         0.000           0.000  
G32  20555278.270 6         0.00000       976.262          24.593    20555093.594 2         0.00000       727.884          30.345  
R10  23921684.966 6         0.00000      1796.041          27.741  
R02  20732624.990 5   -222038.73102      2552.201          38.901  
R01  19704580.888 5     66853.04602      -741.916          41.390  
R24  19253333.578 6     13010.80005      -156.753          30.954  
R23  21996614.149 7    293943.88409     -3387.950          26.390  
R17  21078949.741 5   -342236.06101      3910.788          43.155  
R08  23150043.457 5    242948.67903     -2774.930          36.506  
J03  43921962.547 6         0.00000       668.034          23.832    43921810.259 2         0.00000       499.370          21.542  
E07  23503777.868 6         0.00000      -149.976          23.739    23503614.778 2     10135.29706      -111.624          31.224  
E13  25799904.182 6         0.00000     -1722.587          22.687    25799730.901 3         0.00000     -1288.483          23.956  
E19  28630364.103 6   -284471.61208      3468.167          26.561    28630206.999 3         0.00000      2589.196          24.778  
E26  23163834.190 5         0.00000       572.459          27.459    23163664.818 2         0.00000       427.539          29.615  
E33  25061403.534 4   -243751.49202      2832.835          39.196    25061240.444 2   -172992.75205      2115.006          33.639  
> 2023 09 07 19 34 04.0004163  0 24
G02  23426435.606 4   -306821.46801      3510.137          42.963           0.000 0         0.00000         0.000           0.000  
G08  22518232.934 5     23677.37403      -258.385          34.130    22518065.063 2     31486.96105      -192.889          32.726  
G10  21158898.682 4     28982.63403      -306.390          36.068    21158723.307 2     35424.69604      -228.816          35.989  
G18  24732093.809 5    243010.40505     -2822.428          30.737    24731936.722 2    187824.15109     -2105.405          21.211  
G21  22555298.383 4   -255064.14001      2919.658          42.485           0.000 0         0.00000         0.000           0.000  
G23  23259870.015 5    149975.59409     -1713.442          28.978    23259700.940 2         0.00000     -1278.309          26.166  
G24  24512390.908 6         0.00000     -1694.108          22.686           0.000 0         0.00000         0.000           0.000  
G27  22753722.907 4    191724.02503     -2159.997          35.954    22753557.723 2    155899.75404     -1612.390          35.048  
G28  23649347.776 6         0.00000      4014.782          24.644           0.000 0         0.00000         0.000           0.000  
G32  20555102.878 6         0.00000       978.736          23.080    20554908.325 2    -49479.64908       727.004          29.081  
R10  23921354.284 7         0.00000      1796.171          23.705  
R02  20732147.430 5   -224591.61102      2553.110          39.300  
R01  19704712.812 5     67593.29802      -738.916          40.911  
R24  19253373.156 6     13168.88509      -154.642          28.075  
R23  21997238.919 7         0.00000     -3389.436          22.721  
R17  21078224.231 5   -346150.03001      3916.597          42.535  
R08  23150567.784 6         0.00000     -2771.652          34.610  
J03  43921832.141 6         0.00000       670.404          22.178    43921682.244 2         0.00000       502.854          20.715  
E07  23503804.549 6         0.00000      -148.701          21.273    23503643.257 2     10246.76906      -111.507          31.800  
E19  28629705.462 5   -287938.16307      3465.435          27.943    28629547.468 2         0.00000      2587.330          25.397  
E26  23163724.480 5    -46820.88407       571.416          28.089    23163556.295 2         0.00000       427.015          29.162  
E33  25060867.201 4   -246587.08002      2838.205          39.657    25060701.127 2   -175110.41806      2119.990          31.943  
E08         0.000 0         0.00000         0.000           0.000    27012146.762 4         0.00000     -1474.507          24.520  
E13         0.000 0         0.00000         0.000           0.000    25800059.472 3    103776.68409     -1291.433          22.162  
> 2023 09 07 19 34 05.0004163  0 23
G02  23425767.664 4   -310334.70401      3515.494          43.024           0.000 0         0.00000         0.000           0.000  
G08  22518280.608 4     23934.90303      -258.137          35.991    22518113.923 2     31679.19905      -192.474          33.808  
G10  21158954.156 4     29286.55903      -302.482          36.651    21158781.469 2     35651.69004      -226.095          35.837  
G18  24732631.048 5         0.00000     -2826.534          30.060    24732474.258 2         0.00000     -2109.813          23.501  
G21  22554741.058 4   -257986.57701      2924.208          43.391           0.000 0         0.00000         0.000           0.000  
G23  23260199.492 5         0.00000     -1710.943          27.354    23260028.306 2    114570.42506     -1277.501          31.586  
G24  24512712.882 6         0.00000     -1694.770          23.954           0.000 0         0.00000         0.000           0.000  
G27  22754139.932 4    193884.51403     -2162.762          35.419    22753969.042 2    157513.20704     -1614.968          34.644  
G28  23648587.209 6         0.00000      3996.534          26.139           0.000 0         0.00000         0.000           0.000  
G32  20554913.421 6         0.00000       976.726          24.646    20554722.149 2    -50207.19808       727.432          29.327  
R10  23921015.227 7         0.00000      1795.912          23.496  
R02  20731664.757 5   -227144.88703      2552.799          36.403  
R01  19704853.705 5     68329.48702      -734.368          37.732  
R24  19253405.229 7         0.00000      -160.066          26.985  
R17  21077494.847 5   -350069.80701      3921.829          43.131  
R08  23151088.533 6         0.00000     -2761.409          35.219  
J03  43921715.521 6         0.00000       672.959          22.736    43921550.634 2         0.00000       506.372          20.988  
E08  27012689.097 5    169369.29508     -1969.385          27.177    27012521.802 2    119553.18809     -1469.808          24.519  
E19  28629048.601 6   -291401.18308      3459.847          26.461    28628888.216 2   -212476.98609      2584.383          26.539  
E26  23163614.142 5         0.00000       572.257          28.481    23163447.458 2    -34537.81708       428.079          28.856  
E33  25060323.086 4   -249428.26302      2843.317          40.364    25060159.403 2         0.00000      2123.120          29.549  
E07         0.000 0         0.00000         0.000           0.000    23503670.532 2     10357.09505      -109.620          33.323  
E13         0.000 0         0.00000         0.000           0.000    25800388.949 2         0.00000     -1295.053          24.286  
> 2023 09 07 19 34 06.0004163  0 23
G02  23425099.426 4   -313851.32202      3517.136          39.946           0.000 0         0.00000         0.000           0.000  
G08  22518327.078 4     24194.07602      -260.720          37.431    22518163.395 2     31872.83004      -194.937          34.546  
G10  21159009.316 5     29587.02603      -299.331          35.300    21158839.020 2     35876.20104      -223.807          34.581  
G18  24733168.864 5         0.00000     -2832.195          27.463    24733012.074 2         0.00000     -2112.428          26.059  
G21  22554187.048 4   -260911.88301      2925.973          42.501           0.000 0         0.00000         0.000           0.000  
G23  23260516.667 5         0.00000     -1704.682          28.214    23260354.171 2    115846.24807     -1273.768          30.716  
G24  24513025.869 6         0.00000     -1688.152          26.931           0.000 0         0.00000         0.000           0.000  
G27  22754546.138 4    196050.58902     -2169.345          37.644    22754381.251 2    159129.94806     -1617.239          31.207  
G28  23647832.940 6         0.00000      4010.896          25.780           0.000 0         0.00000         0.000           0.000  
G32         0.000 0         0.00000         0.000           0.000    20554537.770 2    -50934.01307       726.710          29.964  
R10  23920676.448 7         0.00000      1796.248          20.691  
R02  20731189.291 6   -229695.91203      2548.882          35.527  
R24  19253411.825 6     13494.73809      -162.741          31.102  
R23  21998502.245 7         0.00000     -3397.748          24.427  
R17  21076757.663 5   -353993.18201      3923.935          45.606  
R08  23151585.289 6         0.00000     -2762.204          35.127  
J03  43921585.098 6         0.00000       674.263          20.567           0.000 0         0.00000         0.000           0.000  
E07  23503867.492 4     14156.92403      -145.595          35.698    23503699.010 2     10466.23504      -108.539          34.104  
E08  27013054.836 5         0.00000     -1961.350          32.278    27012895.342 3         0.00000     -1463.106          22.823  
E19  28628388.459 5   -294858.69607      3455.161          27.789    28628231.373 2         0.00000      2579.232          26.366  
E33  25059783.752 4   -252272.46802      2844.724          40.200    25059616.474 2         0.00000      2124.326          27.727  
E13         0.000 0         0.00000         0.000           0.000    25800718.113 2         0.00000     -1298.152          26.477  
E26         0.000 0         0.00000         0.000           0.000    23163338.638 2    -34965.00607       427.550          30.511  
> 2023 09 07 19 34 07.0004163  0 23
G02  23424428.796 4   -317368.42702      3517.695          41.457           0.000 0         0.00000         0.000           0.000  
G08  22518373.844 4     24455.63602      -261.577          37.443    22518213.145 2     32068.21504      -195.126          35.253  
G10  21159068.664 5     29885.11503      -297.074          34.628    21158895.680 2     36098.95405      -222.110          33.020  
G18  24733702.509 6         0.00000     -2825.617          26.803    24733551.408 2         0.00000     -2111.119          27.639  
G21  22553626.739 4   -263837.48702      2926.624          40.290           0.000 0         0.00000         0.000           0.000  
G23  23260837.437 5         0.00000     -1703.699          27.824    23260679.460 2         0.00000     -1272.116          27.629  
G27  22754959.255 4    198219.51202     -2169.150          37.874    22754794.368 2         0.00000     -1620.439          28.756  
G28  23647084.658 6         0.00000      3978.696          24.820           0.000 0         0.00000         0.000           0.000  
G32  20554532.081 5    -88640.17905       972.566          30.370    20554354.595 2    -51660.58406       727.037          32.200  
G24         0.000 0         0.00000         0.000           0.000    24513170.671 5         0.00000     -1257.004          23.184  
R10  23920345.173 7         0.00000      1805.318          23.830  
R02  20730721.014 5   -232244.55102      2548.344          37.153  
R01  19705112.422 6         0.00000      -726.066          28.126  
R24  19253448.104 5     13656.95709      -162.244          37.409  
R23  21999121.623 6         0.00000     -3408.274          27.602  
R17  21076021.071 5   -357917.25701      3924.473          45.624  
R08  23152095.236 5    254007.63409     -2756.720          42.922  
E07  23503893.580 4     14301.65702      -144.325          39.353    23503726.303 2         0.00000      -107.407          32.203  
E08  27013431.081 4    173293.81702     -1959.877          37.509    27013267.083 2         0.00000     -1461.185          22.288  
E13  25801212.774 6    150394.41609     -1738.659          25.007    25801048.201 3    107663.23409     -1299.272          23.971  
E19  28627737.619 5   -298312.40107      3452.677          27.657    28627573.621 2   -217637.58509      2578.021          25.005  
E33  25059243.825 4   -255117.26502      2845.704          40.892    25059075.954 2   -181480.92706      2125.065          31.716  
E26         0.000 0         0.00000         0.000           0.000    23163229.208 2    -35392.41306       428.198          31.182  
> 2023 09 07 19 34 08.0004163  0 22
G02  23423757.556 4   -320888.36302      3522.233          40.681           0.000 0         0.00000         0.000           0.000  
G08  22518428.411 4     24716.82303      -260.492          35.675    22518262.320 2     32263.25804      -194.298          34.788  
G10  21159121.137 4     30182.62202      -297.637          37.954    21158951.155 2     36320.98107      -221.782          30.860  
G18  24734230.134 6         0.00000     -2821.445          24.383    24734090.724 2         0.00000     -2115.982          30.009  
G21  22553073.026 4   -266765.35802      2929.745          38.233           0.000 0         0.00000         0.000           0.000  
G23  23261166.618 5         0.00000     -1705.062          27.679    23261002.935 2    118392.10209     -1274.042          27.731  
G24  24513649.732 5         0.00000     -1677.401          30.690    24513487.846 2         0.00000     -1253.517          23.412  
G27  22755370.574 4    200390.21703     -2170.225          36.812    22755206.280 2         0.00000     -1621.088          25.998  
G28  23646328.575 6         0.00000      3981.458          23.401           0.000 0         0.00000         0.000           0.000  
G32  20554346.201 5         0.00000       970.287          30.053    20554169.937 2    -52386.46506       725.491          31.814  
R02  20730226.963 5   -234793.05002      2548.964          38.899  
R01  19705250.034 7         0.00000      -726.310          26.186  
R24  19253478.694 5     13820.73909      -164.627          40.631  
R23  21999779.653 6    310932.68709     -3414.498          29.363  
R17  21075288.965 5   -361843.70501      3928.189          43.887  
R08  23152607.871 5    256763.11009     -2755.053          41.377  
E07  23503921.762 4     14446.33902      -145.195          37.871    23503753.874 2     10682.36305      -108.215          32.377  
E08  27013805.824 4    175252.22102     -1958.007          37.341    27013640.937 2    123929.29309     -1462.529          24.953  
E13  25801544.346 6    152133.97409     -1741.952          25.176    25801379.162 2         0.00000     -1299.502          20.453  
E19  28627078.978 5   -301764.33506      3451.163          28.516    28626916.185 3         0.00000      2579.271          22.491  
E33  25058700.006 4   -257964.45902      2849.158          38.849    25058535.119 2         0.00000      2127.507          31.896  
E26         0.000 0         0.00000         0.000           0.000    23163121.296 2         0.00000       427.283          30.990  
> 2023 09 07 19 34 09.0004163  0 22
G02  23423086.019 4   -324414.83302      3530.103          40.615           0.000 0         0.00000         0.000           0.000  
G08  22518474.864 4     24973.32902      -253.783          38.658    22518311.477 2     32454.60804      -188.845          35.031  
G10  21159176.297 4     30480.73502      -299.750          36.834    21159008.409 2     36543.39506      -222.506          31.973  
G18  24734769.154 6         0.00000     -2824.455          24.505    24734630.966 2         0.00000     -2121.344          26.333  
G21  22552516.312 4   -269699.16201      2936.925          43.259           0.000 0         0.00000         0.000           0.000  
G23  23261484.997 5         0.00000     -1709.876          28.778    23261329.708 2    119668.25608     -1276.806          29.053  
G24  24513966.017 5    150850.47909     -1681.165          31.144    24513807.429 2         0.00000     -1254.183          25.797  
G27  22755782.486 4    202559.69802     -2168.862          37.400    22755620.600 2    163991.10709     -1621.104          25.858  
G28  23645571.602 6         0.00000      3982.333          23.116           0.000 0         0.00000         0.000           0.000  
G32  20554151.352 5    -90584.47409       971.819          32.064    20553983.464 2    -53112.21406       725.913          31.801  
R02  20729766.766 5   -237345.29902      2554.111          37.870  
R01  19705383.441 6     71246.88209      -727.981          30.150  
R24  19253499.670 5     13984.85902      -163.946          37.645  
R23  22000403.830 6    314349.23509     -3418.369          27.937  
R17  21074555.079 5   -365775.51901      3934.255          46.816  
R08  23153124.712 5    259519.36102     -2757.478          40.345  
E08  27014175.455 5    177211.67103     -1960.020          34.701    27014014.476 2         0.00000     -1462.982          23.290  
E19  28626421.227 6         0.00000      3452.906          26.580    28626259.044 2         0.00000      2579.350          22.376  
E26  23163183.052 5    -49681.01805       572.012          31.099    23163012.459 2    -36246.23806       426.905          31.085  
E33  25058158.892 4   -260817.33001      2855.541          42.011    25057991.894 2   -185737.45306      2132.635          31.478  
E07         0.000 0         0.00000         0.000           0.000    23503781.759 2     10790.81604      -108.290          34.358  
E13         0.000 0         0.00000         0.000           0.000    25801710.733 2         0.00000     -1305.534          24.529  
> 2023 09 07 19 34 10.0004163  0 23
G02  23422418.985 4   -327945.39502      3530.878          40.578           0.000 0         0.00000         0.000           0.000  
G08  22518531.228 4     25225.92903      -251.962          36.884    22518359.448 2     32643.33804      -188.391          35.265  
G10  21159233.848 4     30780.29203      -300.694          36.544    21159064.773 2     36767.01305      -224.085          33.390  
G18  24735314.176 5         0.00000     -2839.420          28.642    24735170.282 2         0.00000     -2120.319          24.299  
G21  22551955.392 4   -272636.61001      2937.759          43.305           0.000 0         0.00000         0.000           0.000  
G23  23261814.772 5    160230.24509     -1714.391          30.114    23261654.387 2    120947.16806     -1280.079          31.193  
G24  24514289.788 4         0.00000     -1683.382          35.351    24514129.403 2    111919.03409     -1256.590          24.593  
G27  22756198.604 5    204726.98003     -2166.818          34.799    22756032.216 2         0.00000     -1618.254          32.454  
G28  23644811.627 6         0.00000      3980.273          25.666           0.000 0         0.00000         0.000           0.000  
G32  20553964.268 5    -91555.86409       971.031          30.846    20553798.195 2    -53837.69906       725.504          31.930  
R02  20729282.907 5   -239900.78203      2555.711          36.084  
R01  19705503.655 6     71974.56609      -729.090          28.525  
R24  19253527.258 6     14149.34303      -165.077          34.187  
R23  22001047.795 6    317768.80909     -3420.800          27.286  
R17  21073812.799 5   -369710.28501      3934.523          44.374  
R08  23153636.160 5    262277.28302     -2759.518          37.509  
J03  43921052.971 5         0.00000       708.386          30.522           0.000 0         0.00000         0.000           0.000  
E13  25802207.192 6         0.00000     -1750.278          24.873    25802042.898 2         0.00000     -1307.787          28.548  
E19  28625765.884 6         0.00000      3450.276          22.126           0.000 0         0.00000         0.000           0.000  
E26  23163073.029 6    -50251.77409       567.428          27.154    23162903.343 2    -36672.77107       425.950          30.553  
E33  25057612.369 4   -263673.72702      2856.667          40.614    25057447.185 2         0.00000      2133.376          28.488  
E07         0.000 0         0.00000         0.000           0.000    23503810.238 2     10900.12704      -109.777          34.786  
E08         0.000 0         0.00000         0.000           0.000    27014387.719 2         0.00000     -1465.077          20.639  
> 2023 09 07 19 34 11.0004163  0 22
G02  23421745.057 4   -331477.89601      3533.174          42.634           0.000 0         0.00000         0.000           0.000  
G08  22518572.602 4     25476.45503      -250.085          35.947    22518407.419 2     32830.36404      -186.400          34.218  
G10  21159291.713 4     31080.50703      -300.332          36.207    21159123.231 2     36991.21004      -224.044          34.580  
G18  24735866.703 5         0.00000     -2851.331          31.308    24735713.211 2         0.00000     -2121.750          24.633  
G21  22551397.177 4   -275575.80501      2939.663          42.709           0.000 0         0.00000         0.000           0.000  
G23  23262138.246 5         0.00000     -1717.034          27.061    23261979.659 2    122227.58805     -1280.529          32.761  
G24  24514604.573 5         0.00000     -1683.101          34.977    24514448.690 3    113176.89809     -1260.552          21.777  
G27  22756609.609 4    206892.68303     -2165.357          35.544    22756444.722 2    167227.02604     -1616.610          34.887  
G28  23644052.246 5   -380186.24309      3979.113          30.026           0.000 0         0.00000         0.000           0.000  
G32  20553786.189 5    -92527.33909       971.771          31.808    20553613.519 2    -54563.12506       725.194          31.156  
R02  20728799.344 6   -242458.32903      2557.862          35.252  
R01  19705665.541 7         0.00000      -730.953          26.215  
R24  19253551.846 6     14313.89103      -164.453          33.929  
R23  22001668.046 7         0.00000     -3423.171          24.455  
R17  21073078.598 5   -373646.21801      3936.178          44.212  
R08  23154159.894 6    265036.76003     -2758.721          35.512  
J03  43920915.062 5         0.00000       706.608          30.000    43920755.881 4         0.00000       524.904          20.191  
E13  25802536.670 6         0.00000     -1754.671          23.026    25802376.267 2    112872.98909     -1308.041          26.841  
E26  23162965.692 6         0.00000       570.791          24.066    23162795.117 2    -37099.41907       426.802          30.014  
E33  25057068.847 4   -266531.73302      2858.524          40.001    25056900.959 2   -190004.42009      2134.130          24.297  
E07         0.000 0         0.00000         0.000           0.000    23503837.513 2     11009.81005      -109.743          33.783  
E08         0.000 0         0.00000         0.000           0.000    27014762.148 2    128335.07409     -1464.527          27.170  
> 2023 09 07 19 34 12.0004163  0 22
G02  23421072.910 4   -335011.22301      3532.860          42.917           0.000 0         0.00000         0.000           0.000  
G08  22518618.776 4     25726.01403      -249.930          36.119    22518454.482 2     33016.81005      -186.760          32.828  
G10  21159349.578 4     31381.00603      -300.741          35.630    21159179.595 2     37215.63604      -224.925          34.816  
G18  24736411.132 5         0.00000     -2843.439          30.228    24736254.935 2         0.00000     -2123.678          26.413  
G21  22550833.867 4   -278515.77301      2939.803          42.302           0.000 0         0.00000         0.000           0.000  
G23  23262471.005 5         0.00000     -1715.814          29.488    23262304.634 2    123508.57806     -1281.702          32.231  
G24  24514923.860 5         0.00000     -1679.693          31.127           0.000 0         0.00000         0.000           0.000  
G27  22757020.631 4    209057.28203     -2164.444          36.630    22756856.948 2    168843.51204     -1616.834          35.059  
G28  23643281.487 5   -384165.23709      3978.839          29.257           0.000 0         0.00000         0.000           0.000  
G32  20553596.732 5         0.00000       970.714          31.232    20553428.250 2         0.00000       725.547          29.964  
R02  20728321.783 6   -245016.89203      2558.044          35.233  
R01  19705805.858 7         0.00000      -728.932          23.957  
R24  19253597.408 6     14478.64804      -165.497          33.175  
R23  22002319.201 7         0.00000     -3423.363          21.940  
R17  21072349.214 5   -377582.42501      3935.648          44.152  
R08  23154669.545 6         0.00000     -2759.329          32.585  
J03         0.000 0         0.00000         0.000           0.000    43920621.567 2         0.00000       527.651          23.011  
E08  27015301.482 5    183099.69306     -1964.353          29.744    27015135.094 2         0.00000     -1466.525          26.021  
E13  25802871.836 6         0.00000     -1755.452          23.656    25802707.839 2    114180.44709     -1306.938          25.252  
E33  25056524.418 4   -269390.57102      2858.570          39.952    25056355.325 3   -192139.42209      2135.074          22.846  
E07         0.000 0         0.00000         0.000           0.000    23503864.805 2     11119.52505      -109.971          33.294  
E26         0.000 0         0.00000         0.000           0.000    23162686.000 2    -37526.13408       426.522          29.107  
> 2023 09 07 19 34 13.0004163  0 23
G02  23420399.890 4   -338544.92601      3534.081          42.554           0.000 0         0.00000         0.000           0.000  
G08  22518667.933 4     25975.59603      -249.133          36.931    22518501.248 2     33203.07806      -185.687          31.516  
G10  21159403.237 4     31681.74203      -300.361          36.361    21159236.850 2     37440.15704      -224.234          34.918  
G18  24736948.354 5         0.00000     -2839.654          31.064    24736796.660 2         0.00000     -2123.782          25.873  
G21  22550277.153 4   -281455.92601      2940.559          42.936           0.000 0         0.00000         0.000           0.000  
G23  23262797.795 5    165375.41405     -1715.550          30.681    23262630.500 2    124789.74906     -1280.942          31.265  
G24  24515251.226 5         0.00000     -1686.788          29.621           0.000 0         0.00000         0.000           0.000  
G27  22757433.748 4    211221.56303     -2163.564          36.293    22757269.157 2    170459.59304     -1615.457          34.274  
G28  23642536.503 5   -388143.96206      3980.346          28.763           0.000 0         0.00000         0.000           0.000  
G32  20553413.854 5    -94469.68905       971.287          30.555    20553243.574 2    -56014.14107       725.703          29.902  
R10  23918302.102 7         0.00000      1799.372          25.551  
R02  20727835.812 6   -247575.69603      2559.609          35.174  
R01  19705965.947 7         0.00000      -727.358          23.163  
R24  19253628.278 6     14643.67805      -164.766          30.912  
R17  21071615.014 5   -381518.51301      3936.287          43.965  
R08  23155188.200 6    270553.42809     -2759.909          34.658  
J03  43920651.250 5    -59138.92105       707.844          30.369    43920489.364 2         0.00000       528.378          21.984  
E07  23504063.266 5         0.00000      -146.035          28.501    23503892.987 2     11229.39305      -109.255          32.930  
E08  27015672.631 5    185063.52105     -1963.663          30.580    27015509.245 2         0.00000     -1466.943          25.696  
E13  25803199.795 6         0.00000     -1753.487          25.237    25803042.708 3         0.00000     -1306.045          23.043  
E33  25055981.489 4   -272249.61902      2859.715          40.321    25055810.006 3         0.00000      2135.717          23.703  
E19         0.000 0         0.00000         0.000           0.000    28623628.057 2   -233125.22009      2584.860          25.029  
E26         0.000 0         0.00000         0.000           0.000    23162576.867 2    -37952.84308       427.945          28.929  
> 2023 09 07 19 34 14.0004163  0 23
G02  23419729.540 4   -342078.85701      3532.546          42.564           0.000 0         0.00000         0.000           0.000  
G08  22518715.310 4     26224.97002      -250.112          37.337    22518548.922 2     33389.42206      -187.223          31.111  
G10  21159462.289 4     31982.49602      -301.524          37.340    21159294.104 2     37664.70704      -224.875          34.420  
G18  24737487.985 5    271363.60509     -2843.588          30.484    24737336.290 2    208979.46709     -2123.908          24.146  
G21  22549716.547 4   -284396.28501      2939.269          43.127           0.000 0         0.00000         0.000           0.000  
G23  23263126.662 5    167091.07605     -1716.455          30.632    23262957.569 2    126071.01406     -1281.678          31.000  
G24  24515560.321 6         0.00000     -1687.159          26.528           0.000 0         0.00000         0.000           0.000  
G27  22757843.566 4    213385.40303     -2164.046          36.131    22757680.180 2    172075.46504     -1616.316          34.196  
G28  23641779.826 5   -392123.53707      3979.850          27.984           0.000 0         0.00000         0.000           0.000  
G32  20553228.881 5    -95441.07905       971.039          31.435    20553058.305 2    -56739.43707       724.625          29.965  
R10  23917967.232 7         0.00000      1802.333          25.436  
R02  20727354.937 5   -250134.64903      2558.222          36.036  
R01  19706103.838 7         0.00000      -726.154          23.752  
R24  19253649.270 6     14809.16805      -166.174          30.272  
R17  21070885.612 5   -385454.46001      3934.569          43.444  
R08  23155702.336 5    273313.45209     -2760.766          37.783  
J03  43920513.952 5         0.00000       708.477          27.641    43920354.753 2         0.00000       527.788          20.597  
E07  23504093.246 5     15326.33207      -148.021          28.242    23503920.558 2     11339.36405      -110.471          32.641  
E08  27016045.874 5    187027.34205     -1964.625          30.520    27015882.487 3    132734.53209     -1467.028          23.904  
E13  25803541.872 6         0.00000     -1750.379          24.135    25803374.280 2         0.00000     -1305.979          20.796  
E33  25055436.763 4   -275108.92202      2858.308          40.299    25055267.985 4         0.00000      2135.244          24.319  
E19         0.000 0         0.00000         0.000           0.000    28622968.526 2         0.00000      2584.890          25.741  
E26         0.000 0         0.00000         0.000           0.000    23162468.344 2         0.00000       425.955          29.535  
> 2023 09 07 19 34 15.0004163  0 22
G02  23419055.316 4   -345609.57501      3528.482          42.514           0.000 0         0.00000         0.000           0.000  
G08  22518758.168 4     26476.58503      -253.137          36.538    22518596.893 2     33577.26707      -189.249          30.810  
G10  21159517.152 4     32283.91802      -301.573          37.673    21159351.375 2     37889.80504      -225.038          34.069  
G18  24738029.099 5    274204.48409     -2838.682          31.968    24737878.015 2         0.00000     -2119.593          25.120  
G21  22549153.830 4   -287333.61201      2935.177          43.244           0.000 0         0.00000         0.000           0.000  
G23  23263453.731 5    168806.16009     -1715.854          28.302    23263283.452 2         0.00000     -1279.871          31.562  
G27  22758256.072 4    215548.90503     -2163.055          35.676    22758091.796 2    173691.04604     -1615.434          34.096  
G28  23641015.646 5         0.00000      3986.100          28.316           0.000 0         0.00000         0.000           0.000  
G32  20553039.721 5    -96411.88205       970.797          30.648    20552873.926 2         0.00000       725.133          31.045  
R10  23917626.970 7         0.00000      1804.374          22.391  
R02  20726876.766 5   -252692.18803      2556.399          36.428  
R01  19706239.950 7         0.00000      -725.961          24.138  
R24  19253681.640 6         0.00000      -173.741          27.142  
R17  21070143.035 5   -389386.93901      3930.205          43.602  
R08  23156217.676 5    276074.91302     -2761.167          37.415  
J03  43920388.328 6         0.00000       704.035          25.022           0.000 0         0.00000         0.000           0.000  
E07  23504118.130 5     15474.10107      -147.878          27.667    23503949.037 2     11449.68805      -110.396          32.498  
E08  27016418.506 5    188992.17806     -1965.152          29.014    27016256.027 3         0.00000     -1466.886          22.197  
E13  25803870.442 6    164411.26809     -1746.953          25.657    25803707.649 2         0.00000     -1304.919          20.537  
E33  25054894.149 4   -277965.28402      2854.215          40.269    25054724.166 3   -198542.54909      2131.636          24.019  
E19         0.000 0         0.00000         0.000           0.000    28622310.182 2   -238295.64009      2585.588          26.867  
E26         0.000 0         0.00000         0.000           0.000    23162359.228 2    -38805.73008       426.375          29.492  
> 2023 09 07 19 34 16.0004163  0 21
G02  23418384.983 4   -349135.76201      3523.694          42.764           0.000 0         0.00000         0.000           0.000  
G08  22518811.234 4     26731.33503      -257.521          35.690    22518645.457 2     33767.48406      -191.577          31.767  
G10  21159576.221 4     32584.76402      -300.716          37.648    21159408.333 2     38114.54404      -224.594          34.523  
G18  24738571.731 5    277039.63609     -2833.139          33.882    24738417.035 2         0.00000     -2114.974          24.719  
G21  22548597.709 3   -290266.89901      2931.099          44.076           0.000 0         0.00000         0.000           0.000  
G23  23263777.502 5    170518.41404     -1710.023          31.647    23263609.631 2    128630.25106     -1277.723          31.570  
G24  24516212.663 5         0.00000     -1686.726          30.007           0.000 0         0.00000         0.000           0.000  
G27  22758666.798 4    217711.95803     -2164.037          35.820    22758502.801 2    175306.49004     -1616.395          34.510  
G28  23640259.284 5   -400094.29609      3988.980          30.651           0.000 0         0.00000         0.000           0.000  
G32  20552859.233 5         0.00000       972.454          27.568    20552688.064 2    -58189.80906       724.923          32.209  
R10  23917295.992 6         0.00000      1802.664          27.251  
R02  20726405.802 5   -255247.52703      2553.102          36.510  
R01  19706374.561 7         0.00000      -728.390          25.291  
R24  19253752.401 7         0.00000      -170.694          24.284  
R17  21069417.543 5   -393315.09901      3925.580          43.367  
E07  23504144.811 5     15621.18405      -146.903          30.127    23503977.516 2     11559.67105      -110.025          32.454  
E08  27016791.748 5    190956.67506     -1963.819          29.640    27016629.863 2    135668.70409     -1466.427          23.134  
E33  25054350.923 4   -280817.87202      2850.175          40.739    25054182.442 2         0.00000      2128.679          26.429  
E13         0.000 0         0.00000         0.000           0.000    25804039.814 2         0.00000     -1301.383          23.345  
E19         0.000 0         0.00000         0.000           0.000    28621651.227 2         0.00000      2584.893          27.883  
E26         0.000 0         0.00000         0.000           0.000    23162250.687 2    -39232.50507       426.588          30.763  
> 2023 09 07 19 34 17.0004163  0 23
G02  23417717.338 4   -352656.65902      3517.746          40.643           0.000 0         0.00000         0.000           0.000  
G08  22518859.798 4     26991.83803      -264.895          36.410    22518695.818 2     33961.96204      -197.600          35.130  
G10  21159634.680 4     32883.93602      -296.273          37.248    21159466.198 2     38338.10304      -221.379          35.251  
G18  24739107.452 5    279869.21409     -2825.861          32.823    24738955.758 2    215331.30009     -2111.206          25.003  
G21  22548043.106 3   -293195.18001      2925.380          43.664           0.000 0         0.00000         0.000           0.000  
G23  23264106.073 5         0.00000     -1708.366          29.494    23263936.701 2    129905.39706     -1271.015          32.187  
G24  24516532.246 5    164332.70309     -1681.315          32.916    24516375.456 5         0.00000     -1258.456          20.944  
G27  22759081.397 4    219878.03803     -2168.450          36.559    22758915.324 2         0.00000     -1621.545          32.393  
G28  23639498.106 5         0.00000      3995.818          29.444           0.000 0         0.00000         0.000           0.000  
G32  20552676.669 5         0.00000       970.938          29.425    20552504.278 2    -58914.72705       725.366          32.332  
R10  23916950.024 7         0.00000      1802.174          27.442  
R02  20725930.022 6   -257798.27203      2546.830          35.392  
R01  19706504.670 6         0.00000      -731.983          27.530  
R24  19253739.209 6         0.00000      -169.111          29.661  
R23  22005553.058 7         0.00000     -3410.609          24.112  
R17  21068670.446 5   -397238.55801      3921.109          45.061  
R08  23157247.465 6         0.00000     -2759.960          34.414  
E07  23504171.493 5     15767.68903      -144.825          34.715    23504004.808 2     11669.08505      -108.316          32.826  
E08  27017165.584 5         0.00000     -1961.889          31.899    27017004.309 2         0.00000     -1464.767          23.285  
E13  25804529.676 6         0.00000     -1737.156          26.331    25804371.089 2         0.00000     -1297.418          26.199  
E19  28621147.579 6   -332882.89508      3455.614          26.481    28620991.382 3         0.00000      2585.824          23.604  
E33  25053811.293 4   -283665.86602      2845.403          41.362    25053639.216 2   -202799.63309      2124.946          24.125  
E26         0.000 0         0.00000         0.000           0.000    23162142.775 2         0.00000       427.075          30.478  
> 2023 09 07 19 34 18.0004163  0 24
G02  23417042.503 4   -356172.32102      3513.665          40.793           0.000 0         0.00000         0.000           0.000  
G08  22518913.161 4     27258.86803      -268.644          36.686    22518746.790 2     34161.57304      -201.059          36.187  
G10  21159691.637 4     33180.17302      -297.262          37.325    21159522.248 2     38559.55505      -221.089          33.594  
G18  24739641.988 5         0.00000     -2817.806          29.697    24739493.591 2    217439.13409     -2105.607          27.883  
G21  22547483.687 4   -296118.74002      2921.068          39.327           0.000 0         0.00000         0.000           0.000  
G23  23264432.252 5         0.00000     -1702.163          29.341    23264260.472 2         0.00000     -1268.907          30.401  
G27  22759495.718 4    222048.02602     -2170.820          37.985    22759328.737 2         0.00000     -1622.327          28.273  
G28  23638741.429 5   -408081.13309      3999.772          29.313           0.000 0         0.00000         0.000           0.000  
G32  20552492.290 5         0.00000       968.749          30.815    20552320.510 2    -59639.53005       724.202          32.709  
G24         0.000 0         0.00000         0.000           0.000    24516691.741 2    121977.42909     -1255.294          25.235  
R10  23916603.463 6         0.00000      1807.495          29.685  
R02  20725441.974 5   -260343.26303      2543.488          36.564  
R01  19706637.466 6         0.00000      -736.453          27.881  
R24  19253783.271 5         0.00000      -164.152          39.090  
R23  22006170.638 6         0.00000     -3405.101          28.904  
R17  21067935.059 5   -401157.83301      3917.596          44.111  
R08  23157761.008 5    284345.99802     -2753.364          38.810  
J03  43919992.016 6         0.00000       696.163          20.065           0.000 0         0.00000         0.000           0.000  
E13  25804860.951 6         0.00000     -1731.985          26.012    25804702.364 2         0.00000     -1294.329          26.499  
E19  28620488.030 6   -336335.31208      3444.701          26.372    28620334.835 3         0.00000      2578.091          22.901  
E26  23162209.923 5    -54818.86505       570.872          30.927    23162033.345 2         0.00000       426.295          31.216  
E33  25053266.863 4   -286509.55402      2841.939          39.530    25053103.477 2   -204923.24007      2122.576          29.712  
E07         0.000 0         0.00000         0.000           0.000    23504032.676 2     11776.91505      -108.500          32.467  
E08         0.000 0         0.00000         0.000           0.000    27017376.645 2         0.00000     -1461.023          24.093  
> 2023 09 07 19 34 19.0004163  0 23
G02  23416377.266 4   -359685.22102      3511.748          41.255           0.000 0         0.00000         0.000           0.000  
G08  22518963.836 4     27527.67703      -268.538          36.058    22518798.949 2     34362.27604      -200.031          35.596  
G10  21159751.596 4     33478.13302      -299.724          38.195    21159578.019 2     38782.02805      -223.826          32.466  
G18  24740189.104 6         0.00000     -2810.196          26.285    24740029.313 2         0.00000     -2106.987          29.863  
G21  22546935.663 4   -299039.67603      2920.143          36.448           0.000 0         0.00000         0.000           0.000  
G23  23264749.130 5         0.00000     -1700.152          30.731    23264583.947 2         0.00000     -1270.906          32.862  
G24  24517169.005 5    167699.80804     -1687.292          33.775    24517011.918 2    123234.00309     -1257.728          23.580  
G28  23637981.158 5   -412077.33805      3999.396          30.228           0.000 0         0.00000         0.000           0.000  
G32  20552305.521 5         0.00000       969.792          30.318    20552136.131 2    -60363.60606       723.932          32.306  
G27         0.000 0         0.00000         0.000           0.000    22759743.040 2         0.00000     -1619.200          24.085  
R10  23916263.811 6   -186356.90509      1804.017          30.733  
R02  20724972.197 5   -262886.89903      2544.244          36.954  
R01  19706771.484 6     78553.41409      -736.215          30.484  
R24  19253809.062 5     15690.16409      -169.728          39.221  
R23  22006790.313 7         0.00000     -3397.604          25.324  
R17  21067213.772 5   -405073.86201      3914.382          43.061  
R08  23158280.850 5    287100.49002     -2757.861          40.056  
E13  25805192.820 6         0.00000     -1728.577          24.166    25805030.341 2    123326.72807     -1292.555          29.706  
E19  28619835.689 5         0.00000      3451.281          28.825    28619680.993 3   -248615.11509      2582.764          22.878  
E26  23162098.992 5    -55389.52605       570.316          31.382    23161926.026 2    -40512.13806       426.246          31.411  
E07         0.000 0         0.00000         0.000           0.000    23504060.858 2     11885.78505      -109.389          33.180  
E08         0.000 0         0.00000         0.000           0.000    27017750.481 2    140058.76409     -1464.566          28.478  
E33         0.000 0         0.00000         0.000           0.000    25052561.456 2   -207044.73407      2120.699          29.787  
> 2023 09 07 19 34 20.0004163  0 23
G02  23415707.230 4   -363195.55202      3508.118          39.373           0.000 0         0.00000         0.000           0.000  
G08  22519016.292 4     27795.45703      -268.019          35.365    22518849.607 2     34562.27703      -200.064          37.324  
G10  21159804.959 4     33778.86902      -302.519          38.927    21159634.383 2     39006.60007      -226.007          30.869  
G18  24740717.636 5         0.00000     -2812.109          28.003    24740566.552 2         0.00000     -2104.494          31.021  
G21  22546377.448 4   -301958.24803      2917.102          35.675           0.000 0         0.00000         0.000           0.000  
G23  23265076.217 5         0.00000     -1707.994          29.145    23264906.531 2    133706.72306     -1273.042          32.104  
G24  24517490.385 5         0.00000     -1689.143          30.914    24517333.298 2    124496.03609     -1262.294          24.695  
G27  22760318.653 5    226383.40709     -2163.474          33.928    22760153.155 2    181796.66909     -1616.071          24.248  
G28  23637213.087 5         0.00000      4005.710          28.529           0.000 0         0.00000         0.000           0.000  
G32  20552122.049 5   -101272.83009       970.625          32.937    20551950.862 2    -61088.04706       724.543          32.293  
R10  23915913.952 6   -188155.80209      1797.231          28.988  
R02  20724488.023 5   -265432.48602      2545.875          37.240  
R01  19706917.786 6     79291.62209      -740.811          30.377  
R24  19253848.936 5     15859.09109      -169.137          39.186  
R23  22007412.082 7         0.00000     -3397.680          27.020  
R17  21066484.964 5   -408986.51001      3910.191          43.005  
R08  23158798.301 5    289860.02202     -2762.432          38.920  
E07  23504253.927 4     16205.31502      -148.442          37.265    23504088.447 2     11995.90504      -110.629          34.151  
E13  25805521.704 6         0.00000     -1726.279          23.521    25805361.005 2    124618.43008     -1290.779          28.884  
E19  28619180.643 5         0.00000      3458.271          27.121    28619020.851 2   -251199.49809      2586.762          22.634  
E26  23161987.468 5    -55960.34604       570.677          33.918    23161816.299 2    -40938.31806       425.790          32.143  
E33  25052189.714 4   -292189.22703      2836.540          37.234    25052022.139 2   -209164.51706      2118.202          31.244  
E08         0.000 0         0.00000         0.000           0.000    27018122.833 2         0.00000     -1467.187          26.589  
> 2023 09 07 19 34 21.0004163  0 23
G02  23415040.492 4   -366701.71302      3503.817          40.846           0.000 0         0.00000         0.000           0.000  
G08  22519063.966 5     28063.88603      -269.524          34.886    22518899.968 2     34762.62803      -201.179          38.226  
G10  21159865.808 4     34082.69402      -305.226          40.549    21159692.841 2     39233.39406      -227.899          30.892  
G18  24741267.772 6         0.00000     -2813.659          25.007    24741103.182 2    223753.97407     -2100.303          29.895  
G21  22545819.843 4   -304872.90703      2912.684          35.593           0.000 0         0.00000         0.000           0.000  
G23  23265406.882 6         0.00000     -1710.176          26.211    23265231.507 2    134980.06909     -1273.523          28.058  
G24  24517827.942 5         0.00000     -1703.997          28.380    24517655.272 2         0.00000     -1264.896          20.793  
G27  22760729.658 4    228544.97209     -2160.860          37.874    22760562.677 2         0.00000     -1613.493          28.845  
G28  23636458.208 6         0.00000      4020.668          25.574           0.000 0         0.00000         0.000           0.000  
G32  20551939.171 5   -102242.63109       969.325          31.801    20551765.297 2         0.00000       723.763          30.890  
R10  23915556.903 7         0.00000      1791.318          25.263  
R02  20724020.061 5   -267978.50203      2545.589          36.884  
R01  19707052.380 6     80033.63909      -743.630          30.832  
R24  19253865.426 5     16027.94802      -169.523          38.313  
R23  22008071.316 6         0.00000     -3396.395          29.074  
R17  21065749.577 5   -412894.16501      3904.806          42.223  
R08  23159311.826 5    292625.32503     -2767.948          36.032  
E07  23504284.814 4     16354.69802      -150.816          37.599    23504116.926 2     12107.49305      -112.515          33.401  
E13  25805852.368 6    174823.28908     -1725.423          26.457    25805689.575 2    125907.78409     -1287.476          24.882  
E19  28618524.096 5         0.00000      3451.072          27.226    28618361.006 2   -253787.45909      2589.450          21.311  
E26  23161886.449 5    -56530.52004       569.194          32.294    23161707.776 2    -41364.04506       424.758          31.638  
E33  25051648.286 4   -295024.04602      2832.830          37.554    25051482.806 2   -211281.42606      2115.471          31.813  
E08         0.000 0         0.00000         0.000           0.000    27018496.669 2         0.00000     -1471.680          24.965  
> 2023 09 07 19 34 22.0004163  0 23
G02  23414376.459 4   -370204.48701      3501.503          41.743           0.000 0         0.00000         0.000           0.000  
G08  22519116.735 5     28333.22903      -270.045          34.898    22518949.736 2     34963.69103      -200.937          37.323  
G10  21159923.673 4     34388.54702      -307.028          38.582    21159753.097 2     39461.57505      -228.620          32.730  
G18  24741804.994 6         0.00000     -2813.627          26.209    24741637.106 4         0.00000     -2098.598          26.567  
G21  22545266.131 4   -307784.53902      2910.501          38.423           0.000 0         0.00000         0.000           0.000  
G23  23265722.556 5         0.00000     -1706.097          28.154    23265557.372 2    136252.93209     -1269.924          25.146  
G27  22761137.679 4    230704.55409     -2158.276          39.451    22760976.090 2    185023.44008     -1612.011          29.269  
G28  23635722.210 6         0.00000      4013.259          23.841           0.000 0         0.00000         0.000           0.000  
G32  20551758.107 5   -103211.55709       966.726          30.977    20551582.122 2    -62536.20306       724.319          31.614  
G24         0.000 0         0.00000         0.000           0.000    24517976.950 2         0.00000     -1266.106          22.029  
R10  23915218.735 7         0.00000      1792.101          22.445  
R02  20723541.890 5   -270524.16002      2546.038          37.614  
R01  19707185.193 6     80778.31509      -744.805          30.428  
R24  19253902.892 5     16196.99003      -168.430          36.710  
R23  22008693.696 6    358723.80009     -3389.708          27.811  
R17  21065022.583 5   -416797.99101      3902.394          45.056  
R08  23159834.984 6         0.00000     -2772.424          32.390  
E13  25806184.236 6         0.00000     -1722.524          23.940    25806017.552 3         0.00000     -1285.906          24.045  
E19  28617857.061 5   -350149.93207      3469.947          28.009    28617700.864 2   -256377.33109      2590.883          23.274  
E33  25051110.767 4   -297855.69702      2830.174          38.617    25050942.878 2   -213396.00806      2113.962          32.122  
E07         0.000 0         0.00000         0.000           0.000    23504146.312 2     12219.90805      -112.368          33.777  
E08         0.000 0         0.00000         0.000           0.000    27018872.617 2         0.00000     -1474.127          20.296  
E26         0.000 0         0.00000         0.000           0.000    23161600.143 2         0.00000       425.889          31.143  
> 2023 09 07 19 34 23.0004163  0 21
G02  23413708.220 4   -373704.23901      3499.112          42.340           0.000 0         0.00000         0.000           0.000  
G08  22519167.986 5     28602.98903      -269.437          34.891    22519002.209 2     35165.31203      -202.153          37.794  
G10  21159978.833 4     34695.02703      -307.298          36.583    21159810.351 2     39690.46505      -229.108          33.248  
G18  24742332.619 5         0.00000     -2805.924          28.671    24742172.531 2         0.00000     -2096.805          26.848  
G21  22544714.198 4   -310693.44302      2907.828          38.564           0.000 0         0.00000         0.000           0.000  
G23  23266051.737 6         0.00000     -1701.579          26.108    23265884.442 3         0.00000     -1273.978          23.631  
G24  24518461.717 5         0.00000     -1701.780          27.087    24518300.128 2    128293.40009     -1269.994          20.663  
G27  22761555.297 4    232861.38209     -2156.138          39.727    22761385.908 2         0.00000     -1610.699          28.484  
G28  23634957.140 6         0.00000      4023.611          22.273           0.000 0         0.00000         0.000           0.000  
G32  20551568.633 5         0.00000       970.239          28.100    20551398.057 2    -63260.65306       724.189          31.779  
R02  20723060.717 5   -273069.96402      2545.567          38.661  
R01  19707325.790 6     81525.14309      -747.568          30.767  
R24  19253933.761 5     16365.33003      -168.878          35.819  
R23  22009322.060 6    362111.76809     -3387.428          30.043  
R17  21064292.885 5   -420698.43201      3899.440          46.256  
R08  23160331.722 6         0.00000     -2771.352          29.615  
E13  25806513.714 6         0.00000     -1719.690          24.086    25806343.435 2    128479.66809     -1284.040          24.978  
E19  28617196.309 5   -353620.98507      3471.501          27.761    28617039.518 2   -258969.44108      2592.883          25.595  
E33  25050572.637 4   -300684.88102      2828.540          38.079    25050404.749 2   -215508.70906      2112.408          31.582  
E07         0.000 0         0.00000         0.000           0.000    23504174.180 2     12332.43204      -112.573          34.570  
E26         0.000 0         0.00000         0.000           0.000    23161493.121 2    -42215.44506       425.731          31.056  
> 2023 09 07 19 34 24.0004163  0 20
G02  23413043.576 4   -377203.25701      3498.942          42.097           0.000 0         0.00000         0.000           0.000  
G08  22519218.958 5     28873.56903      -270.243          34.827    22519053.478 2     35367.25003      -201.932          38.057  
G10  21160031.899 5     35001.58403      -306.542          34.916    21159868.513 2     39919.40705      -228.778          33.370  
G18  24742857.557 5    299564.69309     -2805.462          30.236    24742707.363 2    230046.73009     -2095.424          26.576  
G21  22544158.984 4   -313601.80602      2908.295          37.520           0.000 0         0.00000         0.000           0.000  
G23  23266364.724 6         0.00000     -1707.207          26.772    23266208.527 3         0.00000     -1274.333          22.474  
G27  22761966.913 4    235017.67209     -2155.272          37.696    22761798.117 2    188244.26607     -1609.506          30.771  
G32  20551377.361 6         0.00000       967.817          24.118    20551212.177 2    -63985.24206       724.828          30.917  
G24         0.000 0         0.00000         0.000           0.000    24518625.696 2         0.00000     -1270.912          23.489  
R02  20722579.248 5   -275615.73802      2545.842          37.558  
R01  19707456.195 6     82272.49609      -747.550          31.570  
R24  19253969.744 6     16533.79003      -167.945          35.537  
R23  22009972.901 6    365498.56609     -3385.728          32.051  
R17  21063558.684 5   -424597.80901      3899.196          46.077  
R08  23160869.851 6    300930.06009     -2769.309          29.581  
E13  25806846.786 6         0.00000     -1717.041          23.990    25806672.005 2    129763.16809     -1282.717          26.245  
E19  28616532.869 5   -357093.05407      3472.604          27.489    28616377.876 2   -261562.21209      2593.830          27.436  
E26  23161550.986 5    -58241.18804       571.004          34.051    23161384.301 2    -42641.49307       426.382          30.662  
E33  25050032.413 4   -303513.38802      2828.655          38.070    25049866.322 2   -217620.83506      2112.262          31.586  
E07         0.000 0         0.00000         0.000           0.000    23504203.566 2     12445.02304      -112.323          34.346  
> 2023 09 07 19 34 25.0004163  0 22
G02  23412378.636 4   -380702.19001      3498.921          42.354           0.000 0         0.00000         0.000           0.000  
G08  22519272.024 5     29144.11203      -271.273          34.279    22519104.433 2     35569.21803      -202.126          37.493  
G10  21160094.266 5     35307.96503      -306.785          34.949    21159926.674 2     40148.18805      -228.979          33.879  
G18  24743389.998 5    302370.15205     -2805.747          31.060    24743240.397 2         0.00000     -2095.217          26.229  
G21  22543606.179 4   -316509.96302      2908.248          38.635           0.000 0         0.00000         0.000           0.000  
G23  23266676.507 6         0.00000     -1708.297          26.194    23266533.799 2         0.00000     -1273.753          22.378  
G24  24519104.164 5    177910.67806     -1703.425          29.813    24518949.171 2         0.00000     -1271.535          22.994  
G27  22762374.027 4    237173.78602     -2155.821          37.908    22762208.546 2    189853.95406     -1609.805          31.536  
G28  23633430.909 5         0.00000      4019.795          27.505           0.000 0         0.00000         0.000           0.000  
G32  20551195.983 6         0.00000       967.744          26.357    20551027.798 2         0.00000       724.382          30.608  
R02  20722102.875 5   -278161.67702      2545.712          37.583  
R01  19707597.716 6     83019.94309      -747.964          32.611  
R24  19254012.619 6     16702.40903      -169.325          35.139  
R23  22010608.176 6    368884.48109     -3386.162          31.428  
R17  21062827.799 5   -428496.71301      3898.487          46.044  
R08  23161368.718 6    303699.56209     -2765.404          28.211  
E08  27020160.827 6         0.00000     -1971.645          24.936           0.000 0         0.00000         0.000           0.000  
E13  25807167.556 6         0.00000     -1718.519          22.126    25806999.371 2         0.00000     -1282.927          26.347  
E19  28615866.427 5   -360566.10807      3472.797          27.818    28615717.437 2   -264155.66009      2593.555          27.557  
E33  25049493.079 4   -306341.80502      2828.176          38.872    25049328.803 2   -219732.98306      2112.244          31.753  
E07         0.000 0         0.00000         0.000           0.000    23504232.045 2     12557.43704      -112.502          34.278  
E26         0.000 0         0.00000         0.000           0.000    23161275.168 2    -43067.69107       425.739          30.488  
> 2023 09 07 19 34 26.0004163  0 22
G02  23411711.601 4   -384201.66101      3500.946          41.771           0.000 0         0.00000         0.000           0.000  
G08  22519321.182 5     29414.96903      -270.896          34.733    22519156.295 2     35771.56003      -202.337          36.987  
G10  21160156.319 5     35614.28403      -305.550          35.156    21159985.132 2     40376.95505      -228.553          32.918  
G18  24743926.923 5    305176.73204     -2808.329          32.230    24743773.728 2    234237.60009     -2097.342          26.117  
G21  22543053.652 4   -319418.54302      2910.329          37.979           0.000 0         0.00000         0.000           0.000  
G23  23267008.375 6         0.00000     -1702.972          26.787    23266858.775 2         0.00000     -1273.007          21.629  
G24  24519424.044 5    179613.57505     -1701.803          29.897    24519273.239 2         0.00000     -1271.367          22.799  
G27  22762775.748 4    239330.29003     -2157.278          35.837    22762618.347 2    191464.35907     -1611.286          29.739  
G28  23632672.732 6         0.00000      4014.714          24.573           0.000 0         0.00000         0.000           0.000  
G32  20551014.623 6         0.00000       971.473          25.837    20550844.937 2    -65433.98306       723.993          31.979  
R02  20721625.315 5   -280707.09502      2545.383          38.343  
R01  19707740.407 6     83767.34709      -747.306          33.423  
R24  19254042.895 5     16872.15303      -170.513          36.940  
R23  22011243.120 6    372271.80009     -3389.571          31.133  
R17  21062107.402 5   -432395.87301      3900.400          46.216  
R08  23161886.745 6    306467.98309     -2766.580          29.612  
E07  23504429.302 5     17108.16604      -150.575          32.449    23504260.524 2     12670.07504      -112.531          34.234  
E08  27020541.852 6         0.00000     -1972.548          22.607           0.000 0         0.00000         0.000           0.000  
E19  28615205.989 5   -364038.43407      3471.329          28.186    28615055.795 2         0.00000      2591.665          27.229  
E33  25048956.154 4   -309170.72902      2829.942          39.499    25048790.062 2   -221845.49006      2113.423          32.180  
E13         0.000 0         0.00000         0.000           0.000    25807327.348 2         0.00000     -1284.838          25.544  
E26         0.000 0         0.00000         0.000           0.000    23161167.552 2    -43493.51907       425.540          30.142  
> 2023 09 07 19 34 27.0004163  0 22
G02  23411045.456 4   -387704.39602      3503.432          40.525           0.000 0         0.00000         0.000           0.000  
G08  22519374.248 4     29685.46302      -271.216          38.688    22519207.860 2     35973.49603      -202.589          37.604  
G10  21160210.572 5     35919.76703      -306.290          33.840    21160042.387 2     40604.92806      -227.909          31.763  
G18  24744462.959 5    307986.65704     -2811.973          32.454    24744306.466 2    236335.88809     -2099.019          24.607  
G21  22542494.547 4   -322329.87702      2911.429          39.043           0.000 0         0.00000         0.000           0.000  
G23  23267345.042 5         0.00000     -1703.367          28.510    23267183.157 2    142625.72208     -1273.722          26.384  
G24  24519755.615 5    181314.38704     -1700.347          32.332    24519597.324 2         0.00000     -1271.027          24.312  
G27  22763190.051 5    241488.49503     -2159.780          34.848    22763030.574 2         0.00000     -1613.082          28.160  
G28  23631913.054 6         0.00000      4014.867          22.989           0.000 0         0.00000         0.000           0.000  
G32  20550832.338 5         0.00000       971.767          27.132    20550660.262 2    -66157.52305       722.756          32.971  
R02  20721148.348 5   -283252.46102      2544.621          39.714  
R01  19707887.006 6     84513.11109      -745.912          33.239  
R24  19254075.282 5     17043.30502      -172.703          38.853  
R23  22011888.586 6    375662.97009     -3394.086          30.516  
R17  21061381.909 5   -436297.76901      3902.062          46.960  
R08  23162408.385 5    309234.31009     -2766.259          35.570  
E07  23504458.688 5     17258.73204      -150.914          33.867    23504289.299 2     12782.56204      -113.408          35.016  
E08  27020916.892 5         0.00000     -1969.820          27.056           0.000 0         0.00000         0.000           0.000  
E19  28614554.538 5   -367508.87905      3469.229          30.062    28614396.857 2   -269340.12309      2590.206          26.083  
E26  23161228.104 5         0.00000       568.700          33.454    23161058.419 2    -43919.11906       424.763          31.327  
E33  25048415.930 4   -312002.44102      2832.056          39.731    25048251.043 2   -223960.03805      2115.012          32.938  
E13         0.000 0         0.00000         0.000           0.000    25807654.417 3         0.00000     -1286.946          22.176  
> 2023 09 07 19 34 28.0004163  0 21
G02  23410377.811 4   -391209.26302      3505.809          40.478           0.000 0         0.00000         0.000           0.000  
G08  22519429.408 4     29956.09002      -269.827          38.544    22519260.630 2     36175.48803      -201.145          37.955  
G10  21160269.641 5         0.00000      -304.137          34.826    21160099.658 2     40833.02406      -227.024          31.828  
G18  24745000.775 5         0.00000     -2811.928          29.732    24744842.484 2         0.00000     -2103.807          21.468  
G21  22541944.115 4   -325242.89001      2913.854          42.674           0.000 0         0.00000         0.000           0.000  
G23  23267676.614 5         0.00000     -1707.301          28.145    23267507.818 2         0.00000     -1274.404          25.712  
G24  24520078.497 5    183014.63504     -1700.529          33.387    24519921.707 2    134673.26109     -1268.937          24.246  
G27  22763601.667 4    243648.98303     -2158.989          35.731    22763441.282 2         0.00000     -1612.818          28.801  
G32  20550649.163 5         0.00000       966.791          29.375    20550476.197 2    -66879.86105       723.091          33.107  
R02  20720681.555 5   -285797.16102      2545.912          39.364  
R01  19708024.304 6     85258.32009      -744.533          31.504  
R24  19254100.760 5     17216.59102      -172.321          39.377  
R23  22012524.437 6         0.00000     -3397.377          29.358  
R17  21060645.615 5   -440201.42201      3904.614          47.689  
R08  23162928.523 6    311999.76609     -2765.919          35.185  
E07  23504486.574 5     17410.06603      -149.764          35.025    23504318.388 2     12895.44104      -111.975          34.898  
E08  27021285.336 5    214583.04906     -1969.016          29.713           0.000 0         0.00000         0.000           0.000  
E13  25808145.780 5    186837.40107     -1725.271          27.994    25807982.394 2         0.00000     -1288.567          21.922  
E19  28613895.007 5   -370977.07603      3468.458          34.338    28613736.716 2         0.00000      2589.973          26.212  
E33  25047878.707 4   -314835.95901      2834.778          42.223    25047712.023 2   -226075.98506      2116.767          32.090  
E26         0.000 0         0.00000         0.000           0.000    23160949.896 2    -44343.77206       425.553          31.045  
> 2023 09 07 19 34 29.0004163  0 22
G02  23409709.887 4   -394715.01801      3505.189          41.828           0.000 0         0.00000         0.000           0.000  
G08  22519479.473 4     30225.66902      -269.901          38.126    22519310.694 2     36376.90604      -201.842          36.711  
G10  21160330.786 5         0.00000      -304.815          32.633    21160158.413 2     41060.72606      -227.939          32.251  
G18  24745544.000 5         0.00000     -2814.877          28.398    24745378.520 2         0.00000     -2100.897          21.316  
G21  22541391.606 3   -328156.78401      2913.244          44.422           0.000 0         0.00000         0.000           0.000  
G23  23268016.876 6         0.00000     -1710.994          25.232    23267830.106 2    145174.21509     -1275.349          26.515  
G24  24520401.657 5    184715.69304     -1701.767          32.399    24520245.478 2         0.00000     -1270.570          25.490  
G27  22764015.691 4    245808.34902     -2158.494          38.639    22763851.397 2         0.00000     -1609.685          27.750  
G32  20550462.690 5   -109976.42609       966.834          31.762    20550290.910 2    -67602.92205       722.483          32.440  
R10  23912924.416 7         0.00000      1786.379          26.915  
R02  20720189.912 5   -288342.94403      2545.724          36.464  
R01  19708171.200 6         0.00000      -744.180          29.231  
R24  19254113.638 5     17389.48702      -174.416          37.167  
R23  22013142.018 6         0.00000     -3395.738          27.574  
R17  21059918.918 5   -444105.52801      3903.470          46.392  
R08  23163453.164 6    314765.32109     -2766.363          35.514  
E07  23504518.054 5     17560.66203      -151.129          35.065    23504347.164 2     13008.01104      -112.981          34.663  
E13  25808477.055 6    188562.62008     -1723.771          26.667    25808310.667 2         0.00000     -1287.987          27.704  
E33  25047341.171 4   -317670.43601      2833.913          42.585    25047172.096 2         0.00000      2115.929          28.892  
E08         0.000 0         0.00000         0.000           0.000    27021496.990 3         0.00000     -1470.745          23.182  
E19         0.000 0         0.00000         0.000           0.000    28613076.574 3         0.00000      2591.382          21.860  
E26         0.000 0         0.00000         0.000           0.000    23160840.762 2    -44769.10006       424.836          31.121  
> 2023 09 07 19 34 30.0004163  0 21
G02  23409045.243 4   -398220.24702      3504.726          41.230           0.000 0         0.00000         0.000           0.000  
G08  22519532.539 4     30495.97702      -269.822          40.113    22519361.352 2     36578.70804      -201.762          35.306  
G10  21160389.262 5     36835.87909      -306.928          32.905    21160217.779 2     41288.95506      -228.815          32.319  
G18  24746072.236 5    316428.07109     -2813.861          29.950    24745913.648 4         0.00000     -2101.866          23.302  
G21  22540837.283 4   -331070.23502      2913.044          40.679           0.000 0         0.00000         0.000           0.000  
G23  23268340.350 5         0.00000     -1710.012          27.092    23268155.378 2         0.00000     -1274.738          27.091  
G24  24520732.636 5    186417.84703     -1703.197          34.263    24520569.843 2    137213.76408     -1271.117          25.908  
G27  22764424.898 4    247967.78803     -2158.799          36.064    22764261.809 2         0.00000     -1612.207          29.548  
G32  20550276.828 5         0.00000       968.382          32.124    20550106.845 2    -68325.44204       722.430          35.124  
R10  23912588.656 7         0.00000      1786.541          26.313  
R02  20719720.135 5   -290888.35502      2546.040          36.886  
R01  19708312.111 6         0.00000      -745.583          29.422  
R24  19254159.218 6         0.00000      -175.893          34.262  
R23  22013771.866 6         0.00000     -3392.364          28.408  
R17  21059185.921 5   -448008.73201      3902.314          45.322  
R08  23163964.316 5    317531.35209     -2766.962          37.460  
E07  23504544.124 4     17711.96502      -151.885          38.177    23504375.346 2     13121.01805      -113.803          33.485  
E13  25808801.123 5    190288.33205     -1725.145          30.414    25808638.644 2    137471.07108     -1288.660          28.794  
E26  23160909.725 5    -61659.05404       568.925          33.352    23160733.443 2    -45193.90504       424.559          35.162  
E33  25046801.854 4   -320504.42502      2833.720          41.597    25046633.059 2         0.00000      2115.303          30.360  
E08         0.000 0         0.00000         0.000           0.000    27021872.030 2         0.00000     -1474.545          20.582  
> 2023 09 07 19 34 31.0004163  0 22
G02  23408380.895 4   -401726.38002      3507.661          40.335           0.000 0         0.00000         0.000           0.000  
G08  22519574.210 4     30765.23102      -267.392          38.004    22519412.918 2     36779.67205      -200.287          32.573  
G10  21160444.719 5     37142.95703      -307.386          34.092    21160275.330 2     41517.59205      -228.892          33.553  
G18  24746606.771 5    319243.11705     -2815.102          31.395    24746449.073 2    244738.52309     -2102.059          23.405  
G21  22540279.975 4   -333984.26501      2915.066          42.442           0.000 0         0.00000         0.000           0.000  
G24  24521058.204 4    188121.57303     -1705.282          35.359    24520894.521 2    138485.06109     -1270.594          23.398  
G27  22764832.326 5    250126.22903     -2157.817          34.713    22764671.627 2    199525.80405     -1609.724          33.092  
G28  23628823.999 5         0.00000      4011.356          29.706           0.000 0         0.00000         0.000           0.000  
G32  20550091.856 5   -111911.74904       968.103          32.942    20549922.763 2    -69047.85404       722.583          36.200  
G23         0.000 0         0.00000         0.000           0.000    23268477.649 2         0.00000     -1276.098          30.515  
R10  23912232.497 7         0.00000      1785.738          25.817  
R02  20719247.356 5   -293434.79402      2547.843          37.791  
R01  19708454.522 6         0.00000      -746.800          28.656  
R23  22014425.726 6    389247.93309     -3394.757          27.850  
R17  21058466.711 5   -451912.16101      3904.301          44.526  
R08  23164479.656 5    320298.88402     -2769.394          38.394  
E07  23504573.511 4     17863.71702      -152.549          37.658    23504404.418 2     13234.29405      -113.832          32.918  
E13  25809129.693 5    192014.55605     -1728.369          31.056    25808967.808 2    138759.91209     -1289.525          27.312  
E19  28611909.765 6         0.00000      3466.835          26.268           0.000 0         0.00000         0.000           0.000  
E26  23160792.512 5    -62228.10204       569.305          33.669    23160625.217 2    -45618.84204       424.997          36.242  
E33  25046260.723 4   -323338.90501      2835.483          42.479    25046092.538 2   -232425.51407      2117.485          30.368  
E08         0.000 0         0.00000         0.000           0.000    27022248.274 2         0.00000     -1472.529          23.182  
> 2023 09 07 19 34 32.0004163  0 23
G02  23407709.359 4   -405233.00602      3506.303          41.231           0.000 0         0.00000         0.000           0.000  
G08  22519633.261 4     31032.83702      -267.205          38.994    22519465.094 2     36979.63507      -200.490          29.965  
G10  21160505.271 4     37450.68102      -308.492          37.488    21160333.788 2     41747.43805      -230.419          33.247  
G18  24747140.992 5    322058.16404     -2814.617          31.813    24746984.498 2         0.00000     -2099.823          20.993  
G21  22539725.355 4   -336898.87401      2914.224          42.062           0.000 0         0.00000         0.000           0.000  
G23  23268968.419 5         0.00000     -1710.986          29.640    23268802.624 2    149000.54905     -1277.373          32.548  
G24  24521383.791 5         0.00000     -1706.859          31.067    24521218.903 2         0.00000     -1274.673          24.375  
G27  22765249.927 5    252282.30303     -2155.179          35.277    22765081.149 2    201135.88605     -1609.313          33.393  
G28  23628054.427 5   -464250.95009      4011.309          31.270           0.000 0         0.00000         0.000           0.000  
G32  20549903.882 5   -112879.02203       967.658          35.101    20549739.291 2    -69770.17003       722.298          36.486  
R10  23911907.522 6         0.00000      1778.927          27.656  
R02  20718765.294 5   -295982.98303      2548.037          36.543  
R01  19708581.036 5     88245.06309      -747.836          37.276  
R24  19254236.557 6     17912.70109      -174.004          35.059  
R23  22015056.795 7         0.00000     -3397.769          26.275  
R17  21057729.230 5   -455815.34601      3902.377          44.220  
R08  23164992.012 5    323068.30802     -2770.522          37.809  
E13  25809457.967 5         0.00000     -1724.565          29.410    25809296.081 4         0.00000     -1289.500          25.478  
E19  28611245.139 6         0.00000      3467.395          22.723           0.000 0         0.00000         0.000           0.000  
E33  25045721.093 4   -326174.08202      2835.190          39.541    25045554.705 2   -234542.89407      2117.210          29.689  
E07         0.000 0         0.00000         0.000           0.000    23504433.508 2     13348.31005      -114.687          33.332  
E08         0.000 0         0.00000         0.000           0.000    27022622.110 2         0.00000     -1473.220          24.062  
E26         0.000 0         0.00000         0.000           0.000    23160517.287 2    -46043.60003       424.839          36.816  
> 2023 09 07 19 34 33.0004163  0 22
G02  23407045.029 4   -408738.31002      3503.669          40.827           0.000 0         0.00000         0.000           0.000  
G08  22519682.733 4     31300.35902      -268.802          38.447    22519515.752 2         0.00000      -200.579          32.158  
G21  22539173.439 4   -339812.17401      2911.615          43.031           0.000 0         0.00000         0.000           0.000  
G23  23269293.987 5         0.00000     -1710.631          30.276    23269128.804 2         0.00000     -1276.744          34.221  
G24  24521711.157 5    191535.87209     -1709.886          31.136    24521543.879 2         0.00000     -1276.233          23.777  
G27  22765658.856 4    254436.59803     -2153.849          35.658    22765490.671 2    202744.31005     -1608.071          33.769  
G28  23627290.561 5   -468264.07209      4015.269          32.437           0.000 0         0.00000         0.000           0.000  
G32  20549724.616 5   -113846.10003       966.168          35.150    20549554.633 2    -70492.55103       722.619          36.948  
G10         0.000 0         0.00000         0.000           0.000    21160392.246 2     41978.08604      -230.750          34.614  
G18         0.000 0         0.00000         0.000           0.000    24747520.831 2         0.00000     -2100.967          23.100  
R10  23911566.352 7         0.00000      1775.942          25.467  
R02  20718289.828 5   -298531.71703      2547.450          36.421  
R01  19708716.834 5     88993.26109      -748.757          40.706  
R24  19254256.643 6     18086.66009      -174.022          34.963  
R23  22015701.651 7         0.00000     -3396.339          26.678  
R17  21056995.937 5   -459716.71002      3899.936          41.326  
R08  23165543.020 5         0.00000     -2772.987          35.585  
E08  27023167.430 5    224442.50107     -1974.298          27.512    27022998.948 2         0.00000     -1473.962          24.689  
E13  25809788.334 5         0.00000     -1725.091          29.324    25809623.465 2    141337.24609     -1287.405          25.823  
E33  25045180.276 4   -329007.80602      2832.161          40.964    25045015.982 2   -236658.91505      2115.368          32.721  
E07         0.000 0         0.00000         0.000           0.000    23504462.894 2         0.00000      -114.901          32.562  
E26         0.000 0         0.00000         0.000           0.000    23160409.375 2    -46468.30503       424.725          36.735  
> 2023 09 07 19 34 34.0004163  0 22
G02  23406377.994 4   -412242.01502      3503.442          39.451           0.000 0         0.00000         0.000           0.000  
G08  22519732.797 4     31569.09002      -268.434          40.192    22519568.818 2     37379.95504      -200.683          35.291  
G10  21160621.891 5     38067.81403      -309.893          34.640    21160451.018 2     42208.44804      -230.968          34.820  
G18  24748206.153 5    327682.02909     -2811.449          29.424    24748057.163 2         0.00000     -2099.781          21.983  
G21  22538619.430 4   -342723.87701      2911.473          42.271           0.000 0         0.00000         0.000           0.000  
G23  23269618.369 5         0.00000     -1707.938          31.480    23269454.076 2    151554.68704     -1276.612          35.272  
G24  24522040.023 5    193244.73609     -1710.423          29.086    24521869.151 2         0.00000     -1276.412          31.262  
G27  22766069.861 4    256590.30102     -2152.923          38.864    22765900.489 2    204352.71405     -1608.129          33.802  
G28  23626525.492 4   -472279.84309      4015.650          36.644           0.000 0         0.00000         0.000           0.000  
G32  20549540.237 4   -114813.63803       967.075          35.936    20549370.848 2    -71214.90104       722.211          35.878  
R10  23911238.393 7         0.00000      1779.614          22.693  
R02  20717811.046 5   -301079.56202      2548.264          40.071  
R01  19708857.134 5     89742.21709      -749.081          38.822  
R24  19254290.531 6     18260.80809      -175.083          34.116  
R23  22016331.202 6         0.00000     -3389.556          33.068  
R17  21056281.228 5   -463616.16502      3899.557          41.126  
R08  23166024.489 5    328607.82509     -2770.731          35.676  
E08  27023548.176 6         0.00000     -1976.904          26.602    27023374.599 2    162101.10009     -1476.018          27.893  
E26  23160470.224 6    -63934.37508       568.002          26.923    23160300.538 2    -46893.15304       424.767          35.435  
E33  25044644.536 4   -331840.25202      2832.542          40.144    25044476.648 2   -238773.89905      2115.623          32.634  
E07         0.000 0         0.00000         0.000           0.000    23504491.669 2     13577.24207      -115.057          30.158  
E13         0.000 0         0.00000         0.000           0.000    25809953.536 3    142624.30109     -1289.288          23.834  
> 2023 09 07 19 34 35.0004163  0 22
G02  23405709.145 4   -415748.28302      3509.943          36.813           0.000 0         0.00000         0.000           0.000  
G08  22519785.864 4     31834.27102      -262.143          41.497    22519619.179 2     37578.10004      -195.338          35.739  
G10  21160681.850 4     38378.51702      -312.542          38.444    21160510.366 2     42440.37705      -232.244          32.611  
G18  24748744.283 5         0.00000     -2813.083          29.500    24748593.496 2         0.00000     -2101.905          21.626  
G21  22538061.808 4   -345638.59302      2916.507          39.770           0.000 0         0.00000         0.000           0.000  
G23  23269949.644 5    202956.70409     -1709.717          29.051    23269779.958 2         0.00000     -1282.414          30.914  
G24  24522358.717 5         0.00000     -1713.020          29.268    24522194.423 2         0.00000     -1280.635          30.145  
G27  22766476.974 4    258741.62002     -2149.587          38.502    22766309.696 2    205959.17306     -1605.554          31.827  
G28  23625760.422 4   -476293.71209      4011.020          37.573           0.000 0         0.00000         0.000           0.000  
G32  20549355.561 4   -115780.63102       966.620          38.283    20549186.783 2    -71937.04504       722.169          34.893  
R10  23910909.805 7         0.00000      1780.027          23.443  
R02  20717332.579 5   -303630.53002      2553.582          40.924  
R01  19708993.245 5     90491.78302      -749.495          39.701  
R24  19254319.603 6     18434.98809      -174.817          32.055  
R23  22016952.378 6    402829.61409     -3393.761          34.275  
R17  21055543.747 5   -467517.80102      3904.164          41.160  
R08  23166553.021 6         0.00000     -2776.088          34.000  
E07  23504687.426 6         0.00000      -154.514          24.501    23504521.038 2     13692.57908      -116.222          28.726  
E08  27023919.918 5    228394.87307     -1980.665          27.772    27023752.029 2         0.00000     -1479.676          28.169  
E13  25810446.679 5         0.00000     -1722.078          28.395    25810282.402 2         0.00000     -1290.619          22.931  
E26  23160359.607 6         0.00000       567.791          26.445    23160192.312 2    -47317.69904       424.459          34.733  
E33  25044103.423 4   -334675.41502      2837.638          37.635    25043935.534 2   -240890.82306      2118.261          31.459  
> 2023 09 07 19 34 36.0004163  0 21
G02  23405039.720 4   -419260.58902      3513.083          40.053           0.000 0         0.00000         0.000           0.000  
G08  22519833.223 4     32093.56001      -257.828          42.471    22519668.336 2     37771.86304      -192.254          35.281  
G10  21160740.919 4     38691.85902      -315.860          39.333    21160570.325 2         0.00000      -235.354          30.928  
G18  24749280.022 4         0.00000     -2823.971          36.310    24749129.217 2         0.00000     -2105.288          22.172  
G21  22537509.596 4   -348558.28402      2920.857          38.458           0.000 0         0.00000         0.000           0.000  
G23  23270269.821 5         0.00000     -1723.188          28.966    23270106.435 2         0.00000     -1287.756          26.228  
G24  24522680.394 5    196673.96209     -1719.737          32.576    24522521.196 2         0.00000     -1284.519          29.582  
G27  22766887.403 4    260889.22602     -2146.323          38.802    22766718.311 2         0.00000     -1601.419          29.128  
G32  20549169.385 4   -116747.36602       966.003          39.151    20549002.107 2    -72658.92404       721.366          34.785  
R10  23910580.642 7         0.00000      1778.428          24.899  
R02  20716851.720 5   -306186.80301      2557.980          41.670  
R01  19709135.046 5     91240.57403      -749.094          36.208  
R24  19254371.168 6     18609.33709      -175.051          31.437  
R23  22017582.243 6    406225.61509     -3397.835          32.514  
R17  21054808.342 5   -471423.19201      3905.948          41.859  
R08  23167071.659 5    334159.17209     -2780.457          35.590  
E07  23504724.612 6         0.00000      -155.289          23.988    23504551.628 2         0.00000      -118.050          28.965  
E08  27024296.162 5    230377.41906     -1984.933          29.366    27024129.478 2    165058.95309     -1482.194          28.443  
E13  25810771.061 5    200646.58107     -1732.599          28.224    25810610.973 2         0.00000     -1292.463          21.823  
E26  23160250.770 6         0.00000       568.077          26.088    23160084.086 2    -47741.85104       423.793          34.954  
E33  25043563.792 5   -337515.17903      2841.118          34.570    25043395.310 2         0.00000      2120.478          28.448  
> 2023 09 07 19 34 37.0004163  0 22
G02  23404371.481 4   -422773.74602      3513.244          40.822           0.000 0         0.00000         0.000           0.000  
G08  22519881.805 4     32350.02402      -255.934          41.012    22519716.918 2         0.00000      -191.182          32.944  
G10  21160802.361 4     39007.44002      -316.228          38.104    21160630.284 2         0.00000      -235.979          27.607  
G18  24749819.635 4    336129.24302     -2821.369          37.287    24749664.346 2         0.00000     -2106.876          25.374  
G23  23270603.783 5         0.00000     -1728.310          27.171    23270435.301 2         0.00000     -1286.948          24.553  
G24  24523012.262 5    198396.67105     -1727.792          30.913    24522848.876 2    146141.69507     -1286.121          29.684  
G27  22767291.219 4    263033.84202     -2143.318          40.142    22767126.332 2         0.00000     -1601.473          27.510  
G28  23624238.658 5         0.00000      4010.636          32.610           0.000 0         0.00000         0.000           0.000  
G32  20548989.525 4   -117713.69602       966.531          39.186    20548818.042 2    -73380.57505       721.702          34.025  
R10  23910255.667 7         0.00000      1775.954          24.642  
R02  20716377.144 5   -308745.61501      2559.406          44.874  
R01  19709266.655 6     91990.73404      -750.483          33.444  
R24  19254387.362 6     18783.74709      -174.413          29.639  
R23  22018232.194 6         0.00000     -3400.339          29.394  
R17  21054085.258 5   -475328.77602      3904.675          38.825  
R08  23167593.002 6    336941.08009     -2782.377          34.543  
E08  27024672.703 6         0.00000     -1988.669          28.064    27024506.612 2    166542.34906     -1484.146          31.328  
E13  25811100.242 6         0.00000     -1733.454          25.817    25810940.136 2         0.00000     -1294.733          22.672  
E26  23160138.949 6         0.00000       567.004          26.220    23159976.767 2    -48165.68004       423.916          35.024  
E07         0.000 0         0.00000         0.000           0.000    23504582.498 2     13927.27807      -118.180          30.114  
E19         0.000 0         0.00000         0.000           0.000    28607781.934 2         0.00000      2603.739          20.550  
E33         0.000 0         0.00000         0.000           0.000    25042855.680 2   -245132.94609      2121.321          26.152  
> 2023 09 07 19 34 38.0004163  0 22
G02  23403699.944 4   -426285.80602      3511.529          38.070           0.000 0         0.00000         0.000           0.000  
G08  22519929.461 4     32607.01602      -257.079          40.660    22519766.372 2         0.00000      -193.076          28.662  
G18  24750355.078 4    338949.08602     -2819.833          37.897    24750201.271 2    259456.28405     -2105.402          33.115  
G23  23270924.553 5    208125.75809     -1724.705          30.893    23270764.168 2         0.00000     -1287.221          26.939  
G24  24523345.020 5         0.00000     -1727.333          28.794    24523176.539 2         0.00000     -1287.194          28.996  
G27  22767700.741 4    265176.85902     -2142.421          40.739    22767534.353 2         0.00000     -1600.227          27.921  
G28  23623478.998 5         0.00000      4013.119          29.176           0.000 0         0.00000         0.000           0.000  
G32  20548799.754 4   -118680.25302       966.482          39.227    20548634.256 2    -74102.33605       721.504          33.081  
G10         0.000 0         0.00000         0.000           0.000    21160689.947 2         0.00000      -237.057          29.270  
R10  23909924.392 7         0.00000      1772.470          24.787  
R02  20715895.972 5   -311304.50301      2558.544          44.121  
R01  19709417.739 6     92742.14905      -751.956          31.294  
R24  19254425.439 7     18957.80909      -171.065          27.082  
R23  22018874.048 6         0.00000     -3392.631          27.765  
R17  21053345.962 5   -479232.26803      3902.827          36.641  
R08  23168112.547 5    339723.96909     -2784.034          35.645  
E08  27025049.540 5    234352.09207     -1988.397          28.233    27024885.840 2    168026.67106     -1484.695          32.279  
E13  25811431.203 4    204110.15003     -1730.392          36.501    25811268.410 2    147768.25109     -1292.025          25.144  
E26  23160028.035 6    -66208.20308       567.945          26.639    23159868.244 2    -48589.57704       423.819          34.325  
E07         0.000 0         0.00000         0.000           0.000    23504612.477 2         0.00000      -118.100          30.507  
E19         0.000 0         0.00000         0.000           0.000    28607117.883 2         0.00000      2605.863          20.923  
E33         0.000 0         0.00000         0.000           0.000    25042316.660 2   -247253.09809      2118.709          25.559  
> 2023 09 07 19 34 39.0004163  0 23
G02  23403037.709 5   -429796.42803      3509.969          34.661           0.000 0         0.00000         0.000           0.000  
G08  22519982.528 4     32864.25501      -257.357          43.222    22519814.936 2     38347.07405      -192.511          32.405  
G10  21160921.686 5     39640.97009      -317.935          33.761    21160749.609 2     43383.48006      -237.534          32.039  
G18  24750892.893 5         0.00000     -2808.975          34.862    24750737.900 2    261560.76906     -2102.883          32.224  
G21  22535838.546 5   -357316.01504      2916.261          31.758           0.000 0         0.00000         0.000           0.000  
G23  23271255.828 5         0.00000     -1726.058          28.965    23271094.239 2         0.00000     -1287.088          24.137  
G24  24523669.403 5         0.00000     -1718.658          27.659    24523505.423 2    148717.17309     -1287.788          25.701  
G27  22768103.963 4    267318.32302     -2140.792          38.730    22767943.264 2    212363.62706     -1598.529          32.035  
G28  23622713.317 5   -492341.26209      4017.692          33.686           0.000 0         0.00000         0.000           0.000  
G32  20548620.767 4   -119646.53802       966.625          39.415    20548449.598 2    -74823.94506       721.909          31.752  
R10  23909597.933 7         0.00000      1764.323          26.135  
R02  20715413.613 5   -313863.68502      2559.205          40.350  
R01  19709570.045 6     93495.05605      -753.452          30.432  
R24  19254468.296 6     19132.53009      -174.585          28.229  
R23  22019511.696 7         0.00000     -3389.492          24.926  
R17  21052630.363 5   -483133.52903      3900.388          36.412  
R08  23168614.991 5    342509.15109     -2785.940          36.130  
E07  23504809.141 5     19145.96406      -159.078          28.744    23504642.753 2         0.00000      -119.284          29.845  
E08  27025427.268 5         0.00000     -1991.156          28.772    27025264.789 2         0.00000     -1485.862          30.841  
E19  28606609.750 5   -409232.09405      3493.238          30.681           0.000 0         0.00000         0.000           0.000  
E26  23159924.311 5    -66775.57606       567.862          28.635    23159760.925 2    -49013.26804       423.559          34.570  
E33  25041942.510 5         0.00000      2838.047          30.577    25041774.621 2         0.00000      2118.097          28.434  
E13         0.000 0         0.00000         0.000           0.000    25811597.887 2         0.00000     -1290.528          24.853  
> 2023 09 07 19 34 40.0004163  0 22
G02  23402367.969 5   -433303.81409      3508.728          30.144           0.000 0         0.00000         0.000           0.000  
G08  22520030.498 4     33122.75101      -259.833          41.861    22519863.814 2     38540.18504      -194.033          35.130  
G10  21160983.442 4     39958.67609      -318.296          36.472    21160811.365 2     43620.76304      -237.513          34.570  
G18  24751429.522 4    344582.68909     -2814.391          35.394    24751273.640 2    263663.07806     -2101.470          31.918  
G21  22535281.831 5         0.00000      2912.843          28.874           0.000 0         0.00000         0.000           0.000  
G23  23271586.806 5         0.00000     -1723.691          28.325    23271423.420 2    159280.09309     -1286.971          25.418  
G24  24524000.678 6         0.00000     -1722.661          25.372    24523834.290 3         0.00000     -1288.283          24.051  
G27  22768515.875 4    269458.89102     -2140.778          41.118    22768350.377 2    213962.12305     -1598.119          33.792  
G28  23621944.652 5         0.00000      4022.106          33.563           0.000 0         0.00000         0.000           0.000  
G32  20548435.202 4   -120612.97002       966.066          39.805    20548264.312 2    -75545.60307       720.936          30.713  
R10  23909264.564 7         0.00000      1753.471          23.876  
R02  20714939.037 5   -316422.21202      2557.653          40.488  
R01  19709696.245 6     94249.23103      -755.011          34.865  
R24  19254505.483 7         0.00000      -175.588          26.487  
R23  22020131.982 6         0.00000     -3388.352          27.248  
R08  23169144.727 6    345294.53509     -2785.880          34.398  
E07  23504836.433 5     19304.98907      -158.931          27.857    23504673.640 2     14283.11409      -118.359          28.172  
E08  27025811.312 6    238331.11309     -1986.716          25.302    27025643.424 2    170998.25009     -1485.676          26.763  
E19  28605946.310 5   -412726.40805      3493.962          30.082           0.000 0         0.00000         0.000           0.000  
E26  23159819.977 5    -67343.23806       567.859          29.094    23159652.995 2    -49437.20704       423.655          35.121  
E33  25041404.677 5   -348868.54406      2835.407          28.761    25041234.397 2   -251489.71606      2117.031          31.220  
E13         0.000 0         0.00000         0.000           0.000    25811926.457 2    150348.84609     -1288.843          25.270  
> 2023 09 07 19 34 41.0004163  0 21
G08  22520078.766 4     33384.49702      -263.965          39.651    22519913.878 2     38735.69903      -196.932          38.187  
G10  21161045.792 4     40274.98109      -314.409          37.614    21160871.324 2     43856.95606      -234.856          32.279  
G18  24751961.963 4    347394.92809     -2809.834          38.124    24751808.175 2    265762.92606     -2098.434          32.051  
G21  22534729.026 6         0.00000      2912.515          26.488           0.000 0         0.00000         0.000           0.000  
G23  23271912.078 5         0.00000     -1711.673          28.245    23271748.395 2         0.00000     -1282.647          25.353  
G24  24524329.544 6         0.00000     -1721.863          23.576    24524164.064 2         0.00000     -1286.140          25.204  
G27  22768924.786 4    271601.29002     -2144.023          39.922    22768758.102 2    215562.04004     -1601.102          34.305  
G28  23621180.787 4         0.00000      4022.778          36.904           0.000 0         0.00000         0.000           0.000  
G32  20548253.231 4   -121579.12402       966.031          39.312    20548080.247 2    -76267.15206       721.744          31.156  
R10  23908913.797 7         0.00000      1760.258          26.294  
R02  20714460.866 5   -318977.77002      2553.123          41.424  
R01  19709842.251 5     95003.66602      -753.567          37.563  
R24  19254559.735 6         0.00000      -177.076          27.936  
R23  22020753.140 6    423177.22709     -3387.602          31.917  
R08  23169668.775 5    348077.36309     -2779.809          38.568  
E07  23504868.803 6     19463.36108      -157.249          26.504    23504704.824 2     14401.70609      -119.476          25.579  
E08  27026187.853 5         0.00000     -1984.177          28.693    27026022.355 3    172482.17609     -1481.854          23.580  
E13  25812415.430 5    209290.31304     -1721.982          33.627    25812252.933 2         0.00000     -1285.500          30.148  
E19  28605278.665 5   -416218.50006      3489.885          29.652           0.000 0         0.00000         0.000           0.000  
E26  23159712.047 5         0.00000       567.245          29.231    23159545.362 2    -49861.13904       424.229          35.587  
E33  25040865.064 6         0.00000      2832.228          26.629    25040697.175 2   -253605.58805      2115.276          33.814  
> 2023 09 07 19 34 42.0004163  0 22
G02  23401035.383 5   -440311.23609      3503.782          33.194           0.000 0         0.00000         0.000           0.000  
G08  22520128.830 4     33650.61602      -267.670          38.314    22519963.943 2     38934.41703      -200.496          36.270  
G10  21161098.264 4     40587.52709      -310.627          37.522    21160930.672 2         0.00000      -231.359          28.317  
G23  23272242.149 5    215010.51209     -1711.613          31.069    23272073.964 2         0.00000     -1278.801          24.689  
G24  24524656.317 6         0.00000     -1721.917          23.735    24524488.132 2    152578.87809     -1282.395          24.917  
G27  22769329.806 4    273747.43602     -2147.815          39.851    22769166.123 2    217164.71204     -1603.724          34.485  
G28  23620414.216 5   -504403.42409      4023.186          35.002           0.000 0         0.00000         0.000           0.000  
G32  20548066.461 4   -122545.50102       966.538          37.581    20547897.369 2         0.00000       722.114          30.482  
G18         0.000 0         0.00000         0.000           0.000    24752343.303 2    267860.55108     -2096.260          29.371  
R10  23908569.627 7         0.00000      1775.750          23.581  
R02  20713980.008 5   -321529.56702      2550.150          40.608  
R01  19709988.257 5     95756.65302      -752.676          37.510  
R24  19254557.938 6     19655.80009      -176.766          30.388  
R23  22021385.396 6    426563.61209     -3386.034          31.604  
R17  21050460.167 6         0.00000      3895.121          30.666  
R08  23170193.991 5         0.00000     -2773.904          36.599  
E07  23504899.987 5     19619.37706      -154.738          29.206    23504735.396 2     14518.07509      -116.419          24.441  
E08  27026564.690 5    242300.06807     -1978.857          28.001           0.000 0         0.00000         0.000           0.000  
E13  25812741.295 5    211011.72804     -1719.947          33.578    25812581.504 2    152921.74906     -1284.470          31.741  
E26  23159601.727 6         0.00000       568.561          26.330    23159436.543 2    -50285.64004       424.808          35.031  
E33  25040329.935 6         0.00000      2830.977          26.118    25040156.951 2   -255720.82404      2114.970          34.523  
E19         0.000 0         0.00000         0.000           0.000    28604459.639 2         0.00000      2604.277          21.653  
> 2023 09 07 19 34 43.0004163  0 23
G02  23400366.551 5   -443813.32804      3502.557          33.124           0.000 0         0.00000         0.000           0.000  
G08  22520179.488 4     33920.69002      -271.341          36.757    22520016.102 2     39135.99205      -202.378          33.785  
G10  21161162.115 4     40898.21602      -308.947          37.907    21160988.537 2         0.00000      -230.555          24.143  
G18  24753024.123 6         0.00000     -2801.597          29.834    24752876.320 2         0.00000     -2094.814          27.967  
G21  22533629.086 5   -368982.69903      2909.935          34.399           0.000 0         0.00000         0.000           0.000  
G23  23272569.829 5         0.00000     -1704.703          29.886    23272399.847 3         0.00000     -1271.804          22.950  
G27  22769737.827 4    275897.15002     -2150.972          40.527    22769575.330 2    218770.05504     -1606.289          35.207  
G28  23619647.052 5   -508424.59003      4022.181          34.898           0.000 0         0.00000         0.000           0.000  
G32  20547879.988 4   -123511.29102       966.081          38.488    20547713.007 2    -77710.02607       721.218          30.169  
G24         0.000 0         0.00000         0.000           0.000    24524814.608 5         0.00000     -1280.377          24.290  
R10  23908241.353 7         0.00000      1774.112          25.514  
R02  20713503.024 5   -324077.73102      2546.992          39.728  
R01  19710112.677 5     96508.19202      -751.404          37.577  
R24  19254606.502 6     19833.68209      -178.838          30.133  
R23  22022016.762 6    429950.33609     -3386.662          30.984  
R17  21049724.169 6         0.00000      3894.958          33.132  
R08  23170705.143 6    353626.03009     -2769.307          35.330  
E07  23504932.654 5     19774.10205      -153.989          31.273    23504764.468 3     14633.45409      -114.655          23.169  
E08  27026939.730 5    244277.47007     -1975.648          28.367    27026776.937 2         0.00000     -1476.161          20.447  
E26  23159493.500 6         0.00000       568.832          23.016    23159327.723 2    -50710.05804       424.557          35.683  
E33  25039795.103 6         0.00000      2830.538          23.503    25039618.821 2   -257835.17204      2114.287          35.119  
E13         0.000 0         0.00000         0.000           0.000    25812908.887 2    154205.97705     -1283.299          32.539  
E19         0.000 0         0.00000         0.000           0.000    28603798.293 2         0.00000      2601.662          21.834  
> 2023 09 07 19 34 44.0004163  0 23
G02  23399704.612 5         0.00000      3501.041          30.436           0.000 0         0.00000         0.000           0.000  
G08  22520230.460 5     34192.07803      -272.500          35.229    22520067.074 2         0.00000      -203.411          30.226  
G10  21161217.886 4     41206.29102      -307.856          39.215    21161049.997 3         0.00000      -228.932          21.908  
G18  24753572.147 5         0.00000     -2801.767          26.990    24753411.762 2         0.00000     -2094.086          28.684  
G21  22533077.764 5         0.00000      2909.171          31.427           0.000 0         0.00000         0.000           0.000  
G23  23272893.897 5    218427.49609     -1707.363          30.853    23272726.620 2    164394.11009     -1267.307          22.777  
G24  24525305.378 6         0.00000     -1705.470          25.829    24525140.491 3         0.00000     -1277.987          22.668  
G27  22770149.442 4    278048.14201     -2152.295          41.767    22769984.852 2    220376.30904     -1606.955          34.366  
G28  23618882.872 5   -512447.03103      4023.230          34.342           0.000 0         0.00000         0.000           0.000  
G32  20547701.612 4   -124477.36402       965.726          38.996    20547529.832 2         0.00000       721.732          28.938  
R10  23907918.786 7         0.00000      1770.200          26.656  
R02  20713029.355 5   -326624.59102      2545.533          39.062  
R01  19710255.367 5     97259.18103      -750.729          36.468  
R24  19254647.283 6         0.00000      -181.436          29.091  
R23  22022652.334 6    433336.90209     -3387.055          32.428  
R17  21048986.391 6   -502612.84409      3893.902          34.185  
R08  23171222.594 6    356394.92809     -2768.453          33.664  
E07  23504960.539 5     19927.47605      -153.580          31.292    23504794.762 3     14747.96109      -114.507          23.444  
E08  27027314.771 5         0.00000     -1966.988          28.030    27027151.087 2         0.00000     -1477.008          20.203  
E19  28603291.940 6         0.00000      3482.827          22.019    28603132.742 2   -313521.75509      2602.274          21.429  
E13         0.000 0         0.00000         0.000           0.000    25813235.363 2    155489.26305     -1283.200          32.796  
E26         0.000 0         0.00000         0.000           0.000    23159219.497 2    -51134.99404       424.524          34.593  
E33         0.000 0         0.00000         0.000           0.000    25039079.784 2   -259949.67004      2114.081          34.624  
> 2023 09 07 19 34 45.0004163  0 22
G02  23399031.872 5         0.00000      3499.554          27.575           0.000 0         0.00000         0.000           0.000  
G08  22520284.416 5     34466.24803      -275.800          35.288    22520116.528 2     39543.55909      -205.729          28.476  
G10  21161279.642 4     41513.18302      -306.685          37.782    21161108.752 2         0.00000      -228.294          23.844  
G18  24754111.167 6         0.00000     -2801.107          25.584    24753946.594 2         0.00000     -2094.143          29.815  
G21  22532521.050 5   -374803.97609      2908.965          30.607           0.000 0         0.00000         0.000           0.000  
G23  23273214.667 6         0.00000     -1706.270          27.567    23273050.688 2         0.00000     -1272.611          24.127  
G24  24525638.747 6         0.00000     -1704.510          26.038    24525466.060 2         0.00000     -1278.448          20.359  
G27  22770562.855 4    280201.76002     -2155.006          40.925    22770394.670 2    221984.52905     -1609.169          33.769  
G28  23618122.008 4   -516468.56803      4020.861          36.936           0.000 0         0.00000         0.000           0.000  
G32  20547521.735 4   -125442.59602       964.342          38.792    20547347.251 2         0.00000       720.079          27.188  
R10  23907605.205 6   -232628.92609      1777.462          28.674  
R02  20712539.492 5   -329169.00403      2542.831          36.613  
R01  19710392.072 6     98010.14403      -751.871          34.882  
R24  19254677.263 6         0.00000      -178.689          27.708  
R23  22023290.297 6    436724.25409     -3388.200          33.901  
R17  21048260.881 6   -506506.75709      3892.395          35.219  
R08  23171736.434 6    359161.06609     -2764.060          31.486  
E07  23504986.016 5     20080.49404      -152.907          33.194    23504821.740 2         0.00000      -114.231          25.488  
E13  25813722.521 5    216168.02003     -1717.842          34.837    25813563.323 2    156772.25006     -1283.194          32.154  
E26  23159277.955 6    -70185.31109       568.074          24.511    23159110.974 2    -51559.53205       424.268          33.450  
E33  25038715.249 6         0.00000      2831.065          25.395    25038541.358 2   -262063.57604      2113.584          34.298  
E19         0.000 0         0.00000         0.000           0.000    28602469.616 2         0.00000      2598.208          20.628  
> 2023 09 07 19 34 46.0004163  0 23
G02  23398367.228 6         0.00000      3505.247          26.509           0.000 0         0.00000         0.000           0.000  
G08  22520339.280 5     34742.07503      -275.674          34.351    22520168.704 2         0.00000      -206.383          29.202  
G10  21161328.502 4     41818.95103      -305.676          36.408    21161167.210 2         0.00000      -228.099          24.048  
G21  22531962.242 5   -377712.13109      2908.707          29.116           0.000 0         0.00000         0.000           0.000  
G23  23273528.562 6         0.00000     -1700.109          26.540    23273374.773 2    166929.98409     -1271.107          24.166  
G24  24525961.018 6         0.00000     -1708.924          26.046           0.000 0         0.00000         0.000           0.000  
G27  22770976.269 4    282357.00102     -2155.143          41.574    22770804.785 2    223593.92505     -1609.065          32.982  
G28  23617356.030 4   -520490.35902      4021.658          37.472           0.000 0         0.00000         0.000           0.000  
G32  20547333.762 4   -126407.40902       964.754          39.763    20547164.686 2         0.00000       720.739          26.435  
G18         0.000 0         0.00000         0.000           0.000    24754480.815 2    276238.61007     -2093.214          30.720  
R10  23907267.038 6         0.00000      1780.258          27.498  
R02  20712062.526 5   -331711.86403      2542.647          35.922  
R01  19710532.669 6         0.00000      -750.005          32.688  
R24  19254684.452 6     20372.63909      -179.798          27.586  
R23  22023924.944 6    440111.99009     -3387.396          34.480  
R17  21047534.778 6   -510400.45909      3893.312          32.219  
R08  23172261.964 6         0.00000     -2761.532          29.276  
E08  27028068.445 6         0.00000     -1966.785          26.439           0.000 0         0.00000         0.000           0.000  
E33  25038177.416 6         0.00000      2830.095          23.317    25038003.542 2   -264177.16804      2113.645          34.135  
E07         0.000 0         0.00000         0.000           0.000    23504849.922 3     14976.16409      -114.552          23.564  
E13         0.000 0         0.00000         0.000           0.000    25813890.095 2    158054.84606     -1282.430          31.246  
E19         0.000 0         0.00000         0.000           0.000    28601810.661 2         0.00000      2596.613          20.684  
E26         0.000 0         0.00000         0.000           0.000    23159003.045 2    -51984.02505       424.429          32.888  
> 2023 09 07 19 34 47.0004163  0 22
G02  23397690.910 5         0.00000      3504.121          28.446           0.000 0         0.00000         0.000           0.000  
G08  22520391.142 5     35018.72503      -277.130          34.181    22520219.659 2     39956.18409      -207.061          28.408  
G10  21161395.965 4     42124.07303      -305.142          35.729    21161225.372 2     45251.95609      -228.719          22.223  
G18  24755177.829 5         0.00000     -2804.290          27.001    24755012.645 2    278331.94807     -2093.311          30.541  
G21  22531413.607 5   -380620.91209      2908.393          31.248           0.000 0         0.00000         0.000           0.000  
G23  23273858.022 6         0.00000     -1700.538          25.025    23273698.248 2         0.00000     -1270.511          25.326  
G24  24526281.194 6         0.00000     -1718.107          24.415           0.000 0         0.00000         0.000           0.000  
G27  22771378.897 4    284512.72202     -2156.431          41.108    22771214.900 2    225203.67905     -1609.831          32.414  
G28  23616586.458 4   -524512.34303      4021.353          35.851           0.000 0         0.00000         0.000           0.000  
G32  20547152.384 4   -127372.06102       964.133          39.794    20546981.511 2    -80593.19709       720.179          26.029  
R10  23906940.561 7         0.00000      1784.313          26.213  
R02  20711600.252 5   -334253.95603      2541.431          36.139  
R01  19710682.880 6     99499.89209      -750.662          30.706  
R24  19254707.835 6     20554.16609      -180.733          27.614  
R23  22024555.717 6    443499.75109     -3388.297          34.102  
R17  21046807.191 6   -514293.93709      3892.963          33.452  
R08  23172782.103 6         0.00000     -2762.059          28.527  
E08  27028443.782 6         0.00000     -1968.100          23.783           0.000 0         0.00000         0.000           0.000  
E13  25814381.755 4    219602.90303     -1717.182          35.360    25814217.776 2    159337.18206     -1282.258          31.695  
E07         0.000 0         0.00000         0.000           0.000    23504879.902 2         0.00000      -114.258          20.524  
E26         0.000 0         0.00000         0.000           0.000    23158894.225 2    -52408.59805       424.198          32.632  
E33         0.000 0         0.00000         0.000           0.000    25037464.208 2   -266290.90404      2113.721          34.372  
> 2023 09 07 19 34 48.0004163  0 22
G02  23397032.862 5   -461312.69309      3501.329          30.203           0.000 0         0.00000         0.000           0.000  
G08  22520444.208 5     35296.18103      -277.299          33.888    22520273.318 2     40163.38509      -207.258          27.727  
G10  21161449.624 5     42429.04003      -304.732          35.006    21161283.533 2     45479.62009      -227.216          22.622  
G18  24755703.674 5         0.00000     -2802.564          27.344    24755545.383 2    280425.14007     -2093.212          30.303  
G21  22530856.299 5   -383529.18609      2907.609          29.063           0.000 0         0.00000         0.000           0.000  
G23  23274179.699 6         0.00000     -1705.661          25.070    23274022.019 2         0.00000     -1269.487          26.311  
G24  24526609.764 6         0.00000     -1718.979          22.984           0.000 0         0.00000         0.000           0.000  
G27  22771791.403 4    286669.09901     -2156.332          41.811    22771624.422 2    226813.96105     -1610.019          32.423  
G28  23615818.701 5   -528534.31303      4022.465          34.841           0.000 0         0.00000         0.000           0.000  
G32  20546966.818 4   -128336.27202       964.431          37.946    20546800.431 2    -81313.16709       719.589          26.508  
R10  23906600.003 7         0.00000      1783.142          20.882  
R02  20711117.893 5   -336795.36803      2541.336          36.481  
R01  19710822.272 6    100250.37409      -750.400          32.551  
R24  19254781.580 7         0.00000      -184.394          25.181  
R23  22025195.476 6    446887.84509     -3387.932          29.998  
R17  21046074.805 6   -518187.25209      3895.781          30.570  
R08  23173279.766 6    367447.96109     -2763.232          28.563  
E26  23158957.168 6    -71890.48208       568.257          26.890    23158786.592 2    -52832.97506       424.800          32.177  
E07         0.000 0         0.00000         0.000           0.000    23504910.178 2         0.00000      -113.564          21.218  
E08         0.000 0         0.00000         0.000           0.000    27028651.841 2         0.00000     -1469.900          20.732  
E13         0.000 0         0.00000         0.000           0.000    25814545.142 2    160619.55606     -1282.105          32.054  
E33         0.000 0         0.00000         0.000           0.000    25036925.782 2   -268404.44904      2113.779          34.765  
> 2023 09 07 19 34 49.0004163  0 22
G02  23396367.311 5   -464813.80805      3501.823          30.041           0.000 0         0.00000         0.000           0.000  
G08  22520497.274 5     35573.65503      -277.808          34.511    22520326.087 2         0.00000      -207.992          25.996  
G10  21161511.974 5     42733.44503      -304.521          33.927    21161341.992 2     45707.02509      -227.439          22.636  
G18  24756236.708 5         0.00000     -2802.468          27.097    24756078.417 2    282517.88307     -2092.731          30.480  
G21  22530318.466 5         0.00000      2909.498          26.965           0.000 0         0.00000         0.000           0.000  
G23  23274498.986 6         0.00000     -1701.340          24.573    23274345.494 2         0.00000     -1269.988          27.652  
G27  22772204.520 4    288825.13302     -2156.323          41.626    22772033.333 2    228424.00506     -1610.303          32.310  
G28  23615055.725 5   -532556.87503      4022.523          34.325           0.000 0         0.00000         0.000           0.000  
G32  20546782.753 4   -129300.59802       964.249          38.336    20546615.458 2         0.00000       719.801          27.077  
G24         0.000 0         0.00000         0.000           0.000    24526765.054 4         0.00000     -1275.937          21.152  
R02  20710643.317 5   -339336.94703      2541.180          37.018  
R01  19710961.386 6    101000.50009      -750.425          32.076  
R24  19254804.073 7         0.00000      -181.233          23.440  
R23  22025802.255 6    450275.59109     -3388.193          28.625  
R17  21045346.608 6         0.00000      3891.382          27.258  
R08  23173841.872 6    370209.35309     -2761.267          30.919  
E07  23505106.842 5     20689.40105      -152.249          30.090    23504938.360 2         0.00000      -112.375          20.113  
E08  27029201.959 6         0.00000     -1968.509          20.340    27029026.881 4         0.00000     -1468.896          20.306  
E26  23158848.052 5    -72459.05606       568.265          28.633    23158678.069 2    -53257.50205       424.248          32.585  
E13         0.000 0         0.00000         0.000           0.000    25814871.321 2    161901.55006     -1282.018          32.294  
E19         0.000 0         0.00000         0.000           0.000    28599823.640 2   -326518.54109      2596.390          20.934  
E33         0.000 0         0.00000         0.000           0.000    25036386.762 2   -270518.34404      2113.693          34.588  
> 2023 09 07 19 34 50.0004163  0 22
G02  23395701.777 5   -468315.28805      3501.348          29.930           0.000 0         0.00000         0.000           0.000  
G08  22520552.138 5     35851.40303      -277.526          34.005    22520377.653 2     40578.02209      -207.691          25.977  
G10  21161566.244 5     43037.78704      -304.362          33.234    21161399.856 2     45934.23409      -226.758          22.961  
G18  24756768.225 6         0.00000     -2803.624          25.902    24756611.434 2    284610.57007     -2092.327          30.109  
G21  22529762.362 6         0.00000      2907.943          24.485           0.000 0         0.00000         0.000           0.000  
G23  23274824.555 6         0.00000     -1699.846          26.016    23274671.359 2    172010.82309     -1269.886          27.583  
G24  24527258.825 5         0.00000     -1706.173          28.052    24527092.141 2    162778.57509     -1275.857          21.981  
G27  22772613.134 4    290981.24701     -2156.184          41.728    22772444.355 2    230034.11205     -1610.317          32.751  
G28  23614291.859 5   -536579.52403      4022.686          34.440           0.000 0         0.00000         0.000           0.000  
G32  20546601.079 4   -130264.58102       963.699          38.457    20546431.690 2    -82753.29309       720.160          27.698  
R02  20710156.752 5   -341878.37403      2540.970          36.939  
R01  19711100.778 6    101750.86209      -750.719          31.645  
R24  19254838.555 7         0.00000      -181.226          20.167  
R23  22026429.416 6    453663.47309     -3387.937          27.874  
R17  21044634.586 7         0.00000      3890.878          24.861  
R08  23174336.830 6    372970.63809     -2761.160          31.314  
E26  23158735.323 5    -73027.37306       568.433          28.492    23158570.436 2    -53681.95605       424.168          32.632  
E07         0.000 0         0.00000         0.000           0.000    23504968.933 4         0.00000      -113.395          21.237  
E08         0.000 0         0.00000         0.000           0.000    27029401.921 4         0.00000     -1469.057          20.167  
E13         0.000 0         0.00000         0.000           0.000    25815198.094 2    163183.55905     -1281.884          32.404  
E19         0.000 0         0.00000         0.000           0.000    28599162.294 2         0.00000      2595.918          20.437  
E33         0.000 0         0.00000         0.000           0.000    25035848.929 2   -272632.31304      2113.983          34.550  
> 2023 09 07 19 34 51.0004163  0 20
G02  23395039.541 5   -471817.65505      3502.732          30.866           0.000 0         0.00000         0.000           0.000  
G08  22520599.201 5     36128.85104      -277.558          33.664    22520430.422 2     40785.12809      -207.395          26.408  
G10  21161628.001 5     43341.57003      -304.396          34.705    21161457.407 2     46160.99609      -226.728          25.331  
G18  24757308.762 6         0.00000     -2803.172          26.922    24757144.765 2    286702.82107     -2092.366          30.050  
G21  22529212.838 6         0.00000      2909.557          26.547           0.000 0         0.00000         0.000           0.000  
G23  23275149.233 6         0.00000     -1698.885          24.623    23274994.241 2    173279.94908     -1269.158          28.838  
G24  24527582.003 6         0.00000     -1702.250          26.940    24527418.913 2    164054.19909     -1275.424          22.068  
G27  22773020.248 4    293136.77802     -2155.745          41.611    22772855.360 2    231643.70305     -1609.534          33.206  
G28  23613521.991 5   -540603.03103      4023.377          35.058           0.000 0         0.00000         0.000           0.000  
G32  20546412.809 4   -131229.12303       964.471          36.798    20546250.016 2    -83473.38709       719.849          26.860  
R02  20709698.074 5   -344420.29003      2541.621          36.849  
R01  19711226.385 6    102500.70609      -750.268          31.833  
R24  19254874.520 7         0.00000      -181.006          23.619  
R23  22027076.366 6    457050.73509     -3387.349          29.884  
R08  23174835.994 6    375730.79509     -2759.780          31.958  
E07  23505170.989 5     20992.79505      -151.182          30.288    23504997.411 2         0.00000      -113.531          22.130  
E26  23158625.596 5    -73596.40506       568.583          28.930    23158461.617 2    -54106.80806       424.683          32.064  
E33  25035477.187 6   -380056.69108      2830.749          26.321    25035309.909 2   -274746.77704      2114.223          34.986  
E13         0.000 0         0.00000         0.000           0.000    25815525.163 2    164465.14906     -1281.753          31.930  
E19         0.000 0         0.00000         0.000           0.000    28598501.262 2         0.00000      2596.643          21.340  
> 2023 09 07 19 34 52.0004163  0 20
G02  23394370.709 5   -475320.32805      3503.095          31.528           0.000 0         0.00000         0.000           0.000  
G08  22520654.954 5     36406.34403      -277.514          34.328    22520484.082 2     40992.30009      -206.752          26.382  
G10  21161685.255 5     43644.92803      -303.266          34.942    21161515.865 2     46387.43809      -226.243          24.469  
G18  24757853.785 6         0.00000     -2799.381          25.913    24757677.206 2    288794.76608     -2091.901          29.248  
G21  22528642.931 5   -395172.07909      2909.824          30.223           0.000 0         0.00000         0.000           0.000  
G23  23275468.223 6         0.00000     -1696.291          22.934    23275317.419 2    174548.91409     -1269.006          28.399  
G24  24527916.559 6         0.00000     -1704.248          25.943    24527743.889 2    165330.11709     -1275.734          23.205  
G27  22773434.568 4    295292.10101     -2155.417          41.921    22773264.585 2    233253.22305     -1609.546          33.313  
G28  23612757.217 5   -544626.90503      4024.067          35.146           0.000 0         0.00000         0.000           0.000  
G32  20546227.837 4   -132193.48903       964.273          36.735    20546065.637 2    -84193.64209       720.603          27.625  
R02  20709210.008 5   -346962.14602      2541.895          37.789  
R01  19711364.590 6    103250.43709      -749.821          30.318  
R24  19254892.511 6         0.00000      -184.693          27.582  
R23  22027717.626 6    460437.96309     -3387.215          30.516  
R08  23175355.225 6    378490.67509     -2759.963          31.274  
E07  23505194.075 5     21144.08304      -151.115          31.746    23505023.203 2     15659.37909      -112.360          22.845  
E13  25816012.932 4    228185.78103     -1715.645          36.368    25815850.749 2    165746.47206     -1281.490          32.086  
E26  23158518.278 5    -74165.52507       569.467          28.025    23158353.094 2    -54531.78105       425.014          32.602  
E33  25034937.259 5   -382888.69207      2831.736          28.134    25034770.872 2   -276861.49604      2114.715          35.407  
E19         0.000 0         0.00000         0.000           0.000    28597839.323 2   -334313.04309      2598.243          20.493  
> 2023 09 07 19 34 53.0004163  0 21
G02  23393705.768 5   -478823.50005      3503.308          31.004           0.000 0         0.00000         0.000           0.000  
G08  22520707.427 5     36683.74903      -277.400          34.320    22520535.036 2     41199.44909      -207.066          26.867  
G10  21161746.418 5     43947.75103      -302.674          34.685    21161574.027 2     46613.58709      -225.654          22.399  
G18  24758383.521 6         0.00000     -2796.140          25.971    24758210.241 2    290886.23607     -2091.338          29.971  
G21  22528093.110 5   -398082.28509      2910.354          33.743           0.000 0         0.00000         0.000           0.000  
G23  23275794.385 6         0.00000     -1699.104          26.194    23275640.893 2    175817.32308     -1268.400          28.556  
G24  24528231.343 6         0.00000     -1709.951          24.544    24528068.864 2    166605.74609     -1275.944          23.476  
G27  22773845.573 4    297446.97701     -2154.799          41.963    22773675.608 2    234862.36705     -1609.043          33.022  
G28  23611995.446 5   -548651.44103      4024.871          34.249           0.000 0         0.00000         0.000           0.000  
G32  20546043.458 4   -133157.99603       964.754          36.177    20545881.275 2    -84913.69609       719.417          26.862  
R02  20708741.138 5   -349504.25302      2542.067          38.893  
R01  19711504.000 6    103999.71909      -749.467          29.823  
R24  19254919.786 6     21633.03609      -183.767          28.644  
R23  22028350.476 6    463824.82609     -3386.966          31.539  
R17  21042438.616 6   -537662.24109      3892.633          28.697  
R08  23175850.794 6    381249.55809     -2758.718          30.967  
E07  23505229.761 5     21294.90404      -150.719          33.792    23505052.571 2     15772.10409      -112.491          24.899  
E26  23158415.443 5    -74734.88507       569.089          28.089    23158244.571 2    -54956.95905       425.092          32.643  
E33  25034400.630 5   -385721.12205      2832.310          30.885    25034231.852 2   -278976.66904      2115.481          35.647  
E13         0.000 0         0.00000         0.000           0.000    25816177.226 2    167027.40605     -1280.789          32.749  
E19         0.000 0         0.00000         0.000           0.000    28597177.977 2   -336911.34009      2598.850          21.116  
> 2023 09 07 19 34 54.0004163  0 21
G02  23393033.935 5   -482326.43606      3502.681          29.634           0.000 0         0.00000         0.000           0.000  
G08  22520764.681 4     36961.73903      -278.641          35.785    22520588.102 2     41407.12009      -208.324          26.859  
G10  21161804.876 4     44250.92603      -303.732          35.401    21161631.892 2     46840.20809      -227.351          21.894  
G18  24758915.945 5         0.00000     -2801.938          27.625    24758743.258 2    292977.93908     -2091.981          28.589  
G21  22527536.692 5   -400992.14009      2909.550          33.696           0.000 0         0.00000         0.000           0.000  
G24  24528556.615 6         0.00000     -1712.983          24.957    24528393.229 2         0.00000     -1275.816          22.190  
G27  22774253.891 4    299602.27601     -2155.802          41.959    22774085.409 2    236471.86505     -1610.070          32.920  
G28  23611227.078 5   -552675.70204      4023.982          33.732           0.000 0         0.00000         0.000           0.000  
G32  20545860.579 4   -134121.91703       963.013          36.117    20545697.489 2    -85633.68208       720.022          28.737  
G23         0.000 0         0.00000         0.000           0.000    23275962.867 2    177085.84509     -1268.390          28.426  
R02  20708250.665 5   -352045.84202      2541.189          38.501  
R01  19711650.896 6    104749.70509      -750.477          30.535  
R24  19254960.864 6     21817.69909      -186.858          27.222  
R23  22028983.954 6    467212.07109     -3387.882          30.825  
R17  21041714.921 6   -541555.03709      3892.353          29.403  
R08  23176366.430 6    384008.59309     -2759.038          31.579  
E13  25816665.884 4    231616.94203     -1716.664          36.544    25816503.702 2    168308.64105     -1281.532          33.193  
E26  23158305.734 5    -75303.91907       568.605          27.460    23158136.641 2    -55381.79005       424.338          32.882  
E33  25033861.907 5   -388553.23905      2831.403          30.626    25033692.815 2   -281091.56904      2114.789          35.619  
E07         0.000 0         0.00000         0.000           0.000    23505081.364 2     15885.13609      -113.490          23.577  
E19         0.000 0         0.00000         0.000           0.000    28596515.131 2   -339509.31209      2598.013          21.922  
> 2023 09 07 19 34 55.0004163  0 22
G02  23392366.586 5   -485829.48109      3503.511          27.401           0.000 0         0.00000         0.000           0.000  
G08  22520816.247 4     37240.01503      -278.460          36.230    22520641.779 2     41614.81909      -207.512          26.028  
G10  21161862.427 5     44554.03603      -303.321          34.949           0.000 0         0.00000         0.000           0.000  
G18  24759438.178 6         0.00000     -2807.237          25.908    24759276.903 2    295069.43609     -2090.613          28.266  
G21  22526982.682 5   -403901.99804      2910.093          32.151           0.000 0         0.00000         0.000           0.000  
G23  23276431.440 6         0.00000     -1702.413          21.479    23276286.045 2    178354.31408     -1267.978          28.552  
G24  24528885.185 6         0.00000     -1708.118          26.559           0.000 0         0.00000         0.000           0.000  
G27  22774664.913 4    301757.55502     -2155.098          41.568    22774494.931 2    238081.30505     -1609.192          32.558  
G28  23610460.804 5   -556700.23404      4024.955          33.774           0.000 0         0.00000         0.000           0.000  
G32  20545680.406 4   -135085.63503       963.691          36.127    20545515.222 2    -86353.27607       719.415          30.388  
R02  20707791.690 5   -354587.28502      2541.687          38.437  
R01  19711798.699 6    105499.60309      -749.790          30.734  
R24  19255001.331 7         0.00000      -188.171          26.343  
R23  22029621.305 6    470599.38609     -3386.855          30.985  
R17  21040997.821 6         0.00000      3891.460          28.799  
R08  23176885.068 6    386767.22209     -2758.570          30.250  
E07  23505281.623 5     21597.64504      -151.530          34.095    23505110.436 2     15998.05309      -112.758          24.444  
E26  23158198.694 6    -75872.78408       569.045          26.737    23158028.415 2    -55806.62405       424.906          32.612  
E33  25033324.371 5   -391385.56605      2832.327          31.484    25033154.092 2   -283206.57604      2115.128          35.523  
E08         0.000 0         0.00000         0.000           0.000    27031271.119 2         0.00000     -1467.202          21.049  
E13         0.000 0         0.00000         0.000           0.000    25816830.160 2    169589.75505     -1280.823          33.394  
E19         0.000 0         0.00000         0.000           0.000    28595853.192 2   -342107.43709      2598.154          21.265  
> 2023 09 07 19 34 56.0004163  0 21
G02  23391693.549 6   -489331.87409      3506.860          25.929           0.000 0         0.00000         0.000           0.000  
G08  22520867.515 4     37518.75003      -278.706          36.442    22520693.938 2     41823.02109      -208.089          25.822  
G10  21161915.493 5     44857.14903      -303.059          34.771           0.000 0         0.00000         0.000           0.000  
G18  24759977.512 6         0.00000     -2802.940          25.490    24759810.827 2    297161.15709     -2091.450          28.280  
G21  22526425.061 5   -406811.67104      2909.678          31.721           0.000 0         0.00000         0.000           0.000  
G23  23276756.119 6         0.00000     -1701.654          22.136    23276609.223 2    179622.73308     -1268.293          28.718  
G24  24529211.958 6         0.00000     -1708.936          26.947           0.000 0         0.00000         0.000           0.000  
G27  22775071.433 4    303913.06902     -2155.460          41.422    22774904.749 2    239690.95506     -1609.852          31.573  
G28  23609690.638 5   -560724.68304      4024.459          33.584           0.000 0         0.00000         0.000           0.000  
G32  20545500.232 4   -136048.88103       963.058          36.432    20545331.157 2    -87072.60907       719.268          30.670  
R02  20707307.516 5   -357128.35102      2541.214          38.728  
R01  19711947.393 6    106249.85709      -749.935          30.801  
R24  19255012.429 7         0.00000      -188.026          26.401  
R23  22030262.863 6    473987.07109     -3387.438          30.707  
R17  21040274.108 6   -549339.55009      3891.833          28.792  
R08  23177390.217 6         0.00000     -2759.082          27.741  
E08  27031816.141 5    269863.20807     -1964.858          28.161    27031642.878 2         0.00000     -1467.603          22.030  
E26  23158089.281 5    -76441.33908       568.997          27.014    23157919.892 2    -56231.14305       424.144          32.541  
E33  25032784.444 5   -394217.74404      2832.280          31.993    25032614.775 2   -285321.49204      2114.989          35.603  
E07         0.000 0         0.00000         0.000           0.000    23505139.823 2     16111.37009      -113.566          23.766  
E13         0.000 0         0.00000         0.000           0.000    25817156.933 2    170871.09205     -1281.205          33.346  
> 2023 09 07 19 34 57.0004163  0 21
G02  23391030.109 5   -492834.92107      3503.308          27.397           0.000 0         0.00000         0.000           0.000  
G08  22520919.674 4     37797.89903      -278.969          36.353    22520746.097 2     42031.49709      -208.631          25.099  
G10  21161978.157 5     45160.29203      -302.575          34.718    21161804.283 4         0.00000      -225.103          20.749  
G21  22525877.647 5   -409721.34604      2910.076          31.987           0.000 0         0.00000         0.000           0.000  
G24  24529531.541 6         0.00000     -1709.804          26.403           0.000 0         0.00000         0.000           0.000  
G27  22775484.253 4    306068.67502     -2155.271          40.698    22775314.271 2    241300.67706     -1609.843          31.992  
G28  23608926.772 5   -564749.28804      4024.837          33.663           0.000 0         0.00000         0.000           0.000  
G32  20545316.464 4   -137011.83103       963.152          36.729    20545147.685 2    -87791.69907       719.241          30.519  
G18         0.000 0         0.00000         0.000           0.000    24760343.251 2    299252.81809     -2091.257          27.974  
G23         0.000 0         0.00000         0.000           0.000    23276932.401 2    180891.02808     -1267.185          28.726  
R02  20706836.238 5   -359669.13102      2540.772          38.433  
R01  19712093.695 6    107000.40409      -750.631          31.438  
R24  19255077.483 7     22375.28009      -184.848          26.696  
R23  22030882.223 6    477374.84709     -3386.823          30.381  
R17  21039548.319 6         0.00000      3889.773          28.231  
R08  23177893.865 6    392284.49409     -2757.237          27.314  
E08  27032188.494 5    271828.56408     -1965.263          26.965    27032017.918 2         0.00000     -1467.410          21.397  
E26  23157980.758 5    -77009.63207       568.309          27.228    23157811.963 2    -56655.63305       424.479          32.586  
E33  25032246.924 5   -397049.89405      2832.017          31.232    25032075.738 2   -287436.44704      2115.075          35.247  
E07         0.000 0         0.00000         0.000           0.000    23505168.895 2     16224.73309      -113.605          22.639  
E13         0.000 0         0.00000         0.000           0.000    25817483.723 2    172152.42305     -1281.276          33.212  
> 2023 09 07 19 34 58.0004163  0 21
G02  23390358.572 6   -496338.37109      3504.505          26.873           0.000 0         0.00000         0.000           0.000  
G08  22520971.239 4     38077.16503      -280.107          35.577    22520798.570 2     42239.95709      -208.361          24.295  
G18  24761023.181 6         0.00000     -2797.042          23.600    24760875.395 2    301344.09409     -2091.623          27.851  
G21  22525325.121 5   -412631.29705      2909.803          30.264           0.000 0         0.00000         0.000           0.000  
G24  24529860.426 6         0.00000     -1711.307          25.536           0.000 0         0.00000         0.000           0.000  
G27  22775894.665 4    308224.04302     -2155.556          40.859    22775724.386 2    242910.19706     -1609.910          31.767  
G28  23608163.500 5   -568774.34604      4024.933          33.558           0.000 0         0.00000         0.000           0.000  
G32  20545134.179 4   -137974.72603       962.376          36.678    20544965.401 2    -88510.74907       718.707          30.512  
G10         0.000 0         0.00000         0.000           0.000    21161862.741 4         0.00000      -224.850          21.503  
G23         0.000 0         0.00000         0.000           0.000    23277257.080 2    182159.15408     -1268.127          28.835  
R02  20706359.882 5   -362209.98002      2540.444          38.524  
R01  19712245.687 6    107750.61609      -750.245          31.219  
R24  19255109.557 7         0.00000      -185.844          26.023  
R23  22031506.697 6    480762.54009     -3387.955          28.815  
R17  21038819.231 6         0.00000      3890.407          28.307  
R08  23178400.218 7         0.00000     -2760.197          25.714  
E07  23505368.857 5     22052.52103      -151.963          34.951    23505197.670 2     16337.80709      -113.209          24.096  
E26  23157871.625 6    -77578.23908       568.290          26.860    23157704.050 2    -57080.26506       424.853          32.257  
E33  25031701.902 5   -399882.49405      2832.362          30.528    25031536.421 2   -289551.66704      2115.056          35.212  
E08         0.000 0         0.00000         0.000           0.000    27032392.644 2    197502.06709     -1467.471          22.084  
E13         0.000 0         0.00000         0.000           0.000    25817810.182 2    173433.49305     -1281.468          33.223  
> 2023 09 07 19 34 59.0004163  0 21
G02  23389700.228 5   -499841.90907      3503.770          27.688           0.000 0         0.00000         0.000           0.000  
G08  22521023.712 5     38356.44603      -279.090          35.106    22520853.119 2     42448.54009      -208.259          24.308  
G10  21162096.574 5     45765.75003      -302.382          34.446           0.000 0         0.00000         0.000           0.000  
G18  24761556.215 6         0.00000     -2797.908          24.569    24761407.819 2    303435.28209     -2090.738          27.927  
G21  22524774.113 5   -415541.40205      2910.401          30.225           0.000 0         0.00000         0.000           0.000  
G23  23277728.044 6         0.00000     -1701.808          26.223    23277579.054 2    183426.88209     -1267.278          28.310  
G24  24530177.304 6         0.00000     -1708.230          25.755           0.000 0         0.00000         0.000           0.000  
G27  22776304.780 4    310379.26502     -2154.646          40.930    22776134.797 2    244519.56306     -1608.862          31.680  
G28  23607403.229 5   -572799.75904      4026.222          33.640           0.000 0         0.00000         0.000           0.000  
G32  20544948.910 4   -138937.62903       963.440          36.650    20544781.929 2    -89229.78507       719.418          30.554  
R02  20705885.306 5   -364750.80002      2541.073          38.786  
R01  19712381.798 6    108500.85909      -749.401          30.888  
R24  19255124.250 6     22749.63209      -185.223          27.257  
R23  22032140.768 6    484150.08409     -3386.941          28.978  
R17  21038094.314 6   -561014.05509      3891.472          28.766  
R08  23178927.546 7         0.00000     -2756.306          25.596  
E13  25818296.450 4    240195.08903     -1714.741          36.580    25818136.658 2    174714.44105     -1280.798          33.277  
E26  23157765.807 5    -78146.88607       569.342          27.379    23157595.510 2    -57504.83906       424.784          31.995  
E33  25031166.773 5   -402715.34005      2833.610          30.461    25030997.681 2   -291667.08404      2115.621          35.394  
E07         0.000 0         0.00000         0.000           0.000    23505226.463 2     16450.95009      -112.930          23.358  
E08         0.000 0         0.00000         0.000           0.000    27032766.498 2    198968.98509     -1466.716          22.625  
> 2023 09 07 19 35 00.0004163  0 21
G02  23389034.694 5   -503346.24707      3504.312          27.740           0.000 0         0.00000         0.000           0.000  
G08  22521077.668 4     38635.50303      -279.437          35.964    22520906.482 2     42656.94909      -209.539          24.823  
G10  21162151.437 5     46067.66203      -301.888          34.835           0.000 0         0.00000         0.000           0.000  
G21  22524209.005 5   -418452.15906      2910.819          29.200           0.000 0         0.00000         0.000           0.000  
G23  23278056.928 6         0.00000     -1694.364          24.863    23277903.122 2    184694.15408     -1267.640          28.932  
G24  24530508.876 6         0.00000     -1712.038          25.268           0.000 0         0.00000         0.000           0.000  
G27  22776715.802 4    312533.93202     -2154.455          41.215    22776544.912 2    246128.62006     -1609.020          31.961  
G28  23606630.062 5   -576825.84304      4026.253          33.401           0.000 0         0.00000         0.000           0.000  
G32  20544763.641 4   -139900.74003       962.926          36.689    20544599.365 2    -89948.97907       718.851          30.597  
G18         0.000 0         0.00000         0.000           0.000    24761940.853 2    305525.85309     -2090.023          27.413  
R02  20705400.539 5   -367292.06802      2541.205          38.298  
R01  19712514.909 6    109250.67409      -749.597          30.939  
R24  19255183.302 6     22936.86209      -186.606          27.530  
R23  22032773.932 6    487537.21309     -3387.205          28.374  
R17  21037351.738 6   -564906.06809      3892.504          28.698  
R08  23179458.190 7         0.00000     -2759.591          25.628  
E13  25818624.723 4    241909.81503     -1714.554          36.551    25818463.431 2    175994.88305     -1280.462          33.627  
E26  23157655.469 5    -78715.99108       569.882          27.049    23157487.895 2    -57929.86206       425.216          32.061  
E33  25030627.440 5   -405548.80605      2833.552          30.937    25030458.068 2   -293783.02904      2116.077          35.232  
E07         0.000 0         0.00000         0.000           0.000    23505254.942 2     16563.61809      -112.740          24.082  
E08         0.000 0         0.00000         0.000           0.000    27033139.740 2    200435.28309     -1466.276          22.271  
> 2023 09 07 19 35 01.0004163  0 21
G02  23388370.661 5   -506851.17507      3504.560          28.401           0.000 0         0.00000         0.000           0.000  
G08  22521126.843 4     38914.80503      -279.195          35.405    22520958.344 2     42865.44109      -208.055          24.978  
G18  24762635.180 6         0.00000     -2802.599          26.191    24762472.980 2    307616.47309     -2090.449          27.268  
G21  22523663.686 5   -421362.94606      2910.957          29.625           0.000 0         0.00000         0.000           0.000  
G23  23278379.496 6         0.00000     -1691.576          24.519    23278226.003 2    185961.15008     -1266.643          28.773  
G24  24530835.945 6         0.00000     -1712.790          24.371           0.000 0         0.00000         0.000           0.000  
G27  22777125.603 4    314688.61302     -2154.352          40.657    22776955.324 2    247737.57805     -1608.626          32.365  
G28  23605859.897 5   -580852.21804      4026.894          33.178           0.000 0         0.00000         0.000           0.000  
G10         0.000 0         0.00000         0.000           0.000    21162041.117 5         0.00000      -224.655          21.236  
G32         0.000 0         0.00000         0.000           0.000    20544415.282 2    -90668.09807       719.442          30.270  
R02  20704929.278 5   -369833.19002      2541.496          38.350  
R01  19712647.111 6    110000.56809      -749.899          30.441  
R24  19255200.089 7     23125.01009      -192.179          27.056  
R23  22033410.690 6    490924.32409     -3386.607          29.068  
R17  21036641.235 6   -568797.74909      3891.493          29.477  
R08  23179964.229 6    403320.96509     -2755.354          27.880  
E13  25818950.903 4    243624.49303     -1714.247          36.440    25818789.017 2    177275.31105     -1280.324          33.621  
E26  23157544.259 6    -79284.97608       569.255          26.237    23157379.372 2    -58354.75606       425.026          31.989  
E33  25030087.512 5   -408382.39005      2833.558          30.806    25029919.031 2   -295899.01704      2116.282          35.024  
E07         0.000 0         0.00000         0.000           0.000    23505283.420 2     16676.36209      -112.685          23.320  
E08         0.000 0         0.00000         0.000           0.000    27033513.873 2    201901.45209     -1466.060          22.451  
> 2023 09 07 19 35 02.0004163  0 21
G02  23387705.110 5   -510356.30006      3505.632          29.000           0.000 0         0.00000         0.000           0.000  
G08  22521182.893 5     39193.90603      -279.054          34.854    22521011.410 2     43073.93009      -208.766          25.195  
G10  21162263.555 5     46670.70503      -301.012          34.921    21162096.277 5     48630.02409      -225.782          20.498  
G18  24763170.605 6         0.00000     -2799.321          25.915    24763006.014 2    309706.53509     -2090.206          28.477  
G21  22523100.375 5   -424274.25506      2910.838          28.859           0.000 0         0.00000         0.000           0.000  
G23  23278685.886 6         0.00000     -1695.156          25.417    23278548.292 2    187227.63508     -1266.078          29.104  
G24  24531139.038 6         0.00000     -1712.792          24.239           0.000 0         0.00000         0.000           0.000  
G27  22777535.422 4    316842.80202     -2153.874          40.752    22777365.753 2    249346.22906     -1608.424          32.251  
G28  23605094.513 5   -584879.24104      4027.309          33.430           0.000 0         0.00000         0.000           0.000  
G32  20544396.995 4   -141826.86903       963.213          36.047    20544233.015 2    -91387.33506       719.273          30.895  
R02  20704451.404 5   -372374.57902      2541.345          38.460  
R01  19712778.424 6    110749.97709      -749.173          30.457  
R24  19255227.067 6     23312.97709      -188.585          27.245  
R23  22034046.838 6    494311.02809     -3386.588          28.939  
R17  21035906.144 6   -572689.74409      3891.975          28.576  
R08  23180501.469 6    406075.97209     -2755.417          27.486  
E13  25819277.972 4    245338.59803     -1713.762          37.007    25819115.493 2    178555.29805     -1279.710          33.614  
E26  23157439.924 6    -79854.34808       569.315          26.647    23157270.849 2    -58780.03206       425.853          32.192  
E33  25029549.383 5   -411216.63305      2834.391          30.536    25029380.011 2   -298015.46404      2116.429          35.438  
E07         0.000 0         0.00000         0.000           0.000    23505312.196 2     16788.68909      -112.396          23.349  
E08         0.000 0         0.00000         0.000           0.000    27033887.709 2    203366.89009     -1465.293          21.468  
> 2023 09 07 19 35 03.0004163  0 22
G02  23387041.967 5   -513860.97806      3504.036          29.626           0.000 0         0.00000         0.000           0.000  
G08  22521236.553 5     39473.78203      -280.669          34.299    22521064.773 2     43282.88909      -209.245          24.598  
G10  21162319.623 5     46972.35003      -302.405          35.042    21162152.938 5         0.00000      -225.419          20.778  
G18  24763703.936 6         0.00000     -2794.443          24.995    24763539.642 2    311796.71608     -2090.388          28.613  
G21  22522544.551 5   -427185.12105      2909.894          30.558           0.000 0         0.00000         0.000           0.000  
G23  23279022.554 6         0.00000     -1697.885          25.441    23278870.562 2    188494.45408     -1267.308          29.376  
G24  24531482.598 6         0.00000     -1712.128          25.737           0.000 0         0.00000         0.000           0.000  
G27  22777946.444 4    318997.53202     -2155.964          40.963    22777775.257 2    250955.27905     -1609.813          32.328  
G28  23604326.145 5   -588905.89604      4025.449          32.878           0.000 0         0.00000         0.000           0.000  
G32  20544219.823 4   -142789.28903       961.415          35.991    20544049.543 2    -92106.07507       718.274          30.792  
R02  20703982.813 5   -374915.28202      2539.601          39.172  
R01  19712932.213 6    111500.15009      -751.408          30.390  
R24  19255264.550 6     23502.07909      -189.998          29.146  
R23  22034689.599 6    497698.28909     -3387.675          28.846  
R17  21035149.765 7   -576581.25509      3888.702          26.932  
R08  23181009.322 6    408831.28009     -2755.883          28.935  
E13  25819605.042 4    247053.15503     -1715.327          36.857    25819441.655 2    179835.66105     -1280.911          33.448  
E26  23157330.808 6    -80423.34108       568.270          26.185    23157163.216 2    -59204.79606       424.234          32.162  
E33  25029007.361 5   -414050.43705      2832.853          30.730    25028840.677 2   -300131.67104      2115.680          35.593  
E07         0.000 0         0.00000         0.000           0.000    23505340.971 2     16901.45709      -113.168          23.424  
E08         0.000 0         0.00000         0.000           0.000    27034260.655 2    204832.79609     -1466.043          21.227  
E19         0.000 0         0.00000         0.000           0.000    28590554.956 4   -362894.24109      2599.030          20.167  
> 2023 09 07 19 35 04.0004163  0 22
G02  23386374.932 5   -517365.93506      3505.467          29.865           0.000 0         0.00000         0.000           0.000  
G08  22521282.429 5     39753.77003      -280.082          34.132    22521117.245 3     43491.96109      -209.115          23.946  
G10  21162375.673 5     47273.74703      -301.149          35.068    21162211.396 5         0.00000      -224.583          20.714  
G18  24764237.563 6         0.00000     -2797.714          24.114    24764072.676 2    313886.85109     -2090.011          28.134  
G21  22521992.932 5   -430096.25705      2911.086          30.471           0.000 0         0.00000         0.000           0.000  
G23  23279344.824 6         0.00000     -1697.463          26.302    23279192.833 2    189760.96208     -1266.368          29.224  
G24  24531815.060 6         0.00000     -1710.519          26.047           0.000 0         0.00000         0.000           0.000  
G27  22778351.167 4    321152.02102     -2154.186          41.211    22778185.372 2    252564.14606     -1608.573          32.168  
G28  23603564.373 5   -592933.04904      4027.427          33.154           0.000 0         0.00000         0.000           0.000  
G32  20544032.145 4   -143751.69703       962.630          36.598    20543866.072 2    -92824.68207       718.762          30.559  
R02  20703497.453 5   -377456.11002      2541.256          39.476  
R01  19713051.224 6    112250.09209      -749.792          30.711  
R24  19255314.021 6     23691.42709      -188.887          29.202  
R23  22035328.748 6    501085.50209     -3387.240          29.299  
R17  21034404.780 7         0.00000      3891.917          26.336  
R08  23181524.348 6    411585.91609     -2756.061          28.001  
E08  27034805.381 5    285572.71807     -1962.343          27.350    27034635.399 2    206298.22909     -1464.941          22.399  
E13  25819928.830 4    248767.47703     -1714.024          37.119    25819768.131 2    181115.83305     -1280.010          33.706  
E26  23157227.974 5    -80992.28908       569.428          26.974    23157054.100 2    -59629.61606       424.880          32.239  
E33  25028469.842 5   -416884.58805      2834.376          30.867    25028301.046 2   -302248.04104      2116.484          35.333  
E07         0.000 0         0.00000         0.000           0.000    23505369.450 2     17014.09209      -112.175          24.030  
E19         0.000 0         0.00000         0.000           0.000    28589890.923 4         0.00000      2600.599          21.337  
> 2023 09 07 19 35 05.0004163  0 22
G02  23385707.304 5   -520871.78906      3506.340          28.738           0.000 0         0.00000         0.000           0.000  
G08  22521340.294 5     40032.26903      -277.615          34.527    22521170.905 2     43700.00609      -206.836          24.303  
G18  24764772.395 6         0.00000     -2800.864          26.248    24764606.007 2    315977.42308     -2091.296          28.647  
G21  22521441.610 5   -433007.85905      2911.197          31.008           0.000 0         0.00000         0.000           0.000  
G23  23279678.193 5    254099.40809     -1699.333          29.085    23279516.307 2         0.00000     -1268.438          28.702  
G24  24532127.750 6         0.00000     -1712.781          23.364           0.000 0         0.00000         0.000           0.000  
G27  22778765.784 4    323304.77802     -2151.445          41.380    22778595.191 2    254171.74005     -1606.783          32.575  
G28  23602794.818 5   -596960.56604      4027.415          32.559           0.000 0         0.00000         0.000           0.000  
G32  20543845.672 4   -144714.10103       962.257          35.983    20543682.286 2         0.00000       718.787          29.240  
G10         0.000 0         0.00000         0.000           0.000    21162266.556 5     49306.00709      -226.662          22.012  
R02  20703026.192 5   -379998.21402      2542.789          38.816  
R01  19713204.122 6    113000.63109      -751.735          33.007  
R24  19255334.106 6     23881.12609      -190.292          30.265  
R23  22035959.521 6    504472.51109     -3387.531          30.778  
R17  21033700.873 6   -584369.25109      3890.201          29.519  
R08  23182048.395 6    414342.10509     -2757.386          29.660  
E08  27035175.919 6         0.00000     -1963.621          25.264    27035008.345 2    207764.98709     -1468.292          21.241  
E26  23157120.637 5    -81561.35907       571.185          27.760    23156945.873 2    -60054.46805       424.685          32.329  
E33  25027932.009 5   -419719.40206      2835.413          29.194    25027761.433 2   -304364.91604      2116.981          35.224  
E07         0.000 0         0.00000         0.000           0.000    23505398.243 2     17127.33809      -113.471          23.083  
E13         0.000 0         0.00000         0.000           0.000    25820094.608 2    182396.33405     -1281.256          33.074  
E19         0.000 0         0.00000         0.000           0.000    28589229.281 4   -368096.23909      2603.237          21.683  
> 2023 09 07 19 35 06.0004163  0 22
G02  23385039.065 5   -524378.46709      3507.405          28.730           0.000 0         0.00000         0.000           0.000  
G08  22521397.845 5     40308.73803      -274.863          34.941    22521226.362 2         0.00000      -205.311          24.908  
G10  21162488.994 5         0.00000      -304.976          31.990    21162323.217 5     49533.41209      -227.924          22.003  
G18  24765294.924 6         0.00000     -2800.105          24.887    24765137.838 2    318068.57008     -2091.062          29.544  
G21  22520888.805 5         0.00000      2913.548          28.938           0.000 0         0.00000         0.000           0.000  
G23  23280010.375 5         0.00000     -1701.617          29.679    23279840.986 2    192298.47909     -1270.188          28.139  
G24  24532455.727 6         0.00000     -1714.912          26.519    24532296.528 2         0.00000     -1279.780          20.313  
G27  22779170.489 4    325454.96802     -2148.126          40.985    22779004.712 2    255777.37505     -1603.890          32.538  
G28  23602031.842 5   -600988.61003      4029.083          34.303           0.000 0         0.00000         0.000           0.000  
G32  20543668.500 4   -145676.27902       962.557          37.826    20543498.221 2    -94262.01009       720.060          27.680  
R02  20702548.021 5   -382542.56202      2546.041          39.432  
R01  19713355.224 6    113752.12709      -751.811          34.354  
R24  19255388.062 6     24070.51309      -189.038          32.105  
R23  22036586.071 6    507858.98809     -3386.017          32.062  
R17  21032983.756 6   -588259.54609      3890.626          29.359  
R08  23182565.236 6         0.00000     -2758.360          31.365  
E08  27035544.363 6         0.00000     -1965.315          24.532           0.000 0         0.00000         0.000           0.000  
E26  23157004.628 5    -82129.79407       568.277          27.784    23156838.537 2    -60479.15905       424.822          32.582  
E33  25027392.675 6         0.00000      2834.950          27.123    25027221.803 2   -306482.32804      2117.808          35.041  
E07         0.000 0         0.00000         0.000           0.000    23505426.722 2     17241.67809      -114.511          22.414  
E13         0.000 0         0.00000         0.000           0.000    25820419.880 2    183677.40706     -1280.729          31.768  
E19         0.000 0         0.00000         0.000           0.000    28588565.527 2   -370700.32009      2605.097          20.799  
> 2023 09 07 19 35 07.0004163  0 21
G02  23384365.435 5         0.00000      3508.431          29.432           0.000 0         0.00000         0.000           0.000  
G08  22521447.316 4     40581.06803      -270.883          35.835    22521278.224 3     44109.66709      -201.523          23.844  
G10  21162548.953 5     48187.20003      -307.718          34.342           0.000 0         0.00000         0.000           0.000  
G18  24765825.865 5         0.00000     -2800.613          30.945    24765670.872 2    320161.19305     -2093.822          32.422  
G21  22520337.186 5         0.00000      2916.984          29.160           0.000 0         0.00000         0.000           0.000  
G23  23280330.552 5         0.00000     -1709.111          28.752    23280165.072 2    193572.00809     -1275.758          27.632  
G24  24532786.094 5         0.00000     -1722.122          27.492    24532623.912 4         0.00000     -1282.845          20.951  
G27  22779578.510 4    327600.59902     -2143.568          40.923    22779413.623 2    257379.58906     -1600.449          32.311  
G28  23601268.273 5   -605017.21903      4028.521          34.673           0.000 0         0.00000         0.000           0.000  
G32  20543479.637 4   -146638.68903       962.125          37.019    20543315.343 2    -94980.49609       718.280          26.870  
R02  20702064.755 5   -385090.90602      2549.954          39.595  
R01  19713494.634 6    114504.89109      -754.059          34.485  
R24  19255429.733 6     24259.34109      -188.697          32.604  
R23  22037225.534 6    511244.95909     -3386.250          32.336  
R17  21032275.958 6         0.00000      3893.228          27.453  
R08  23183081.187 6    419865.25209     -2766.505          32.416  
E08  27035919.403 6         0.00000     -1969.202          24.611           0.000 0         0.00000         0.000           0.000  
E26  23156893.401 5    -82698.60507       568.843          27.471    23156730.607 2    -60903.82705       424.686          32.730  
E07         0.000 0         0.00000         0.000           0.000    23505455.497 2     17356.94909      -117.209          22.075  
E13         0.000 0         0.00000         0.000           0.000    25820746.356 2    184959.55306     -1282.723          31.226  
E33         0.000 0         0.00000         0.000           0.000    25026682.172 2   -308600.83004      2118.450          34.507  
> 2023 09 07 19 35 08.0004163  0 21
G02  23383702.291 5         0.00000      3511.553          29.036           0.000 0         0.00000         0.000           0.000  
G08  22521499.475 4     40848.83902      -265.386          36.826    22521330.086 2     44309.57809      -196.747          26.783  
G10  21162604.113 5     48497.41103      -311.246          34.824    21162441.931 5         0.00000      -232.062          20.875  
G18  24766366.089 5         0.00000     -2802.516          27.759    24766205.093 2    322255.13904     -2094.661          35.119  
G21  22519783.159 5         0.00000      2914.021          30.389           0.000 0         0.00000         0.000           0.000  
G23  23280656.121 5         0.00000     -1712.580          27.861    23280489.733 2         0.00000     -1279.415          27.021  
G24  24533118.259 6         0.00000     -1720.951          24.070           0.000 0         0.00000         0.000           0.000  
G27  22779990.126 4    329741.12202     -2137.724          40.262    22779820.737 2         0.00000     -1596.367          32.458  
G28  23600500.795 5   -609046.72703      4030.416          35.206           0.000 0         0.00000         0.000           0.000  
G32  20543301.557 4   -147601.35102       963.086          37.662    20543132.465 2         0.00000       719.403          26.753  
R02  20701587.177 5   -387643.71702      2555.411          38.832  
R01  19713640.325 6    115259.07909      -754.675          35.275  
R24  19255453.710 6     24447.25009      -187.046          32.777  
R23  22037850.008 6    514630.04009     -3383.832          32.545  
R17  21031559.452 6         0.00000      3891.172          27.107  
R08  23183587.836 6    422634.75809     -2771.659          32.216  
E07  23505651.568 5     23573.08005      -156.600          31.280           0.000 0         0.00000         0.000           0.000  
E26  23156787.582 5    -83267.09607       568.789          28.237    23156622.085 2    -61328.44005       425.045          32.452  
E33  25026311.338 6         0.00000      2837.755          24.307    25026141.652 2   -310720.57104      2120.444          34.919  
E13         0.000 0         0.00000         0.000           0.000    25821073.425 2    186242.84706     -1283.910          31.815  
E19         0.000 0         0.00000         0.000           0.000    28587236.257 4         0.00000      2609.358          20.378  
> 2023 09 07 19 35 09.0004163  0 21
G02  23383026.253 5         0.00000      3511.880          28.745           0.000 0         0.00000         0.000           0.000  
G08  22521548.039 5     41112.08803      -262.530          34.267    22521380.761 2         0.00000      -195.437          28.050  
G18  24766895.825 5         0.00000     -2801.023          27.684    24766739.035 2    324349.92204     -2095.013          35.650  
G21  22519225.258 5   -444661.06109      2919.153          33.206           0.000 0         0.00000         0.000           0.000  
G23  23280976.297 5         0.00000     -1714.428          27.321    23280816.506 2    196130.23609     -1281.350          27.777  
G24  24533447.126 6         0.00000     -1722.375          23.601           0.000 0         0.00000         0.000           0.000  
G27  22780395.146 4    331876.60702     -2134.227          40.408    22780226.961 2    260572.71205     -1593.677          32.431  
G28  23599736.633 4   -613077.52903      4031.516          35.320           0.000 0         0.00000         0.000           0.000  
G32  20543118.382 4   -148564.63702       963.051          37.737    20542948.696 2         0.00000       719.835          27.652  
G10         0.000 0         0.00000         0.000           0.000    21162502.483 5         0.00000      -230.605          21.319  
R02  20701111.711 5   -390200.94202      2558.203          40.168  
R01  19713782.126 6    116013.94709      -754.761          35.160  
R24  19255492.101 6     24634.05909      -186.763          33.470  
R23  22038484.672 6    518014.09809     -3383.928          32.793  
R08  23184111.866 6    425408.28309     -2773.539          31.798  
E07  23505682.734 5     23730.37605      -157.474          31.191           0.000 0         0.00000         0.000           0.000  
E08  27036671.595 5         0.00000     -1985.122          27.027           0.000 0         0.00000         0.000           0.000  
E13  25821560.286 5    257352.40904     -1719.266          34.208    25821400.809 2    187526.58806     -1283.699          31.142  
E26  23156680.246 5    -83836.10506       568.341          28.498    23156513.562 2    -61753.42205       425.369          32.951  
E33  25025765.408 6         0.00000      2840.076          24.344    25025601.131 2   -312841.81404      2121.839          34.124  
E19         0.000 0         0.00000         0.000           0.000    28586571.019 4         0.00000      2613.027          20.696  
> 2023 09 07 19 35 10.0004163  0 23
G02  23382358.921 5         0.00000      3514.889          32.721           0.000 0         0.00000         0.000           0.000  
G08  22521596.917 5     41371.69204      -256.642          32.447    22521432.030 2     44700.08308      -192.161          29.626  
G10  21162727.644 5     49124.57103      -316.583          34.881           0.000 0         0.00000         0.000           0.000  
G18  24767425.561 5         0.00000     -2802.432          27.251    24767272.959 2    326445.98804     -2097.170          36.146  
G21  22518669.137 5   -447581.34109      2921.824          35.070           0.000 0         0.00000         0.000           0.000  
G23  23281301.569 5         0.00000     -1721.945          27.608    23281142.982 2         0.00000     -1284.958          27.500  
G24  24533776.900 6         0.00000     -1723.721          22.185           0.000 0         0.00000         0.000           0.000  
G27  22780796.571 4    334008.30902     -2129.195          40.036    22780632.277 2    262164.48305     -1589.537          32.367  
G28  23598965.560 5   -617108.71809      4033.107          33.431           0.000 0         0.00000         0.000           0.000  
G32  20542935.504 4   -149528.38502       963.699          38.835    20542765.818 2         0.00000       720.206          27.682  
R02  20700629.056 5   -392761.73102      2563.269          41.490  
R11  24361293.416 7         0.00000      3813.506          22.451  
R01  19713917.941 5    116769.67809      -756.165          36.122  
R24  19255525.064 6     24820.16009      -185.721          34.060  
R23  22039116.632 6         0.00000     -3383.487          33.333  
R17  21030093.459 7         0.00000      3891.140          25.961  
R08  23184624.815 6    428185.84909     -2779.789          33.653  
E07  23505711.527 5     23888.98504      -159.534          31.643           0.000 0         0.00000         0.000           0.000  
E08  27037049.025 5    297418.58807     -1987.225          27.855           0.000 0         0.00000         0.000           0.000  
E13  25821894.859 5         0.00000     -1719.874          33.148    25821727.878 2    188811.39506     -1285.692          31.486  
E26  23156572.631 5    -84405.45006       568.977          29.237    23156405.039 2    -62178.44705       425.112          32.512  
E33  25025227.889 6         0.00000      2842.976          25.347    25025060.593 2   -314964.14405      2122.854          33.415  
E19         0.000 0         0.00000         0.000           0.000    28585901.873 2         0.00000      2619.628          21.847  
> 2023 09 07 19 35 11.0004163  0 20
G02  23381693.073 5         0.00000      3517.844          34.645           0.000 0         0.00000         0.000           0.000  
G08  22521644.277 4     41626.48002      -253.195          37.817    22521481.798 2     44890.32905      -189.185          33.176  
G10  21162786.398 5     49442.05203      -319.837          34.937           0.000 0         0.00000         0.000           0.000  
G18  24767966.082 5    431455.74709     -2811.799          32.903    24767808.384 2    328543.91204     -2099.493          35.395  
G21  22518117.518 5   -450503.51009      2922.724          30.803           0.000 0         0.00000         0.000           0.000  
G23  23281634.345 5         0.00000     -1727.496          28.738    23281470.069 2    198701.40709     -1289.802          27.190  
G27  22781204.295 4    336135.13702     -2125.827          39.114    22781037.610 2    263752.73606     -1587.380          32.061  
G28  23598195.098 5         0.00000      4030.805          31.402           0.000 0         0.00000         0.000           0.000  
G32  20542748.734 4   -150492.41502       963.635          39.544    20542581.753 2         0.00000       719.099          27.946  
R02  20700147.569 5   -395327.10901      2566.911          43.039  
R11  24360567.016 7         0.00000      3803.989          21.656  
R01  19714059.741 5    117526.28502      -758.037          37.965  
R24  19255551.152 6     25005.51509      -185.661          34.061  
R23  22039752.186 6    524780.25509     -3384.756          33.032  
R08  23185146.141 6    430968.29809     -2785.422          34.752  
E07  23505743.600 5     24049.15104      -162.009          32.784           0.000 0         0.00000         0.000           0.000  
E08  27037428.271 5         0.00000     -1992.959          28.254           0.000 0         0.00000         0.000           0.000  
E26  23156463.200 5    -84974.75305       568.554          30.130    23156296.516 2    -62603.48705       424.292          32.642  
E33  25024691.853 5         0.00000      2844.965          29.390    25024518.869 2   -317088.36405      2124.858          33.677  
E13         0.000 0         0.00000         0.000           0.000    25822055.244 2    190097.68805     -1287.921          32.337  
> 2023 09 07 19 35 12.0004163  0 22
G02  23381030.541 4   -545460.35709      3519.356          35.599           0.000 0         0.00000         0.000           0.000  
G08  22521696.139 4     41878.06902      -251.598          41.646    22521530.048 2     45078.18404      -187.627          35.738  
G18  24768503.601 5    434268.57509     -2813.848          32.237    24768343.512 2         0.00000     -2101.842          30.392  
G21  22517562.008 5         0.00000      2926.596          30.301           0.000 0         0.00000         0.000           0.000  
G23  23281958.727 5         0.00000     -1735.199          27.935    23281799.232 2         0.00000     -1292.187          27.196  
G27  22781610.501 4    338259.51902     -2124.516          39.254    22781441.129 2    265339.02405     -1586.400          32.377  
G28  23597439.312 5         0.00000      4031.587          33.728           0.000 0         0.00000         0.000           0.000  
G32  20542563.762 4   -151455.57502       963.073          38.695    20542397.985 2    -98577.38109       718.420          27.914  
G10         0.000 0         0.00000         0.000           0.000    21162684.158 5         0.00000      -238.532          21.277  
G24         0.000 0         0.00000         0.000           0.000    24534279.362 5         0.00000     -1302.200          23.646  
R02  20699667.008 5   -397895.30401      2568.104          42.720  
R11  24359889.197 7         0.00000      3802.059          22.692  
R01  19714201.228 5    118283.91002      -758.008          39.624  
R24  19255594.324 6     25191.32909      -186.153          33.004  
R23  22040387.741 6    528165.53609     -3386.124          32.729  
R17  21028613.088 6         0.00000      3899.884          31.078  
R08  23185675.284 5    433754.52109     -2786.898          37.742  
E07  23505772.986 5     24211.18304      -162.056          32.491           0.000 0         0.00000         0.000           0.000  
E08  27037804.201 5    301403.03105     -1995.253          30.213           0.000 0         0.00000         0.000           0.000  
E26  23156355.271 5         0.00000       567.399          28.548    23156188.883 2    -63028.01905       424.532          32.873  
E33  25024150.128 5         0.00000      2847.729          27.536    25023977.144 2   -319213.90505      2125.679          33.541  
E13         0.000 0         0.00000         0.000           0.000    25822383.518 2         0.00000     -1289.374          32.804  
> 2023 09 07 19 35 13.0004163  0 24
G02  23380356.596 5   -548980.85703      3522.186          34.394           0.000 0         0.00000         0.000           0.000  
G08  22521744.703 4     42128.12601      -247.902          43.366    22521577.425 2     45264.90604      -185.223          36.167  
G10  21162908.114 5     50084.25103      -322.970          34.774    21162746.228 5         0.00000      -238.720          20.096  
G18  24769034.541 5         0.00000     -2815.611          30.412    24768878.955 2         0.00000     -2101.523          26.170  
G21  22517002.292 5         0.00000      2923.619          31.573           0.000 0         0.00000         0.000           0.000  
G23  23282299.879 6         0.00000     -1732.682          25.842    23282128.099 2    201286.26509     -1294.894          27.681  
G24  24534768.928 6         0.00000     -1739.382          25.220    24534608.822 4         0.00000     -1306.336          25.560  
G27  22782011.629 4    340382.40202     -2120.219          40.200    22781845.241 2    266924.29805     -1583.085          32.369  
G28  23596666.459 4   -629196.92603      4029.318          35.914           0.000 0         0.00000         0.000           0.000  
G32  20542383.885 4   -152418.08402       963.151          37.645    20542215.107 2    -99296.33408       719.405          28.778  
R10  23898296.648 7         0.00000      1730.548          26.920  
R02  20699192.449 5   -400464.96501      2571.735          42.380  
R11  24359188.571 7         0.00000      3797.561          23.175  
R01  19714337.043 5    119042.49602      -758.998          38.385  
R24  19255626.101 6     25377.68009      -185.371          35.326  
R23  22041014.622 6    531551.79609     -3385.109          32.456  
R17  21027897.786 6         0.00000      3895.970          30.805  
R08  23186185.528 5    436543.43702     -2791.412          38.978  
E07  23505808.061 5     24374.81504      -163.700          32.687           0.000 0         0.00000         0.000           0.000  
E08  27038184.337 5    303399.14207     -1996.802          27.833           0.000 0         0.00000         0.000           0.000  
E19  28584047.369 5         0.00000      3531.938          29.383           0.000 0         0.00000         0.000           0.000  
E26  23156245.544 5    -86110.80205       568.034          30.283    23156080.971 2    -63451.94306       424.312          31.991  
E33  25023611.998 6         0.00000      2848.561          25.933    25023435.420 2   -321339.91705      2126.366          33.321  
E13         0.000 0         0.00000         0.000           0.000    25822711.791 2    192676.50105     -1290.513          32.961  
> 2023 09 07 19 35 14.0004163  0 24
G02  23379681.761 5   -552503.28103      3521.643          33.958           0.000 0         0.00000         0.000           0.000  
G08  22521791.469 4     42374.17102      -244.804          41.510    22521624.488 2     45448.70304      -183.146          35.602  
G18  24769564.574 5         0.00000     -2816.403          30.654    24769414.083 2    334849.37609     -2102.036          27.646  
G21  22516442.576 5         0.00000      2927.922          27.683           0.000 0         0.00000         0.000           0.000  
G23  23282617.665 5         0.00000     -1738.029          29.392    23282458.170 2    202582.75309     -1298.288          26.822  
G24  24535109.189 6         0.00000     -1738.073          23.620    24534943.098 2         0.00000     -1305.533          24.031  
G27  22782412.757 4    342500.21302     -2115.428          39.846    22782248.464 2    268505.89805     -1579.874          33.007  
G28  23595898.981 5   -633227.54503      4031.903          35.284           0.000 0         0.00000         0.000           0.000  
G32  20542198.913 4   -153381.47902       963.843          38.515    20542032.228 2   -100015.70008       719.914          28.700  
G10         0.000 0         0.00000         0.000           0.000    21162800.481 2         0.00000      -243.438          25.742  
R10  23897948.290 6   -283829.65009      1725.521          27.260  
R02  20698704.384 5   -403038.70901      2574.981          41.813  
R11  24358466.987 7         0.00000      3793.940          22.545  
R01  19714487.534 5    119802.06602      -760.980          39.355  
R24  19255663.881 6         0.00000      -186.341          32.818  
R23  22041643.581 6    534936.19209     -3382.878          32.843  
R17  21027152.801 6         0.00000      3895.809          29.319  
R08  23186713.467 5    439336.75002     -2795.253          37.429  
E19  28583376.425 5   -531243.32006      3529.221          28.963           0.000 0         0.00000         0.000           0.000  
E26  23156140.319 5    -86679.08805       567.382          31.142    23155971.837 2         0.00000       424.294          33.035  
E33  25023068.773 6         0.00000      2848.754          25.929    25022894.306 2   -323466.89404      2126.725          34.169  
E07         0.000 0         0.00000         0.000           0.000    23505669.855 5         0.00000      -122.943          22.689  
E08         0.000 0         0.00000         0.000           0.000    27038408.293 4         0.00000     -1492.470          21.446  
E13         0.000 0         0.00000         0.000           0.000    25823041.269 2    193966.56605     -1290.022          33.062  
> 2023 09 07 19 35 15.0004163  0 24
G02  23379010.539 5   -556025.52403      3521.955          34.386           0.000 0         0.00000         0.000           0.000  
G08  22521836.735 4     42617.27802      -241.085          38.254    22521670.662 2     45630.28405      -180.858          33.728  
G10  21163034.924 4     50736.50602      -329.557          37.624    21162861.940 2         0.00000      -243.394          22.886  
G18  24770101.500 5    442716.03009     -2816.167          31.989    24769950.398 2    336952.16504     -2102.480          35.383  
G21  22515879.266 5         0.00000      2930.145          29.063           0.000 0         0.00000         0.000           0.000  
G23  23282949.236 5         0.00000     -1743.704          28.632    23282790.038 2         0.00000     -1301.534          25.971  
G24  24535435.352 6         0.00000     -1762.829          23.597           0.000 0         0.00000         0.000           0.000  
G27  22782817.166 4    344613.20302     -2109.936          40.285    22782651.092 2    270083.75106     -1575.528          32.277  
G28  23595129.723 4   -637260.51403      4034.652          35.459           0.000 0         0.00000         0.000           0.000  
G32  20542015.441 4   -154344.70802       962.978          38.577    20541848.163 2         0.00000       719.994          28.607  
R10  23897666.783 7         0.00000      1712.261          24.784  
R02  20698222.008 5   -405615.63802      2578.626          40.247  
R11  24357765.768 7         0.00000      3789.859          23.827  
R01  19714620.347 5    120564.42402      -763.893          38.884  
R24  19255706.738 6     25747.37809      -184.531          31.298  
R23  22042272.242 6    538318.33609     -3380.794          32.470  
R17  21026433.904 6         0.00000      3894.117          29.675  
R08  23187235.403 5    442135.26903     -2801.211          36.506  
E08  27038948.813 5    307404.17007     -2009.751          27.533    27038789.929 4         0.00000     -1495.314          20.370  
E19  28582705.796 5   -534776.19108      3536.229          27.003    28582550.193 2         0.00000      2637.354          20.993  
E26  23156030.906 5    -87247.09605       567.632          30.012    23155863.907 2    -64300.44605       423.914          32.475  
E33  25022522.860 6         0.00000      2848.037          25.571    25022351.970 2   -325593.44705      2126.514          33.342  
E07         0.000 0         0.00000         0.000           0.000    23505702.226 4     18303.24809      -125.391          22.708  
E13         0.000 0         0.00000         0.000           0.000    25823370.746 2    195256.63205     -1289.905          33.741  
> 2023 09 07 19 35 16.0004163  0 23
G02  23378339.892 5   -559549.67204      3526.628          32.096           0.000 0         0.00000         0.000           0.000  
G08  22521876.016 4     42855.15203      -234.576          36.117    22521715.020 2         0.00000      -174.599          30.978  
G10  21163096.087 4     51067.89602      -333.034          37.839           0.000 0         0.00000         0.000           0.000  
G18  24770636.331 5         0.00000     -2818.443          29.524    24770486.731 2    339055.91404     -2104.656          36.219  
G21  22515326.146 5         0.00000      2927.644          31.483           0.000 0         0.00000         0.000           0.000  
G23  23283285.310 5         0.00000     -1748.902          28.902    23283122.517 2         0.00000     -1306.906          27.708  
G27  22783219.795 4    346720.20902     -2103.810          40.050    22783051.610 2    271657.21706     -1571.119          32.304  
G28  23594362.856 4   -641294.80303      4033.712          36.444           0.000 0         0.00000         0.000           0.000  
G32  20541833.767 4   -155308.64902       964.548          39.192    20541663.784 2         0.00000       720.792          26.882  
G24         0.000 0         0.00000         0.000           0.000    24535612.244 3         0.00000     -1316.223          22.169  
R10  23897321.112 7         0.00000      1713.019          24.378  
R02  20697739.055 5   -408197.76802      2585.255          39.396  
R01  19714775.933 5    121328.18702      -763.948          38.107  
R24  19255739.423 6     25930.53809      -182.204          32.456  
R23  22042919.191 6    541699.06109     -3380.756          33.761  
R17  21025704.799 6         0.00000      3894.790          29.872  
R08  23187745.647 6         0.00000     -2809.462          34.543  
E08  27039334.044 5         0.00000     -2014.847          27.344           0.000 0         0.00000         0.000           0.000  
E26  23155919.975 5    -87815.35605       568.963          30.433    23155755.699 2    -64724.77706       424.589          31.977  
E33  25021983.527 6         0.00000      2851.961          26.969    25021809.949 2   -327721.27805      2129.429          33.727  
E07         0.000 0         0.00000         0.000           0.000    23505733.409 2     18429.22609      -126.525          21.585  
E13         0.000 0         0.00000         0.000           0.000    25823699.613 2    196547.55905     -1292.171          32.963  
E19         0.000 0         0.00000         0.000           0.000    28581874.468 2         0.00000      2641.316          20.396  
> 2023 09 07 19 35 17.0004163  0 24
G02  23377670.170 5   -563077.98603      3529.803          34.102           0.000 0         0.00000         0.000           0.000  
G08  22521928.785 4     43085.98702      -227.513          37.803    22521758.803 2         0.00000      -170.237          31.454  
G10  21163157.233 4     51402.28002      -336.195          37.710           0.000 0         0.00000         0.000           0.000  
G18  24771175.962 5         0.00000     -2821.837          33.859    24771023.360 2    341162.51504     -2108.090          35.598  
G21  22514776.028 5         0.00000      2930.447          28.126           0.000 0         0.00000         0.000           0.000  
G23  23283618.068 5         0.00000     -1758.338          29.264    23283457.683 2    206496.41509     -1311.635          26.582  
G24  24536106.295 6         0.00000     -1771.868          26.229    24535951.599 3         0.00000     -1327.132          23.642  
G27  22783619.423 4    348820.51502     -2096.992          39.223    22783451.237 2         0.00000     -1566.068          32.178  
G28  23593595.988 4   -645329.27103      4034.624          35.329           0.000 0         0.00000         0.000           0.000  
G32  20541649.999 4   -156273.75202       965.808          40.711    20541481.220 2   -102175.60309       721.725          27.288  
R10  23897000.342 7         0.00000      1710.889          21.753  
R02  20697247.378 5   -410786.59302      2591.802          40.993  
R11  24356342.947 6   -595214.77809      3767.844          32.649  
R01  19714913.249 5    122092.31002      -764.428          38.288  
R24  19255775.702 6     26111.76209      -180.326          34.536  
R23  22043549.650 6    545079.46809     -3379.899          32.785  
R17  21024982.901 6         0.00000      3896.810          29.145  
R08  23188280.479 6         0.00000     -2814.593          32.244  
E08  27039720.479 6         0.00000     -2025.195          26.696           0.000 0         0.00000         0.000           0.000  
E26  23155815.954 5    -88384.40404       569.639          32.447    23155647.158 2    -65149.74306       425.336          31.335  
E33  25021440.301 6   -453871.25608      2855.972          26.310    25021266.427 2   -329852.03305      2131.923          33.234  
E07         0.000 0         0.00000         0.000           0.000    23505765.483 2     18556.08009      -127.415          21.819  
E13         0.000 0         0.00000         0.000           0.000    25824029.387 2    197840.31305     -1293.597          32.348  
E19         0.000 0         0.00000         0.000           0.000    28581200.226 2         0.00000      2646.691          20.935  
> 2023 09 07 19 35 18.0004163  0 22
G02  23377000.727 5   -566608.38104      3530.392          33.807           0.000 0         0.00000         0.000           0.000  
G08  22521969.549 4     43311.18803      -222.054          36.245    22521801.975 2     46148.49506      -166.749          31.169  
G10  21163221.991 4     51739.97502      -339.400          37.682           0.000 0         0.00000         0.000           0.000  
G18  24771712.888 5         0.00000     -2826.607          32.330    24771560.600 2    343269.13104     -2106.266          35.180  
G21  22514205.825 5         0.00000      2935.825          27.880           0.000 0         0.00000         0.000           0.000  
G23  23283947.249 5         0.00000     -1762.580          27.796    23283792.553 2    207809.92709     -1314.858          25.288  
G24  24536443.259 6         0.00000     -1779.500          25.468    24536289.767 3         0.00000     -1331.962          22.875  
G27  22784013.344 4    350913.58102     -2089.059          40.505    22783849.661 2         0.00000     -1560.170          32.581  
G28  23592828.807 5   -649366.57903      4039.816          35.082           0.000 0         0.00000         0.000           0.000  
G32  20541468.325 4   -157240.22002       967.260          39.878    20541297.749 2   -102897.33609       722.786          27.976  
R10  23896676.867 7         0.00000      1706.083          24.157  
R02  20696765.612 5   -413381.12602      2597.184          39.901  
R11  24355663.313 5   -598981.00109      3764.422          40.513  
R01  19715053.549 5    122857.90402      -766.702          39.352  
R24  19255809.572 6     26290.69709      -177.718          34.198  
R23  22044186.723 6    548456.92509     -3374.320          32.927  
R08  23188811.716 6         0.00000     -2821.601          31.116  
E07  23505967.242 4     25215.96003      -171.449          36.958    23505797.853 2     18684.05509      -128.268          23.180  
E08  27040106.914 6    313464.15409     -2029.505          25.811           0.000 0         0.00000         0.000           0.000  
E26  23155708.321 5    -88954.41804       570.922          32.552    23155537.745 2         0.00000       425.781          30.352  
E33  25020896.186 6         0.00000      2854.927          23.363    25020723.499 2   -331983.80505      2132.069          34.024  
E13         0.000 0         0.00000         0.000           0.000    25824358.551 2    199132.92205     -1291.664          32.465  
> 2023 09 07 19 35 19.0004163  0 23
G02  23376330.098 5         0.00000      3531.763          30.367           0.000 0         0.00000         0.000           0.000  
G08  22522015.426 5     43532.53903      -219.918          34.609    22521842.738 2         0.00000      -164.107          29.616  
G10  21163290.047 4     52081.55902      -343.451          37.442           0.000 0         0.00000         0.000           0.000  
G18  24772256.410 6         0.00000     -2824.543          28.276    24772096.915 2    345375.11604     -2106.197          34.526  
G21  22513645.813 5   -473954.92506      2933.924          28.510           0.000 0         0.00000         0.000           0.000  
G23  23284304.595 6         0.00000     -1769.845          25.638    23284128.627 2    209127.37809     -1320.092          24.693  
G24  24536773.626 6         0.00000     -1785.476          23.122           0.000 0         0.00000         0.000           0.000  
G27  22784416.269 4    352999.98901     -2083.943          42.306    22784247.473 2    276346.72206     -1556.629          32.191  
G28  23592057.141 5   -653407.96504      4042.961          33.119           0.000 0         0.00000         0.000           0.000  
G32  20541281.852 4   -158207.15002       966.608          39.105    20541113.963 2   -103619.34609       721.800          27.977  
R10  23896374.367 7         0.00000      1692.365          25.220  
R02  20696282.346 5   -415979.91603      2600.282          36.868  
R11  24354947.104 5   -602743.97109      3762.233          39.651  
R01  19715201.335 5    123626.48002      -769.902          37.488  
R24  19255835.050 6     26468.22909      -177.282          31.046  
R23  22044806.694 6    551830.53009     -3372.499          31.783  
R17  21023521.707 5   -638865.05009      3896.885          35.668  
R08  23189342.953 6         0.00000     -2827.894          33.472  
E08  27040491.238 6         0.00000     -2035.685          26.162           0.000 0         0.00000         0.000           0.000  
E26  23155599.205 5    -89524.57905       569.814          31.582    23155429.519 2    -66001.16806       425.217          31.035  
E33  25020355.351 6         0.00000      2854.029          20.726    25020180.273 2   -334115.13404      2130.867          34.324  
E07         0.000 0         0.00000         0.000           0.000    23505830.834 2     18813.71209      -130.701          23.686  
E13         0.000 0         0.00000         0.000           0.000    25824687.435 2    200424.63606     -1291.823          31.285  
> 2023 09 07 19 35 20.0004163  0 24
G02  23375655.263 5   -573667.89309      3529.643          29.593           0.000 0         0.00000         0.000           0.000  
G08  22522052.595 4     43750.78103      -217.096          36.103    22521884.409 2     46476.80306      -162.431          31.180  
G10  21163358.992 4     52425.88103      -345.324          37.227           0.000 0         0.00000         0.000           0.000  
G21  22513089.395 6         0.00000      2935.265          25.000           0.000 0         0.00000         0.000           0.000  
G23  23284630.181 5         0.00000     -1772.294          27.054    23284465.591 3    210447.28709     -1320.951          23.420  
G24  24537116.593 6         0.00000     -1785.631          20.872           0.000 0         0.00000         0.000           0.000  
G27  22784806.299 4    355081.58101     -2079.766          42.578    22784643.506 2    277901.14905     -1552.547          32.349  
G28  23591286.976 5   -657452.31904      4045.935          33.066           0.000 0         0.00000         0.000           0.000  
G32  20541100.771 4   -159174.50502       967.427          39.082    20540930.788 2   -104341.71809       722.567          27.436  
G18         0.000 0         0.00000         0.000           0.000    24772633.858 2    347480.22405     -2104.942          32.710  
R10  23896072.479 7         0.00000      1676.543          26.710  
R02  20695785.905 5   -418581.83803      2602.799          36.585  
R11  24354443.159 5   -606505.03902      3760.321          38.874  
R01  19715352.436 5    124397.12403      -771.461          35.862  
R24  19255881.520 7         0.00000      -177.129          26.830  
R23  22045434.448 6    555201.22009     -3369.425          31.696  
R17  21022798.012 6   -642761.12909      3895.198          34.627  
R08  23189860.980 5    456225.39209     -2831.453          36.960  
E07  23506033.797 4     25564.59603      -175.702          35.896    23505864.111 2         0.00000      -131.129          24.509  
E08  27040879.767 6         0.00000     -2037.090          26.060           0.000 0         0.00000         0.000           0.000  
E19  28579319.337 6         0.00000      3575.660          22.328           0.000 0         0.00000         0.000           0.000  
E26  23155489.478 5    -90095.01205       571.420          30.406    23155322.794 2    -66427.07305       426.074          32.618  
E33  25019807.938 6         0.00000      2858.815          21.380    25019637.345 2   -336246.35104      2131.095          34.544  
E13         0.000 0         0.00000         0.000           0.000    25825016.302 2         0.00000     -1290.870          30.928  
> 2023 09 07 19 35 21.0004163  0 22
G02  23374979.521 5   -577196.69909      3527.170          29.075           0.000 0         0.00000         0.000           0.000  
G08  22522095.173 4     43968.54002      -218.350          36.932    22521925.784 2     46639.28305      -162.589          32.709  
G10  21163421.063 4     52771.93002      -345.823          37.598           0.000 0         0.00000         0.000           0.000  
G18  24773319.477 4    459638.33409     -2817.253          38.093    24773169.579 2    349584.53005     -2103.326          33.246  
G21  22512524.898 6         0.00000      2935.142          22.684           0.000 0         0.00000         0.000           0.000  
G23  23284963.236 5    281865.95309     -1768.366          30.589    23284802.258 2    211768.61709     -1320.608          22.058  
G27  22785204.722 4    357160.92301     -2078.402          42.617    22785039.539 2    279453.98205     -1552.502          32.485  
G28  23590519.218 4   -661498.59603      4047.330          35.594           0.000 0         0.00000         0.000           0.000  
G32  20540915.798 4   -160141.51702       967.744          38.638    20540746.130 2   -105063.81909       722.711          26.946  
R10  23895758.008 6         0.00000      1676.520          27.255  
R02  20695304.436 5   -421184.66102      2602.608          37.703  
R11  24353725.170 5   -610265.52202      3761.718          37.505  
R01  19715485.546 6    125169.50603      -772.366          33.920  
R24  19255904.013 7         0.00000      -178.741          22.422  
R23  22046058.922 6    558570.18609     -3367.761          32.875  
R17  21022067.127 6   -646655.62309      3893.425          32.586  
R08  23190382.916 5    459058.00902     -2832.047          37.204  
E08  27041266.499 6    319572.66109     -2039.923          25.785           0.000 0         0.00000         0.000           0.000  
E26  23155377.954 5         0.00000       570.500          28.238    23155214.271 2    -66852.65405       425.953          33.230  
E07         0.000 0         0.00000         0.000           0.000    23505898.000 2     19076.10809      -131.874          25.002  
E13         0.000 0         0.00000         0.000           0.000    25825345.169 2         0.00000     -1289.337          30.419  
E33         0.000 0         0.00000         0.000           0.000    25019094.434 2   -338376.89004      2130.239          35.386  
> 2023 09 07 19 35 22.0004163  0 23
G02  23374318.175 6         0.00000      3524.108          25.190           0.000 0         0.00000         0.000           0.000  
G08  22522136.233 4     44188.27202      -221.149          39.021    22521968.956 2     46803.38805      -164.698          33.825  
G18  24773861.201 4    462454.23509     -2814.765          38.587    24773705.301 2         0.00000     -2101.935          33.504  
G21  22511964.571 6         0.00000      2934.573          20.750           0.000 0         0.00000         0.000           0.000  
G23  23285296.308 5    283633.18209     -1765.302          33.014    23285138.314 2         0.00000     -1318.638          22.025  
G24  24537817.202 5         0.00000     -1797.519          29.134    24537656.817 2         0.00000     -1340.518          20.399  
G27  22785600.738 4    359241.16401     -2080.780          42.919    22785436.165 2    281007.43805     -1554.159          32.353  
G28  23589745.737 4   -665546.48603      4048.832          36.363           0.000 0         0.00000         0.000           0.000  
G32  20540728.139 4   -161108.19102       967.149          39.389    20540561.751 2   -105785.72209       722.771          26.946  
G10         0.000 0         0.00000         0.000           0.000    21163314.337 2         0.00000      -256.711          24.620  
R10  23895428.827 7         0.00000      1680.101          26.562  
R02  20694824.171 5   -423785.87202      2600.319          38.737  
R11  24353028.732 5   -614028.36702      3765.834          41.208  
R01  19715630.052 6         0.00000      -772.094          32.350  
R24  19255936.086 7         0.00000      -179.616          21.680  
R23  22046694.773 6    561937.98809     -3367.225          33.977  
R17  21021327.534 6   -650548.49709      3892.627          30.023  
R08  23190931.551 5    461888.90103     -2828.876          36.361  
E08  27041655.935 6         0.00000     -2039.359          22.642           0.000 0         0.00000         0.000           0.000  
E13  25825834.438 5    279807.68604     -1724.709          33.275    25825672.552 2    204295.12807     -1287.728          30.375  
E26  23155270.932 5    -91234.78307       570.800          28.145    23155106.045 2    -67278.26105       425.812          33.790  
E07         0.000 0         0.00000         0.000           0.000    23505931.871 2     19207.46909      -130.611          24.567  
E33         0.000 0         0.00000         0.000           0.000    25018551.802 2   -340506.33404      2129.240          36.188  
> 2023 09 07 19 35 23.0004163  0 22
G02  23373650.547 6         0.00000      3525.709          25.837           0.000 0         0.00000         0.000           0.000  
G08  22522177.015 4     44411.01202      -223.879          39.686    22522011.517 2     46969.73204      -167.325          34.523  
G10  21163553.859 4     53461.03202      -344.161          37.565    21163382.690 2     53659.90009      -256.985          26.845  
G18  24774393.032 4    465266.83509     -2811.414          39.276    24774240.744 2    353787.49705     -2098.966          32.799  
G23  23285632.975 5    285396.89809     -1763.125          32.548           0.000 0         0.00000         0.000           0.000  
G27  22785998.864 4    361322.86401     -2082.345          43.107    22785832.477 2    282561.97206     -1554.622          32.139  
G28  23588975.886 4   -669596.50203      4051.084          35.895           0.000 0         0.00000         0.000           0.000  
G32  20540551.263 4   -162074.95502       966.328          39.067    20540377.075 2   -106507.62809       721.969          28.059  
G24         0.000 0         0.00000         0.000           0.000    24537998.579 2         0.00000     -1339.916          22.575  
R10  23895105.946 6   -299101.39709      1682.680          29.538  
R02  20694330.103 5   -426384.53802      2597.293          38.749  
R11  24352327.233 5   -617794.93301      3767.804          42.152  
R01  19715769.147 6    126715.32209      -773.489          33.058  
R23  22047327.047 6    565303.95609     -3364.910          34.217  
R17  21020612.233 6         0.00000      3889.308          32.331  
R08  23191454.377 6    464717.25203     -2828.523          35.111  
E07  23506136.631 5     26091.77504      -175.875          33.826    23505965.148 2     19337.98909      -130.333          23.890  
E13  25826161.804 5    281531.16203     -1722.375          34.798    25825999.918 2    205582.11107     -1286.485          30.007  
E19  28577280.454 6         0.00000      3569.818          26.522           0.000 0         0.00000         0.000           0.000  
E26  23155164.206 5    -91805.04306       569.534          28.780    23154997.208 2    -67704.15805       425.577          33.735  
E08         0.000 0         0.00000         0.000           0.000    27041876.593 2         0.00000     -1520.603          20.235  
E33         0.000 0         0.00000         0.000           0.000    25018009.484 2   -342634.35403      2127.118          36.495  
> 2023 09 07 19 35 24.0004163  0 21
G02  23372968.523 6         0.00000      3527.199          26.904           0.000 0         0.00000         0.000           0.000  
G08  22522221.670 4     44634.68502      -223.418          39.309    22522053.799 2     47136.73904      -166.506          34.877  
G10  21163618.023 4     53805.40002      -345.219          38.284    21163446.837 2     53917.03409      -257.474          27.502  
G18  24774929.364 4    468078.56009     -2811.198          38.870    24774775.558 2    355887.34606     -2100.154          31.957  
G23  23285968.752 5    287160.52509     -1764.347          33.399           0.000 0         0.00000         0.000           0.000  
G24  24538501.634 6         0.00000     -1797.264          26.381    24538339.748 2    206839.38809     -1340.976          23.604  
G27  22786392.803 4    363404.48801     -2081.119          43.349    22786228.806 2    284116.45106     -1554.284          31.631  
G28  23588209.001 5   -673647.36503      4051.159          34.768           0.000 0         0.00000         0.000           0.000  
G32  20540365.994 4   -163041.08802       965.774          39.098    20540193.604 2   -107229.07609       721.148          27.560  
R10  23894792.680 6   -300783.23409      1680.758          30.716  
R02  20693838.757 5   -428982.48803      2598.260          37.039  
R11  24351620.324 5   -621562.05602      3765.970          41.032  
R01  19715925.048 6    127489.26209      -774.326          33.748  
R23  22047959.914 6    568669.38209     -3365.461          33.093  
R17  21019880.126 6   -658328.69509      3889.075          33.706  
R08  23191982.019 6    467546.09604     -2829.433          33.467  
E19  28576604.711 5   -566839.25708      3571.161          27.139           0.000 0         0.00000         0.000           0.000  
E26  23155055.980 5    -92374.91706       569.434          29.776    23154888.388 2    -68129.67405       425.233          33.589  
E07         0.000 0         0.00000         0.000           0.000    23505998.426 2     19469.08909      -131.131          23.246  
E13         0.000 0         0.00000         0.000           0.000    25826327.895 2    206868.64907     -1286.649          30.668  
E33         0.000 0         0.00000         0.000           0.000    25017467.759 2   -344761.58304      2127.133          36.221  
> 2023 09 07 19 35 25.0004163  0 22
G02  23372298.487 5         0.00000      3520.873          27.344           0.000 0         0.00000         0.000           0.000  
G08  22522259.746 4     44857.53902      -223.239          38.818    22522096.360 2     47303.22304      -167.095          34.285  
G10  21163678.576 4     54151.25302      -347.644          38.011    21163512.188 2     54175.35908      -259.464          28.713  
G18  24775464.493 4    470890.30602     -2811.426          37.975    24775310.093 2    357986.41306     -2098.701          31.230  
G24  24538840.098 6         0.00000     -1795.628          25.550    24538681.214 2    208181.32909     -1343.376          22.307  
G27  22786790.022 4    365484.27101     -2079.285          43.145    22786623.931 2    285669.53306     -1552.921          31.272  
G28  23587435.538 4   -677699.57003      4052.167          36.331           0.000 0         0.00000         0.000           0.000  
G32  20540181.912 4   -164006.64102       964.424          38.097    20540009.835 2   -107950.15809       720.782          27.142  
G23         0.000 0         0.00000         0.000           0.000    23286144.720 2         0.00000     -1317.630          21.707  
R10  23894484.788 6   -302462.66509      1678.397          30.495  
R02  20693356.974 5   -431581.25902      2598.507          37.372  
R11  24350910.101 5   -625328.51602      3765.233          37.350  
R01  19716068.942 6    128264.69509      -776.792          33.566  
R24  19256026.915 7         0.00000      -176.895          24.379  
R23  22048582.886 6    572033.67709     -3364.243          33.696  
R17  21019156.134 6   -662217.06209      3886.606          34.578  
R08  23192504.252 6    470376.79904     -2832.443          33.027  
E19  28575924.484 6   -570412.41808      3573.482          26.257           0.000 0         0.00000         0.000           0.000  
E26  23154946.550 5    -92944.35706       569.010          28.829    23154779.865 2    -68554.83205       424.564          33.656  
E07         0.000 0         0.00000         0.000           0.000    23506032.593 2         0.00000      -132.822          23.991  
E13         0.000 0         0.00000         0.000           0.000    25826655.261 2         0.00000     -1286.481          30.168  
E33         0.000 0         0.00000         0.000           0.000    25016925.738 2   -346888.59004      2126.416          35.730  
> 2023 09 07 19 35 26.0004163  0 22
G02  23371632.342 5         0.00000      3519.911          27.363           0.000 0         0.00000         0.000           0.000  
G08  22522304.419 4     45079.86702      -221.442          38.203    22522138.327 2     47469.19105      -165.349          33.657  
G10  21163749.930 4     54499.66302      -349.082          38.000    21163579.947 2         0.00000      -261.002          28.936  
G18  24775997.527 4    473703.80903     -2817.624          36.036    24775844.331 2    360086.27508     -2098.522          28.636  
G23  23286640.289 5    290693.40805     -1768.635          30.705    23286479.293 3         0.00000     -1320.962          23.924  
G24  24539189.958 6         0.00000     -1803.094          26.103    24539022.383 2    209525.81009     -1345.346          21.599  
G27  22787184.240 3    367562.44401     -2077.052          43.834    22787019.056 2    287221.41206     -1551.242          30.930  
G28  23586664.483 4   -681752.51103      4053.254          36.705           0.000 0         0.00000         0.000           0.000  
G32  20539993.938 4   -164970.93102       964.041          37.914    20539825.456 2   -108670.12609       719.645          26.417  
R10  23894181.102 6   -304138.39409      1673.272          27.404  
R02  20692863.220 5   -434180.50403      2599.921          36.775  
R11  24350206.787 5   -629092.58903      3760.248          35.817  
R01  19716208.352 6    129042.41209      -778.521          32.461  
R24  19256055.394 7         0.00000      -177.875          24.920  
R23  22049217.830 6    575397.46809     -3363.504          33.133  
R17  21018429.141 6         0.00000      3887.306          34.753  
R08  23193030.393 6    473210.42503     -2834.951          33.791  
E19  28575240.366 6   -573988.43509      3577.003          26.001           0.000 0         0.00000         0.000           0.000  
E26  23154836.229 6         0.00000       568.476          26.744    23154672.232 2    -68978.97605       423.845          33.935  
E33  25016551.885 5         0.00000      2847.681          27.573    25016383.403 2         0.00000      2126.376          34.758  
E07         0.000 0         0.00000         0.000           0.000    23506066.167 2     19734.70409      -133.449          22.603  
E13         0.000 0         0.00000         0.000           0.000    25826983.535 2         0.00000     -1286.702          30.258  
> 2023 09 07 19 35 27.0004163  0 23
G02  23370972.201 6         0.00000      3519.546          26.922           0.000 0         0.00000         0.000           0.000  
G08  22522343.996 4     45300.53202      -220.306          37.791    22522179.999 2     47634.02005      -165.031          33.242  
G10  21163813.780 4     54849.18902      -350.641          37.999    21163646.502 2     54696.63707      -262.124          29.702  
G18  24776536.547 5         0.00000     -2818.289          30.574    24776377.366 3         0.00000     -2097.050          23.047  
G21  22509200.788 6         0.00000      2927.187          24.436           0.000 0         0.00000         0.000           0.000  
G23  23286976.642 5    292462.56806     -1770.493          29.550    23286817.164 2    219670.30609     -1321.219          24.538  
G24  24539533.814 6         0.00000     -1806.376          24.718    24539366.240 2    210872.18309     -1347.142          22.690  
G27  22787579.069 3    369637.85701     -2074.545          43.673    22787414.182 2    288771.18007     -1548.870          30.718  
G28  23585894.911 4   -685807.29302      4055.380          38.040           0.000 0         0.00000         0.000           0.000  
G32  20539810.763 4   -165935.48302       964.193          37.948    20539638.093 2         0.00000       720.174          25.650  
R10  23893873.210 7         0.00000      1669.190          24.192  
R02  20692381.158 5   -436781.56203      2600.987          36.312  
R11  24349494.487 5         0.00000      3765.120          35.670  
R01  19716356.434 6    129821.03009      -779.587          32.843  
R24  19256091.079 7         0.00000      -180.241          23.503  
R23  22049830.909 6    578759.50009     -3361.661          32.039  
R17  21017699.146 6         0.00000      3886.177          34.930  
R08  23193559.519 6    476046.10703     -2837.189          33.737  
E26  23154727.410 6    -94080.44209       567.556          24.949    23154563.413 2    -69403.34705       424.108          33.544  
E33  25016008.363 5         0.00000      2847.490          27.702    25015841.085 2         0.00000      2126.009          34.468  
E07         0.000 0         0.00000         0.000           0.000    23506099.759 2     19868.73609      -134.568          23.022  
E13         0.000 0         0.00000         0.000           0.000    25827311.512 2    210727.90807     -1286.357          30.068  
E19         0.000 0         0.00000         0.000           0.000    28574405.443 2         0.00000      2671.880          21.545  
> 2023 09 07 19 35 28.0004163  0 22
G02  23370291.066 5         0.00000      3523.800          28.976           0.000 0         0.00000         0.000           0.000  
G08  22522389.262 4     45520.08803      -215.975          37.062    22522221.373 2         0.00000      -164.826          32.156  
G10  21163878.538 4     55200.14803      -350.878          35.547    21163713.354 2     54958.61407      -261.447          30.782  
G21  22508628.491 6         0.00000      2924.924          24.065           0.000 0         0.00000         0.000           0.000  
G23  23287315.717 5         0.00000     -1771.807          28.680    23287153.517 2    220992.73909     -1322.849          23.274  
G24  24539875.577 6         0.00000     -1806.270          21.757    24539710.096 2         0.00000     -1347.391          20.581  
G27  22787972.397 4    371711.44501     -2072.081          42.673    22787807.824 2    290319.69107     -1547.672          30.513  
G28  23585119.946 4   -689863.39802      4056.903          38.186           0.000 0         0.00000         0.000           0.000  
G32  20539623.994 4   -166899.81703       965.329          36.710    20539455.215 2   -110110.55709       720.891          26.560  
G18         0.000 0         0.00000         0.000           0.000    24776914.588 2         0.00000     -2097.085          26.254  
R10  23893560.223 7         0.00000      1669.829          20.272  
R02  20691897.595 5   -439383.59603      2603.434          36.925  
R11  24348807.070 6   -636617.38709      3760.112          33.623  
R01  19716503.644 6    130600.72809      -779.557          33.778  
R23  22050463.182 6    582120.51109     -3360.262          30.537  
R17  21016975.450 6   -673874.25409      3885.685          33.569  
R08  23194096.148 5    478883.56203     -2838.009          35.787  
E07  23506300.908 6         0.00000      -180.530          27.314    23506133.927 2     20003.38909      -134.995          22.656  
E19  28573875.410 6         0.00000      3582.287          25.277    28573724.309 2         0.00000      2675.058          23.622  
E26  23154616.775 6    -94648.53509       569.073          24.614    23154455.483 2    -69827.49405       424.821          33.597  
E33  25015469.640 5         0.00000      2846.915          28.226    25015299.657 2   -353267.31704      2126.405          34.996  
E13         0.000 0         0.00000         0.000           0.000    25827639.192 2    212013.78006     -1285.511          31.253  
> 2023 09 07 19 35 29.0004163  0 22
G02  23369626.422 5   -605381.66209      3525.509          29.308           0.000 0         0.00000         0.000           0.000  
G08  22522429.729 4     45738.56703      -218.087          36.664    22522263.341 2     47961.44206      -162.478          31.487  
G10  21163948.391 5     55551.78203      -352.333          34.379    21163780.206 2     55221.18206      -262.705          31.036  
G18  24777603.802 5         0.00000     -2809.328          31.144    24777448.809 2         0.00000     -2098.045          29.043  
G21  22508062.179 6         0.00000      2924.993          22.590           0.000 0         0.00000         0.000           0.000  
G23  23287640.989 6         0.00000     -1773.194          26.442    23287490.795 2         0.00000     -1323.809          23.136  
G24  24540220.637 6         0.00000     -1806.194          20.883           0.000 0         0.00000         0.000           0.000  
G27  22788368.429 4    373782.83701     -2070.483          42.946    22788202.042 2    291866.48307     -1546.195          30.390  
G28  23584351.579 4   -693920.99402      4058.409          37.837           0.000 0         0.00000         0.000           0.000  
G32  20539445.617 4   -167864.22803       964.327          36.041    20539272.040 2   -110830.71209       719.953          26.982  
R02  20691406.232 5   -441987.07502      2604.111          37.652  
R11  24348120.230 6   -640375.35809      3755.938          28.999  
R01  19716639.442 6    131381.04709      -780.713          33.364  
R24  19256178.924 6     28264.86109      -180.761          28.586  
R23  22051097.829 6    585480.28109     -3359.210          31.157  
R17  21016255.053 6         0.00000      3882.946          34.758  
R08  23194623.494 6    481722.29103     -2839.317          34.880  
E07  23506337.187 6         0.00000      -180.537          26.266    23506168.408 2     20138.30309      -135.540          20.316  
E19  28573197.574 6   -584734.19909      3586.244          24.322    28573042.284 2         0.00000      2676.634          22.890  
E26  23154513.051 6         0.00000       566.676          24.420    23154347.867 2    -70251.84005       424.364          33.658  
E33  25014926.118 5         0.00000      2846.820          27.251    25014757.932 2   -355393.50304      2125.313          34.197  
E13         0.000 0         0.00000         0.000           0.000    25827966.854 2    213299.31206     -1285.599          32.134  
> 2023 09 07 19 35 30.0004163  0 22
G02  23368948.900 5         0.00000      3525.388          28.761           0.000 0         0.00000         0.000           0.000  
G08  22522472.011 4     45956.56803      -217.817          37.048    22522304.122 2         0.00000      -162.003          28.578  
G10  21164013.742 5     55906.04103      -355.443          34.197    21163847.965 2     55485.61506      -265.225          30.981  
G18  24778131.148 5         0.00000     -2806.704          30.714    24777983.938 2         0.00000     -2100.096          29.254  
G21  22507508.763 6         0.00000      2925.456          21.548           0.000 0         0.00000         0.000           0.000  
G23  23287992.349 6         0.00000     -1776.441          24.911    23287828.666 2    223640.55709     -1322.267          20.338  
G24  24540567.199 6         0.00000     -1806.008          22.407           0.000 0         0.00000         0.000           0.000  
G27  22788762.054 3    375853.28401     -2069.991          43.511    22788595.963 2    293412.57106     -1545.473          30.898  
G28  23583579.022 4   -697978.12403      4056.061          36.817           0.000 0         0.00000         0.000           0.000  
G32  20539257.050 4   -168827.02702       962.040          37.277    20539087.364 2   -111549.68709       718.247          28.150  
R02  20690912.478 5   -444590.81002      2604.133          38.936  
R11  24347418.120 7         0.00000      3755.217          24.698  
R01  19716804.940 6    132163.44609      -783.432          33.594  
R24  19256181.611 7         0.00000      -178.519          24.560  
R23  22051714.503 6    588840.74609     -3361.080          31.759  
R17  21015528.949 5   -681642.97409      3883.715          35.900  
R08  23195156.214 5    484563.49603     -2843.091          36.785  
E07  23506369.574 6         0.00000      -182.960          23.878           0.000 0         0.00000         0.000           0.000  
E19  28572514.939 6         0.00000      3587.275          24.642    28572359.353 2         0.00000      2678.861          22.331  
E26  23154408.716 6    -95783.08609       566.104          24.277    23154240.235 2    -70674.92705       422.494          33.254  
E33  25014380.484 5   -490930.09508      2847.138          27.148    25014215.300 2   -357519.91504      2125.952          34.112  
E13         0.000 0         0.00000         0.000           0.000    25828295.128 2    214585.91805     -1287.594          32.396  
> 2023 09 07 19 35 31.0004163  0 23
G02  23368275.269 5   -612428.95706      3524.209          29.487           0.000 0         0.00000         0.000           0.000  
G08  22522514.572 4     46174.12103      -216.498          36.015    22522345.200 2         0.00000      -162.217          28.960  
G10  21164080.000 5     56262.53403      -356.723          34.201    21163916.021 2         0.00000      -266.849          30.059  
G18  24778673.762 5         0.00000     -2813.373          30.679    24778519.973 2         0.00000     -2100.306          28.506  
G21  22506959.535 6         0.00000      2926.661          23.622           0.000 0         0.00000         0.000           0.000  
G23  23288336.799 6         0.00000     -1783.142          23.899           0.000 0         0.00000         0.000           0.000  
G24  24540908.368 6         0.00000     -1807.944          20.488           0.000 0         0.00000         0.000           0.000  
G27  22789155.975 3    377923.15601     -2070.085          43.756    22788990.495 2    294958.23806     -1545.964          32.058  
G28  23582803.744 5   -702033.93603      4054.794          34.822           0.000 0         0.00000         0.000           0.000  
G32  20539083.473 4   -169788.21002       960.310          38.292    20538906.301 2   -112267.37907       716.791          30.702  
R10  23892612.886 7         0.00000      1665.355          26.390  
R02  20690429.508 5   -447195.11802      2604.203          38.728  
R11  24346716.011 7         0.00000      3755.068          21.035  
R01  19716943.146 6    132947.31509      -784.395          34.570  
R24  19256216.093 6         0.00000      -183.259          27.626  
R23  22052361.452 6    592202.70809     -3362.862          33.185  
R17  21014800.752 5   -685527.02609      3883.705          35.931  
R08  23195683.856 5    487406.57402     -2842.500          37.091  
E07  23506406.743 6         0.00000      -184.619          22.968           0.000 0         0.00000         0.000           0.000  
E13  25828777.504 5    295313.82404     -1726.804          33.468    25828623.105 2    215874.21506     -1289.194          31.541  
E26  23154298.099 6    -96348.11609       564.334          24.526    23154132.619 2    -71096.81305       420.688          32.452  
E19         0.000 0         0.00000         0.000           0.000    28571676.124 2         0.00000      2679.709          22.246  
E33         0.000 0         0.00000         0.000           0.000    25013673.576 2   -359646.28304      2126.365          34.239  
> 2023 09 07 19 35 32.0004163  0 20
G02  23367607.031 5   -615953.93609      3525.218          28.129           0.000 0         0.00000         0.000           0.000  
G08  22522553.555 5     46391.30303      -217.090          34.849    22522385.667 2     48448.53109      -162.268          28.395  
G10  21164149.854 5     56619.58803      -357.652          33.960    21163983.169 2     56018.27907      -267.536          30.689  
G18  24779209.205 5         0.00000     -2816.410          33.578    24779055.398 2         0.00000     -2102.254          28.962  
G23  23288673.780 6         0.00000     -1784.166          22.970           0.000 0         0.00000         0.000           0.000  
G27  22789548.710 3    379993.55501     -2070.967          43.781    22789384.416 2    296504.27705     -1546.697          33.837  
G28  23582026.389 5   -706088.71504      4054.465          33.364           0.000 0         0.00000         0.000           0.000  
G32  20538895.499 4   -170748.09403       958.465          36.993    20538725.831 2   -112984.21905       716.072          33.355  
R10  23892294.506 6   -314138.16809      1661.580          29.697  
R02  20689947.743 5   -449799.09802      2603.025          39.075  
R11  24346012.994 7         0.00000      3754.567          21.229  
R01  19717080.741 6    133731.71309      -785.291          35.311  
R24  19256265.250 6     28803.64609      -185.984          31.972  
R23  22052989.520 6    595565.97509     -3364.111          35.393  
R17  21014069.553 6   -689411.21409      3883.745          35.406  
E13  25829115.358 5    297040.22205     -1727.104          31.720    25828951.378 2    217163.48006     -1289.644          30.943  
E33  25013298.239 5   -496625.61606      2848.127          28.938    25013131.555 2   -361773.11104      2126.853          34.327  
E07         0.000 0         0.00000         0.000           0.000    23506275.134 4     20531.80809      -136.029          21.404  
E19         0.000 0         0.00000         0.000           0.000    28570993.193 2         0.00000      2678.616          21.612  
E26         0.000 0         0.00000         0.000           0.000    23154024.986 2    -71517.89606       420.023          31.184  
> 2023 09 07 19 35 33.0004163  0 22
G02  23366939.385 5   -619478.99009      3526.223          27.339           0.000 0         0.00000         0.000           0.000  
G08  22522594.022 5     46609.23103      -217.537          35.115    22522426.431 2         0.00000      -162.795          28.825  
G10  21164217.910 5     56978.28503      -360.110          34.921    21164051.225 2     56285.99407      -268.604          30.467  
G18  24779745.223 4    493398.69509     -2817.129          36.923    24779591.137 2    374790.97105     -2104.042          32.870  
G21  22505853.610 6         0.00000      2921.962          25.303           0.000 0         0.00000         0.000           0.000  
G23  23289010.447 5    303111.48009     -1780.188          30.420           0.000 0         0.00000         0.000           0.000  
G24  24541590.096 6         0.00000     -1809.493          23.691           0.000 0         0.00000         0.000           0.000  
G27  22789943.242 3    382065.17601     -2071.990          44.412    22789779.245 2    298051.27204     -1547.442          34.350  
G28  23581261.616 5   -710141.49403      4051.069          34.420           0.000 0         0.00000         0.000           0.000  
G32         0.000 0         0.00000         0.000           0.000    20538543.843 2   -113699.29704       713.832          34.657  
R10  23891973.422 6   -315799.16709      1659.950          29.908  
R02  20689452.785 5   -452402.07502      2603.200          39.521  
R11  24345303.084 7         0.00000      3755.029          22.107  
R01  19717231.842 6    134517.49609      -786.796          33.139  
R24  19256299.138 6     28991.05409      -189.378          32.865  
R23  22053614.901 6    598931.55609     -3367.243          34.995  
R17  21013339.261 5   -693295.31409      3883.340          35.788  
R08  23196748.127 6    493092.74104     -2844.051          32.750  
E19  28570463.770 5   -599085.11106      3588.492          28.754           0.000 0         0.00000         0.000           0.000  
E33  25012754.124 5   -499473.25107      2847.386          28.258    25012589.533 2   -363899.61505      2126.355          33.780  
E13         0.000 0         0.00000         0.000           0.000    25829280.542 2    218454.57606     -1292.640          31.268  
E26         0.000 0         0.00000         0.000           0.000    23153917.667 2    -71937.41607       418.556          30.401  
> 2023 09 07 19 35 34.0004163  0 24
G02  23366263.957 6   -623008.67709      3528.542          26.060           0.000 0         0.00000         0.000           0.000  
G08  22522636.287 5         0.00000      -210.439          33.869    22522469.009 2     48771.66306      -158.507          32.088  
G10  21164288.653 5     57337.10204      -359.432          33.030    21164119.263 2     56553.95706      -267.382          31.067  
G18  24780279.165 4    496215.89309     -2819.182          38.082    24780127.156 2    376894.55104     -2104.449          34.232  
G21  22505305.289 6         0.00000      2921.112          23.911           0.000 0         0.00000         0.000           0.000  
G23  23289346.800 5    304892.80109     -1783.934          29.783           0.000 0         0.00000         0.000           0.000  
G24  24541935.453 5         0.00000     -1812.964          29.903    24541781.961 2         0.00000     -1355.749          20.867  
G27  22790337.756 3    384134.02301     -2066.772          44.080    22790172.887 2    299596.21204     -1543.675          34.520  
G28  23580489.060 5   -714194.31603      4052.849          34.414           0.000 0         0.00000         0.000           0.000  
G32  20538530.354 5         0.00000       959.613          34.689    20538361.278 2   -114415.22604       716.659          34.920  
R10  23891676.926 6   -317457.58909      1658.382          28.365  
R02  20688965.330 5   -455008.11302      2608.299          40.140  
R11  24344602.178 7         0.00000      3755.949          22.473  
R01  19717384.741 6    135302.44109      -783.900          34.569  
R24  19256336.011 6     29177.14309      -185.234          33.663  
R23  22054248.955 6    602297.27209     -3366.160          34.158  
R17  21012621.848 5   -697181.25709      3887.211          36.929  
R08  23197284.756 6         0.00000     -2844.543          31.708  
E08  27046317.709 5         0.00000     -2051.127          30.710    27046159.121 2         0.00000     -1532.666          20.571  
E19  28569781.746 5   -602676.03307      3592.977          28.063    28569626.753 2         0.00000      2681.432          20.815  
E33  25012212.696 5   -502323.83707      2852.780          28.286    25012047.198 2   -366028.30504      2130.095          34.783  
E07         0.000 0         0.00000         0.000           0.000    23506347.378 4         0.00000      -139.659          20.392  
E13         0.000 0         0.00000         0.000           0.000    25829610.613 2    219746.31006     -1292.701          31.185  
E26         0.000 0         0.00000         0.000           0.000    23153810.034 2    -72357.82207       421.179          30.668  
> 2023 09 07 19 35 35.0004163  0 23
G02  23365589.123 6         0.00000      3530.697          22.980           0.000 0         0.00000         0.000           0.000  
G08  22522680.052 4     47033.83909      -208.748          37.876    22522510.680 2     48928.79904      -155.593          34.590  
G10  21164360.897 5     57695.82204      -358.858          32.021    21164188.523 2         0.00000      -268.486          30.310  
G18  24780819.685 4         0.00000     -2820.320          35.941    24780664.396 2    379000.98404     -2107.407          34.082  
G21  22504748.871 6         0.00000      2925.111          24.844           0.000 0         0.00000         0.000           0.000  
G24  24542283.812 5         0.00000     -1814.988          27.074           0.000 0         0.00000         0.000           0.000  
G27  22790732.585 3    386200.20801     -2065.119          43.478    22790566.215 2    301139.08404     -1542.167          35.304  
G28  23579719.785 5   -718245.11904      4048.442          32.874           0.000 0         0.00000         0.000           0.000  
G32  20538347.493 4   -173624.51709       960.883          35.701    20538178.103 2   -115132.21705       717.418          33.107  
G23         0.000 0         0.00000         0.000           0.000    23289522.786 2         0.00000     -1331.269          22.731  
R10  23891361.251 7         0.00000      1655.689          26.663  
R02  20688476.061 5   -457618.17202      2611.908          39.901  
R11  24343897.957 7         0.00000      3752.507          23.442  
R01  19717530.136 6    136085.60909      -781.802          34.781  
R24  19256375.884 6     29361.92909      -184.545          32.576  
R23  22054873.132 6    605664.55809     -3368.564          33.312  
R17  21011903.859 5   -701070.43203      3891.249          36.848  
R08  23197811.788 6    498783.06109     -2846.903          32.588  
E07  23506550.341 6         0.00000      -188.765          23.668    23506383.360 4         0.00000      -136.397          20.219  
E13  25830099.585 5    302231.09107     -1733.287          28.326    25829940.090 2    221039.86206     -1294.720          31.252  
E33  25011673.362 6         0.00000      2854.670          25.617    25011504.584 2   -368159.85404      2133.011          36.038  
E19         0.000 0         0.00000         0.000           0.000    28568943.525 2         0.00000      2682.555          23.956  
E26         0.000 0         0.00000         0.000           0.000    23153703.605 2    -72779.18906       422.042          31.903  
> 2023 09 07 19 35 36.0004163  0 23
G02  23364918.493 6         0.00000      3531.859          24.383           0.000 0         0.00000         0.000           0.000  
G08  22522720.240 4     47239.05609      -204.172          38.961    22522549.350 2     49081.92604      -152.237          34.263  
G10  21164421.466 5     58051.82804      -354.611          32.020    21164256.283 2     57088.24409      -266.848          27.850  
G21  22504180.762 6         0.00000      2936.665          26.060           0.000 0         0.00000         0.000           0.000  
G23  23290030.936 5         0.00000     -1785.159          27.251    23289864.252 4         0.00000     -1332.654          25.595  
G24  24542633.671 5         0.00000     -1818.967          27.286           0.000 0         0.00000         0.000           0.000  
G27  22791122.318 4    388264.73902     -2066.754          41.314    22790958.042 2    302680.53404     -1542.659          35.089  
G28  23578947.525 5         0.00000      4045.156          33.311           0.000 0         0.00000         0.000           0.000  
G32  20538163.410 4   -174587.24109       961.980          38.319    20537994.632 2   -115851.15806       718.792          31.774  
G18         0.000 0         0.00000         0.000           0.000    24781202.525 2    381110.79804     -2113.247          35.297  
R10  23891062.957 7         0.00000      1650.931          22.898  
R02  20687995.482 5   -460233.04702      2615.185          39.670  
R11  24343182.359 5         0.00000      3741.866          37.011  
R01  19717677.625 6    136863.74909      -775.854          33.508  
R24  19256415.461 6         0.00000      -180.957          28.719  
R23  22055507.779 6    609035.10109     -3374.711          33.538  
R08  23198340.617 6         0.00000     -2845.668          31.329  
E07  23506583.915 6         0.00000      -184.592          25.559           0.000 0         0.00000         0.000           0.000  
E13  25830430.546 5    303966.74906     -1739.629          28.953    25830270.458 2    222335.85106     -1298.731          31.875  
E19  28568410.787 6         0.00000      3596.833          23.989    28568259.389 2         0.00000      2683.159          22.961  
E33  25011128.950 6         0.00000      2859.204          23.234    25010960.451 2   -370296.71804      2139.186          35.487  
E08         0.000 0         0.00000         0.000           0.000    27046941.275 2         0.00000     -1532.734          21.442  
E26         0.000 0         0.00000         0.000           0.000    23153595.990 2    -73202.68605       423.453          32.808  
> 2023 09 07 19 35 37.0004163  0 21
G02  23364248.754 5         0.00000      3546.522          30.076           0.000 0         0.00000         0.000           0.000  
G08  22522755.001 4     47442.75801      -202.900          41.851    22522589.224 2     49233.58504      -151.537          36.001  
G10  21164489.819 5     58405.31503      -352.245          34.251    21164324.338 3         0.00000      -266.129          23.119  
G18  24781893.537 4    504695.38703     -2837.255          36.530    24781740.638 2    383226.92904     -2119.256          36.174  
G21  22503615.061 5         0.00000      2947.222          27.216           0.000 0         0.00000         0.000           0.000  
G23  23290355.912 6         0.00000     -1787.159          22.840    23290202.716 2    232928.60109     -1332.733          28.375  
G24  24542976.638 6         0.00000     -1805.207          25.095    24542816.253 2         0.00000     -1353.179          20.786  
G27  22791515.646 4    390333.22402     -2070.691          40.249    22791350.759 2    304225.15205     -1546.550          33.278  
G28  23578178.250 5   -726330.19203      4034.200          33.966           0.000 0         0.00000         0.000           0.000  
G32  20537982.644 4   -175549.39202       961.887          38.249    20537810.864 2   -116569.61607       718.071          30.324  
R10  23890752.064 7         0.00000      1652.861          21.264  
R02  20687496.929 5   -462848.66902      2615.395          41.479  
R11  24342474.543 5   -670394.93209      3737.889          38.866  
R01  19717819.426 5    137637.31609      -771.450          35.926  
R24  19256462.525 6     29728.33809      -185.370          34.097  
R23  22056133.456 6    612414.66509     -3383.719          32.253  
R08  23198860.755 6    504467.41409     -2836.596          34.282  
E07  23506620.491 5     28645.54006      -182.076          28.790           0.000 0         0.00000         0.000           0.000  
E13  25830763.915 5         0.00000     -1745.780          33.242    25830601.733 2    223637.29505     -1303.865          32.548  
E26  23153653.837 5         0.00000       570.735          29.660    23153487.467 2         0.00000       423.344          31.993  
E33  25010582.723 6         0.00000      2852.704          21.120    25010414.242 2   -372438.76805      2143.619          33.307  
> 2023 09 07 19 35 38.0004163  0 22
G02  23363575.420 5         0.00000      3560.277          27.638           0.000 0         0.00000         0.000           0.000  
G08  22522793.374 3     47644.68301      -201.538          43.786    22522627.300 2     49384.36504      -150.046          35.707  
G10  21164559.969 5     58756.67503      -351.567          35.178           0.000 0         0.00000         0.000           0.000  
G18  24782437.355 4    507535.87002     -2844.425          37.584    24782280.879 2    385348.01804     -2123.334          34.587  
G21  22503051.454 5         0.00000      2961.953          30.605           0.000 0         0.00000         0.000           0.000  
G23  23290697.971 6         0.00000     -1785.954          26.566    23290541.181 2         0.00000     -1333.776          28.897  
G24  24543324.996 6         0.00000     -1807.665          21.103    24543161.907 2         0.00000     -1350.023          20.522  
G27  22791909.271 4    392405.50502     -2074.113          40.306    22791744.698 2    305772.59306     -1548.344          31.472  
G28  23577416.478 4         0.00000      4027.823          35.690           0.000 0         0.00000         0.000           0.000  
G32  20537799.469 4   -176510.22503       959.660          37.105    20537628.579 2   -117287.12607       716.105          30.252  
R02  20687005.287 5   -465464.43302      2615.442          40.505  
R11  24341788.627 5   -674131.09009      3734.378          38.371  
R01  19717961.226 5    138407.47809      -769.096          37.310  
R24  19256486.798 5     29914.96109      -188.125          36.583  
R23  22056765.416 6    615801.67809     -3390.767          31.422  
R08  23199400.683 6    507302.54509     -2833.604          33.932  
E07  23506654.973 5     28827.87506      -183.227          29.345           0.000 0         0.00000         0.000           0.000  
E08  27047884.424 6    354363.45009     -2043.506          25.693           0.000 0         0.00000         0.000           0.000  
E13  25831095.487 5    307458.28505     -1752.789          31.496    25830934.508 2    224943.18505     -1307.802          33.457  
E19  28567050.927 5         0.00000      3584.774          28.465           0.000 0         0.00000         0.000           0.000  
E26  23153549.223 5         0.00000       564.820          30.071    23153380.427 2    -74048.95806       422.235          30.970  
E33         0.000 0         0.00000         0.000           0.000    25009867.422 2   -374584.91506      2147.722          31.490  
> 2023 09 07 19 35 39.0004163  0 23
G02  23362889.487 6         0.00000      3572.263          24.231           0.000 0         0.00000         0.000           0.000  
G08  22522833.858 3     47845.65201      -200.834          44.613    22522665.062 2     49534.33705      -149.721          32.949  
G18  24782974.892 4    510383.35402     -2851.696          37.780    24782823.494 2    387474.55104     -2129.664          34.988  
G21  22502485.439 5   -532616.98709      2961.181          32.301           0.000 0         0.00000         0.000           0.000  
G23  23291038.529 5    313816.94209     -1788.327          29.463    23290879.942 2    235596.16509     -1334.346          26.886  
G24  24543668.853 6         0.00000     -1807.473          20.758    24543502.168 2         0.00000     -1347.892          20.191  
G27  22792306.193 4    394481.32602     -2078.048          41.241    22792140.120 2    307322.67507     -1551.444          30.203  
G28  23576651.705 5         0.00000      4018.978          33.535           0.000 0         0.00000         0.000           0.000  
G32  20537616.590 4   -177469.41203       958.087          36.996    20537446.311 2   -118003.46007       715.890          30.377  
G10         0.000 0         0.00000         0.000           0.000    21164454.744 4         0.00000      -263.579          25.373  
R10  23890101.520 6   -325753.68609      1663.474          27.492  
R02  20686518.705 5   -468080.19502      2615.438          39.688  
R01  19718115.626 5    139175.18703      -766.775          36.304  
R24  19256514.387 5     30104.22409      -190.606          35.844  
R23  22057404.879 6    619196.31409     -3398.838          30.520  
R17  21008981.767 6   -716692.60909      3915.741          34.249  
R08  23199937.905 6    510135.01609     -2832.221          30.805  
E07  23506691.252 5     29010.34805      -182.396          30.460           0.000 0         0.00000         0.000           0.000  
E19  28566366.197 5   -620622.38306      3581.102          28.648           0.000 0         0.00000         0.000           0.000  
E26  23153443.999 5   -100906.34405       563.813          31.239    23153271.904 2         0.00000       420.785          30.117  
E08         0.000 0         0.00000         0.000           0.000    27048111.975 2         0.00000     -1523.861          22.380  
E13         0.000 0         0.00000         0.000           0.000    25831268.471 2    226254.23806     -1314.357          31.454  
E33         0.000 0         0.00000         0.000           0.000    25009319.398 2   -376734.98009      2151.872          26.849  
> 2023 09 07 19 35 40.0004163  0 22
G02  23362211.371 5         0.00000      3570.430          28.062           0.000 0         0.00000         0.000           0.000  
G08  22522870.120 3     48045.35101      -198.463          44.115    22522703.435 2         0.00000      -148.065          30.963  
G10  21164691.875 4     59457.43603      -349.561          35.379    21164520.392 2     58146.14208      -260.340          28.575  
G18  24783518.710 4    513238.11903     -2858.279          36.382    24783367.016 2    389606.27104     -2134.084          35.875  
G21  22501921.535 4   -535580.50209      2966.186          38.154           0.000 0         0.00000         0.000           0.000  
G23  23291382.996 5    315605.36009     -1788.810          30.330    23291221.111 3         0.00000     -1335.186          21.966  
G27  22792703.727 4    396560.48102     -2080.328          40.175    22792537.635 2         0.00000     -1553.886          29.359  
G28  23575888.136 5         0.00000      4012.948          32.604           0.000 0         0.00000         0.000           0.000  
G32  20537439.418 4   -178426.78003       957.134          36.679    20537264.340 2   -118718.23307       714.326          30.142  
R10  23889786.142 7         0.00000      1668.237          22.564  
R02  20686029.750 5   -470696.18302      2616.820          40.755  
R01  19718250.533 6         0.00000      -763.551          34.536  
R24  19256544.366 6     30296.22809      -192.147          33.272  
R23  22058039.229 6    622598.15509     -3405.427          29.023  
R17  21008250.882 6   -720611.37909      3922.106          34.687  
R08  23200472.737 6         0.00000     -2829.540          27.612  
E07  23506723.028 5     29193.36304      -182.415          31.759           0.000 0         0.00000         0.000           0.000  
E08  27048664.780 6         0.00000     -2038.366          21.999    27048500.504 2         0.00000     -1522.454          22.688  
E13  25831764.336 5    310976.35204     -1765.510          33.779    25831603.934 2         0.00000     -1318.517          28.364  
E19  28565688.379 5   -624201.71207      3578.686          27.817    28565531.274 2         0.00000      2674.699          20.789  
E26  23153336.959 5   -101469.78105       563.392          31.215    23153165.179 2    -74891.42207       420.495          30.327  
E33  25008937.465 5   -519544.93705      2885.779          31.564    25008773.467 2         0.00000      2156.192          25.784  
