     3.03           O                   M                   RINEX VERSION / TYPE
Android_Rinex                           2024-06-10 11:47:25 PGM / RUN BY / DATE
                                                            MARKER NAME
SMARTPHONE                                                  MARKER TYPE
                                                            OBSERVER / AGENCY
                                                            REC # / TYPE / VERS
                                                            ANT # / TYPE
        0.0000        0.0000        0.0000                  APPROX POSITION XYZ
        0.0000        0.0000        0.0000                  ANTENNA: DELTA H/E/N
G    8 C1C L1C D1C S1C C5Q L5Q D5Q S5Q                      SYS / # / OBS TYPES
R    4 C1C L1C D1C S1C                                      SYS / # / OBS TYPES
E    8 C1C L1C D1C S1C C5Q L5Q D5Q S5Q                      SYS / # / OBS TYPES
  2020    06    25    00    34    30.4409530                TIME OF FIRST OBS
  2020    06    25    00    56    09.4409530                TIME OF LAST OBS
  8 R02 -4 R18 -3 R09 -2 R17  4 R03  5 R04  6 R19  3 R10 -7   8 R02 -4 R18 -3 R09 -2 R17  4 R03  5 R04  6 R19  3 R10 -7 GLONASS SLOT / FRQ #
    GLONASS SLOT / FRQ #
                                                            GLONASS COD/PHS/BIS#
                                                            END OF HEADER
> 2020 06 25 00 34 30.4409533  0 26
G10  21708316.052 3   -325006.03701      2005.075          40.200    21705965.996 1  -4850079.25603      1497.303          35.100  
G13  24097262.866 5         0.00000     -2157.800          25.500           0.000 0         0.00000         0.000           0.000  
G15  21949527.271 3    296549.89801     -1368.852          39.400           0.000 0         0.00000         0.000           0.000  
G16  23216607.264 3    218324.37802      -713.830          38.600           0.000 0         0.00000         0.000           0.000  
G18  20691426.321 3    912452.23202      -648.625          39.000           0.000 0         0.00000         0.000           0.000  
G20  20160759.825 2  -2335110.32101       305.443          43.100           0.000 0         0.00000         0.000           0.000  
G21  21508940.543 3  -1559908.40401      1091.026          41.000           0.000 0         0.00000         0.000           0.000  
G26  23581180.355 3    336192.97701     -2250.276          39.200    23578834.208 3         0.00000     -1686.500          27.500  
G29  23139862.533 4         0.00000     -3370.377          28.700           0.000 0         0.00000         0.000           0.000  
G32  25337897.055 4  -1748494.61509      3638.982          29.500           0.000 0         0.00000         0.000           0.000  
R02  21323517.461 4   7458705.69204     -3355.318          32.700  
R18  19543636.434 3 -12691893.95802      1004.438          38.300  
R09  24272879.833 3  -2233166.79002     -1352.153          36.300  
R17  20857284.708 4         0.00000     -2178.759          29.500  
R03  19218849.073 3 -17312855.31302       301.974          38.900  
R04  21450936.438 4 -15025454.31803      3778.215          34.900  
E01  28372360.021 4     17424.85709      -194.521          30.300           0.000 0         0.00000         0.000           0.000  
E03  24980302.796 4      4390.93809     -1179.706          28.800    24978174.288 3         0.00000      -890.584          25.700  
E07  27143159.075 6         0.00000      3114.900          22.500    27141047.668 3         0.00000      2326.894          26.000  
E08  22115370.650 3   -514077.57005      1609.971          36.500           0.000 0         0.00000         0.000           0.000  
E13  23803490.265 3   -293270.32203      1203.247          41.700    23801365.666 1  -1932274.40003       898.056          36.000  
E15  23983405.640 3    128130.08704      -928.093          37.300    23981279.505 3         0.00000      -692.674          28.100  
E21  27625449.938 3    288477.21203     -1991.515          39.800    27623328.550 2   1812083.96704     -1487.825          34.800  
E26  26720874.136 4   -309575.77307      2321.088          34.200           0.000 0         0.00000         0.000           0.000  
E27  28417115.781 6         0.00000     -2519.900          21.900           0.000 0         0.00000         0.000           0.000  
G27         0.000 0         0.00000         0.000           0.000    23237590.035 4         0.00000      2318.150          21.400  
> 2020 06 25 00 34 31.4409533  0 25
G10  21707935.916 2   -327021.30601      2018.157          41.600    21705581.044 1  -4851584.14103      1507.093          35.400  
G13  24097679.926 5         0.00000     -2144.550          23.800           0.000 0         0.00000         0.000           0.000  
G15  21949782.951 3    297908.75101     -1356.127          40.200           0.000 0         0.00000         0.000           0.000  
G16  23216736.187 3    219028.22502      -701.175          38.600           0.000 0         0.00000         0.000           0.000  
G18  20691551.614 3    913090.29401      -635.118          39.600           0.000 0         0.00000         0.000           0.000  
G20  20160698.959 2  -2335426.30501       318.949          42.100           0.000 0         0.00000         0.000           0.000  
G21  21508729.535 2  -1561010.10401      1104.734          42.200           0.000 0         0.00000         0.000           0.000  
G26  23581607.606 3    338433.18601     -2237.440          39.900    23579261.389 3         0.00000     -1670.650          27.900  
G29  23140501.071 4   3657045.49209     -3357.366          30.100           0.000 0         0.00000         0.000           0.000  
G32  25337209.307 4         0.00000      3654.995          28.400           0.000 0         0.00000         0.000           0.000  
R02  21324135.897 4   7462050.33803     -3341.698          34.900  
R18  19543450.834 3 -12692909.11902      1018.131          37.900  
R09  24273128.673 3  -2231824.59102     -1339.521          36.500  
R17  20857700.232 5         0.00000     -2163.397          26.700  
R03  19218799.026 3 -17313167.80102       315.336          38.500  
R04  21450221.119 3 -15029242.82902      3791.437          35.900  
E01  28372397.155 4     17608.62609      -180.746          30.700           0.000 0         0.00000         0.000           0.000  
E03  24980525.251 5         0.00000     -1164.350          28.100           0.000 0         0.00000         0.000           0.000  
E07  27142588.313 5         0.00000      3132.600          25.200           0.000 0         0.00000         0.000           0.000  
E08  22115059.478 3   -515697.52905      1622.732          36.100           0.000 0         0.00000         0.000           0.000  
E13  23803258.806 3   -294484.65003      1217.550          40.800    23801135.114 1  -1933181.20903       910.456          36.600  
E15  23983581.608 3    129047.19804      -913.985          37.800    23981452.751 3         0.00000      -680.939          28.000  
E21  27625827.002 3    290457.90004     -1977.568          39.100    27623705.404 1   1813562.95203     -1475.257          35.600  
E26  26720430.412 4   -311908.03307      2335.400          34.500           0.000 0         0.00000         0.000           0.000  
G27         0.000 0         0.00000         0.000           0.000    23236997.076 3         0.00000      2321.250          22.400  
> 2020 06 25 00 34 32.4409533  0 27
G10  21707548.242 2   -329027.49201      1998.970          42.200    21705200.001 1  -4853082.28303      1492.899          37.200  
G13  24098085.260 5         0.00000     -2163.400          25.400           0.000 0         0.00000         0.000           0.000  
G15  21950041.424 3    299276.96801     -1375.523          40.300           0.000 0         0.00000         0.000           0.000  
G16  23216875.928 3    219741.40902      -720.486          38.900           0.000 0         0.00000         0.000           0.000  
G18  20691679.070 3    913737.22601      -654.020          39.800           0.000 0         0.00000         0.000           0.000  
G20  20160639.279 2  -2335733.22901       299.741          42.200           0.000 0         0.00000         0.000           0.000  
G21  21508521.459 2  -1562102.97201      1085.794          42.500           0.000 0         0.00000         0.000           0.000  
G26  23582038.696 3    340682.37601     -2256.406          40.600    23579688.919 2         0.00000     -1685.400          29.900  
G29  23141152.802 4   3660414.71709     -3376.517          32.200           0.000 0         0.00000         0.000           0.000  
G32  25336516.813 4         0.00000      3633.500          29.300           0.000 0         0.00000         0.000           0.000  
R02  21324777.158 4   7465404.23403     -3361.324          34.100  
R18  19543267.956 3 -12693915.08402       998.701          37.700  
R09  24273387.984 3  -2230472.93509     -1359.066          36.100  
R19  21960450.479 6         0.00000      3344.100          20.500  
R17  20858098.027 4         0.00000     -2181.700          32.300  
R03  19218736.345 3 -17313470.72602       295.435          39.000  
R04  21449511.803 4 -15033022.04003      3771.886          34.600  
E01  28372430.170 4     17801.46409      -199.463          30.900           0.000 0         0.00000         0.000           0.000  
E03  24980757.897 5         0.00000     -1187.100          28.000    24978620.664 4         0.00000      -893.150          21.700  
E08  22114756.961 3   -517308.44904      1604.360          37.500           0.000 0         0.00000         0.000           0.000  
E13  23803031.604 2   -295690.20403      1199.000          41.800    23800904.841 1  -1934081.37902       892.168          39.200  
E15  23983756.668 3    129973.17404      -932.603          38.700    23981627.532 2         0.00000      -695.850          30.300  
E21  27626206.579 3    292447.32204     -1996.080          39.600    27624083.725 1   1815048.65803     -1494.111          38.000  
E26  26719986.757 4   -314231.89807      2317.641          34.600           0.000 0         0.00000         0.000           0.000  
E27  28418066.050 6         0.00000     -2515.700          20.600           0.000 0         0.00000         0.000           0.000  
G27         0.000 0         0.00000         0.000           0.000    23236406.142 3         0.00000      2311.850          23.000  
E07         0.000 0         0.00000         0.000           0.000    27139857.424 3         0.00000      2326.550          24.400  
> 2020 06 25 00 34 33.4409533  0 27
G10  21707169.642 3   -331026.03201      1998.999          40.600    21704819.238 1  -4854574.68803      1492.719          37.200  
G13  24098496.527 5         0.00000     -2167.000          27.800           0.000 0         0.00000         0.000           0.000  
G15  21950303.386 3    300653.73002     -1379.204          39.100           0.000 0         0.00000         0.000           0.000  
G16  23217013.506 3    220462.39002      -720.775          38.300           0.000 0         0.00000         0.000           0.000  
G18  20691797.452 3    914392.29302      -656.819          38.500           0.000 0         0.00000         0.000           0.000  
G20  20160582.950 2  -2336032.17001       298.267          41.600           0.000 0         0.00000         0.000           0.000  
G21  21508311.568 2  -1563188.19201      1084.391          42.100           0.000 0         0.00000         0.000           0.000  
G26  23582464.970 3    342938.93101     -2255.446          39.800    23580119.381 2   4160285.12105     -1684.237          30.900  
G27  23238167.148 4         0.00000      3089.952          28.300    23235823.933 2         0.00000      2308.650          29.000  
G29  23141784.151 4   3663791.90809     -3377.503          34.000           0.000 0         0.00000         0.000           0.000  
G32  25335841.629 4         0.00000      3634.249          28.900    25333489.479 3         0.00000      2712.571          23.200  
R02  21325398.036 4   7468766.52803     -3364.664          34.200  
R18  19543079.703 3 -12694912.71802       996.012          38.000  
R09  24273635.288 4  -2229113.60909     -1362.585          33.000  
R19  21959792.745 6         0.00000      3329.950          23.300  
R17  20858492.542 4   3283989.96009     -2187.145          33.700  
R03  19218678.829 3 -17313764.99602       293.135          38.800  
R04  21448820.774 3 -15036793.45702      3771.978          36.700  
E01  28372475.750 5         0.00000      -202.550          28.700           0.000 0         0.00000         0.000           0.000  
E03  24980971.628 4      7924.86509     -1189.407          29.800    24978847.866 3         0.00000      -891.400          28.300  
E07  27141411.889 6         0.00000      3117.200          21.600    27139268.374 3         0.00000      2320.555          29.000  
E08  22114452.070 3   -518911.46904      1602.600          38.400           0.000 0         0.00000         0.000           0.000  
E13  23802804.053 3   -296887.92903      1196.704          41.600    23800677.011 1  -1934975.84303       891.101          38.900  
E15  23983934.451 3    130907.19904      -935.695          38.500    23981806.502 3   1741911.23509      -701.445          28.400  
E21  27626583.434 3    294444.27904     -1996.453          38.600    27624464.210 1   1816539.86903     -1493.722          37.200  
E26  26719547.850 4   -316548.01607      2316.150          34.400           0.000 0         0.00000         0.000           0.000  
E27  28418538.881 6         0.00000     -2528.550          22.100           0.000 0         0.00000         0.000           0.000  
> 2020 06 25 00 34 34.4409533  0 27
G10  21706785.598 3   -333029.04501      2003.636          41.000    21704438.544 1  -4856070.54003      1496.394          35.900  
G13  24098915.960 4         0.00000     -2169.700          28.300           0.000 0         0.00000         0.000           0.000  
G15  21950562.417 3    302033.43802     -1382.583          36.700           0.000 0         0.00000         0.000           0.000  
G16  23217146.895 3    221179.94402      -717.292          37.500           0.000 0         0.00000         0.000           0.000  
G18  20691925.188 3    915048.41001      -658.174          39.700           0.000 0         0.00000         0.000           0.000  
G20  20160526.830 3  -2336332.61201       299.648          41.100           0.000 0         0.00000         0.000           0.000  
G21  21508109.285 2  -1564274.39301      1085.348          42.800           0.000 0         0.00000         0.000           0.000  
G26  23582890.127 3    345189.58602     -2249.411          38.200    23580548.098 2   4161965.84504     -1679.518          34.800  
G27  23237583.473 4     -4388.24509      3086.072          30.400    23235233.418 2  -2981586.78405      2307.550          31.500  
G29  23142421.852 3   3667166.52809     -3375.100          35.900           0.000 0         0.00000         0.000           0.000  
G32  25335141.386 4  -1763075.18509      3641.443          32.000           0.000 0         0.00000         0.000           0.000  
R02  21326036.924 4         0.00000     -3366.300          30.000  
R18  19542886.005 3 -12695909.51501       994.916          41.000  
R09  24273897.949 4  -2227752.81109     -1358.927          30.100  
R19  21959196.436 5         0.00000      3333.098          28.400  
R17  20858906.321 4   3286176.51909     -2189.751          33.600  
R03  19218632.621 3 -17314059.89802       293.649          39.800  
R04  21448124.999 4 -15040570.17903      3777.538          33.300  
E01  28372520.423 6         0.00000      -202.400          23.700           0.000 0         0.00000         0.000           0.000  
E03  24981202.808 5         0.00000     -1192.800          26.400    24979074.231 2     60237.90609      -892.213          29.800  
E07  27140804.831 5         0.00000      3120.450          24.900    27138674.788 2         0.00000      2326.099          29.200  
E08  22114145.994 3   -520516.35004      1604.333          38.300           0.000 0         0.00000         0.000           0.000  
E13  23802573.780 3   -298086.60703      1197.478          40.600    23800449.460 1  -1935870.90602       891.598          39.600  
E15  23984114.328 3    131841.93204      -936.795          36.800    23981984.354 2   1742609.21609      -701.943          30.000  
E21  27626963.849 3    296435.89604     -1990.910          38.100    27624843.717 2   1818027.17509     -1489.178          31.800  
E26  26719106.219 4   -318867.39709      2319.082          35.200    26716980.434 4         0.00000      1726.200          21.900  
E27  28419012.829 5         0.00000     -2518.150          25.200           0.000 0         0.00000         0.000           0.000  
> 2020 06 25 00 34 35.4409533  0 26
G10  21706403.089 3   -335039.25101      2015.438          41.000    21704055.407 1  -4857571.67703      1504.901          36.100  
G13  24099319.758 5         0.00000     -2166.540          26.500           0.000 0         0.00000         0.000           0.000  
G15  21950825.078 3    303413.06902     -1377.260          37.500           0.000 0         0.00000         0.000           0.000  
G16  23217280.913 3    221890.46702      -704.395          37.800           0.000 0         0.00000         0.000           0.000  
G18  20692052.924 3    915702.47901      -650.478          39.400           0.000 0         0.00000         0.000           0.000  
G20  20160465.963 2  -2336637.59201       309.676          41.400           0.000 0         0.00000         0.000           0.000  
G21  21507901.767 2  -1565365.29201      1096.347          43.600           0.000 0         0.00000         0.000           0.000  
G26  23583314.865 3    347431.80002     -2236.437          38.900    23580974.442 2   4163640.18805     -1670.234          33.100  
G27  23236987.164 4         0.00000      3102.050          31.200    23234643.112 2  -2983898.64909      2316.312          32.100  
G29  23143069.674 3   3670537.35209     -3368.662          35.700           0.000 0         0.00000         0.000           0.000  
G32  25334445.821 4  -1766722.89009      3651.696          30.700           0.000 0         0.00000         0.000           0.000  
R02  21326666.737 4   7475496.52209     -3360.113          33.800  
R18  19542700.754 3 -12696909.04001      1003.843          40.100  
R09  24274153.071 4  -2226400.95109     -1345.826          33.800  
R19  21958582.189 5         0.00000      3346.558          28.500  
R17  20859317.309 4   3288361.90309     -2180.644          33.700  
R03  19218570.847 3 -17314358.17201       301.962          40.400  
R04  21447407.586 3 -15044354.16309      3787.875          35.200  
E01  28372538.990 4       143.00306      -187.272          35.000    28370414.042 3         0.00000      -141.350          23.300  
E03  24981423.100 4       858.22509     -1185.303          29.000    24979299.059 3         0.00000      -889.800          27.800  
E07  27140207.335 5         0.00000      3128.050          26.700    27138079.386 3         0.00000      2336.827          28.800  
E08  22113842.639 3   -522125.39204      1612.235          39.600           0.000 0         0.00000         0.000           0.000  
E13  23802343.297 3   -299289.57203      1208.385          41.300    23800220.443 1  -1936769.27303       903.247          39.100  
E15  23984288.830 3    132775.02704      -930.298          37.700    23982161.788 2   1743305.99009      -693.706          29.900  
E21  27627341.890 3    298418.93404     -1976.643          38.500    27625220.572 2   1819508.00504     -1474.825          35.100  
E26  26718662.565 3   -321193.49905      2332.879          36.700    26716539.153 3         0.00000      1748.334          27.200  
> 2020 06 25 00 34 36.4409533  0 26
G10  21706016.672 3   -337052.75909      2012.485          35.400    21703672.270 1  -4859074.87103      1502.335          34.900  
G13  24099730.466 5         0.00000     -2166.450          24.600           0.000 0         0.00000         0.000           0.000  
G15  21951091.299 4    304794.79909     -1383.306          34.600           0.000 0         0.00000         0.000           0.000  
G16  23217415.489 3    222595.10309      -703.116          39.400           0.000 0         0.00000         0.000           0.000  
G18  20692179.403 4    916356.37503      -654.961          34.600           0.000 0         0.00000         0.000           0.000  
G20  20160409.006 3  -2336944.90101       306.734          40.700           0.000 0         0.00000         0.000           0.000  
G21  21507690.410 2  -1566460.69301      1096.313          41.300           0.000 0         0.00000         0.000           0.000  
G26  23583739.673 3    349670.73309     -2239.637          38.100    23581400.437 2   4165311.96509     -1672.323          30.700  
G27  23236399.232 3    -10570.93502      3105.133          39.100    23234052.526 2  -2986214.38509      2317.736          30.500  
G29  23143711.842 3   3673913.42409     -3380.909          36.100           0.000 0         0.00000         0.000           0.000  
G32  25333749.417 4         0.00000      3642.193          28.200           0.000 0         0.00000         0.000           0.000  
R02  21327292.711 3   7478860.52001     -3363.526          40.000  
R18  19542511.593 3 -12697910.07901      1000.548          40.600  
R09  24274402.818 3  -2225055.44209     -1342.297          38.900  
R19  21957929.830 4   -134999.21809      3349.527          32.000  
R17  20859721.735 3   3290549.06009     -2190.954          38.400  
R03  19218510.609 2 -17314656.19501       295.873          42.700  
R04  21446704.900 3 -15048137.34809      3778.288          38.300  
E01  28372574.658 4       329.45406      -184.891          35.700    28370451.246 3         0.00000      -138.950          26.900  
E03  24981652.186 4      2050.25609     -1193.947          32.400    24979526.331 3     62011.23409      -889.601          28.300  
E07  27139606.839 4     -1758.64806      3119.169          34.900    27137485.799 3         0.00000      2329.750          27.800  
E08  22113535.306 3   -523732.14904      1603.273          38.900    22111409.520 2  -4274514.57509      1195.876          29.200  
E13  23802117.841 3   -300496.62703      1207.400          41.400    23799991.148 2  -1937670.67805       900.771          33.500  
E15  23984467.520 4    133710.44707      -938.648          34.700    23982341.944 2   1744004.44104      -701.494          34.900  
E21  27627717.489 3    300396.48504     -1977.387          39.200    27625595.891 3   1820984.67009     -1477.595          28.300  
E26  26718216.189 3   -323527.16405      2335.385          36.600    26716095.149 2     -5903.83309      1742.884          29.700  
> 2020 06 25 00 34 37.4409533  0 26
G10  21705636.187 3   -339067.78809      2015.537          36.600    21703288.504 3         0.00000      1503.150          28.300  
G13  24100135.800 5         0.00000     -2159.650          24.600           0.000 0         0.00000         0.000           0.000  
G15  21951343.140 3    306173.69601     -1378.657          39.500           0.000 0         0.00000         0.000           0.000  
G16  23217553.415 4    223292.58603      -695.487          34.700           0.000 0         0.00000         0.000           0.000  
G18  20692296.598 2    917006.65301      -648.910          41.400           0.000 0         0.00000         0.000           0.000  
G20  20160349.396 3  -2337255.91501       311.784          41.100           0.000 0         0.00000         0.000           0.000  
G21  21507480.588 3  -1567563.08602      1104.878          38.900           0.000 0         0.00000         0.000           0.000  
G26  23584174.672 4    351905.38609     -2234.613          34.500    23581824.617 2   4166981.45105     -1670.188          31.900  
G27  23235806.901 3    -13683.66202      3116.969          38.100    23233460.126 2  -2988538.93505      2327.609          33.000  
G29  23144359.105 4   3677294.80703     -3384.836          35.000           0.000 0         0.00000         0.000           0.000  
G32  25333053.293 5         0.00000      3637.600          25.500           0.000 0         0.00000         0.000           0.000  
R02  21327917.778 3   7482217.84902     -3354.655          39.000  
R18  19542320.897 3 -12698916.10102      1007.692          39.600  
R09  24274649.215 3  -2223720.49302     -1330.978          36.300  
R19  21957320.328 4         0.00000      3361.314          29.700  
R17  20860131.536 4   3292740.06409     -2194.251          34.900  
R03  19218453.930 2 -17314954.78801       298.011          42.200  
R04  21446003.053 4 -15051915.80509      3777.635          32.300  
E01  28372606.767 4       505.04906      -171.911          35.200    28370486.914 3         0.00000      -127.901          28.000  
E03  24981878.481 4      3237.04609     -1186.438          34.300    24979753.253 3         0.00000      -885.522          27.100  
E07  27139014.788 4     -4878.11209      3116.319          33.400           0.000 0         0.00000         0.000           0.000  
E08  22113230.765 3   -525336.39904      1601.945          38.400    22111106.096 3         0.00000      1196.377          28.000  
E13  23801884.008 3   -301710.94104      1216.786          37.400    23799757.594 3         0.00000       908.707          25.600  
E15  23984642.232 4    134644.29409      -933.860          32.300    23982521.542 3         0.00000      -701.450          24.100  
E21  27628093.785 3    302368.61909     -1971.107          38.100    27625971.839 3   1822458.74509     -1473.286          28.500  
E26  26717772.744 4   -325870.88406      2347.274          35.700    26715649.960 2     -7654.39009      1754.669          29.200  
> 2020 06 25 00 34 38.4409533  0 25
G10  21705256.680 4         0.00000      2004.100          32.900    21702906.624 2  -4862077.19909      1495.056          31.900  
G13  24100552.860 4   2460080.31409     -2172.578          33.100           0.000 0         0.00000         0.000           0.000  
G15  21951611.106 3    307559.85801     -1394.407          39.700           0.000 0         0.00000         0.000           0.000  
G16  23217678.708 3    223992.54309      -702.171          35.500           0.000 0         0.00000         0.000           0.000  
G18  20692422.868 2    917662.74601      -662.633          41.300           0.000 0         0.00000         0.000           0.000  
G20  20160290.903 3  -2337561.14801       300.140          40.000           0.000 0         0.00000         0.000           0.000  
G21  21507270.697 3  -1568663.39401      1096.993          40.200           0.000 0         0.00000         0.000           0.000  
G26  23584599.829 3    354148.98109     -2248.262          37.500    23582252.426 2   4168657.15204     -1678.561          34.600  
G27  23235212.407 3    -16798.05902      3113.096          37.900    23232867.098 1  -2990864.54503      2324.574          36.400  
G29  23145002.739 4   3680691.28009     -3408.303          34.400           0.000 0         0.00000         0.000           0.000  
R02  21328549.755 2   7485577.69801     -3365.618          42.200  
R18  19542139.276 2 -12699917.54501       995.918          43.600  
R09  24274904.966 4  -2222387.37303     -1334.007          35.400  
R19  21956681.232 4   -141719.04709      3360.921          31.600  
R17  20860540.150 3   3294944.99402     -2214.698          37.800  
R03  19218406.885 2 -17315244.36801       282.314          42.100  
R04  21445290.176 4 -15055682.52909      3758.530          34.000  
E01  28372639.084 4       678.67207      -173.970          34.700    28370518.953 2         0.00000      -131.100          30.000  
E03  24982103.379 3      4429.09304     -1198.570          39.000    24979979.338 2         0.00000      -896.300          30.000  
E07  27138424.133 4     -7983.20809      3096.375          31.700    27136301.069 3         0.00000      2317.000          23.900  
E08  22112930.342 3   -526928.46305      1583.970          36.200    22110800.298 2  -4276900.84709      1178.201          30.900  
E13  23801657.992 4   -302923.36208      1209.879          32.800    23799527.949 2  -1939482.55409       899.236          30.500  
E15  23984824.273 4    135587.85606      -950.830          35.000    23982693.601 3         0.00000      -711.450          23.500  
E21  27628475.666 4    304345.14109     -1979.050          31.100    27626348.694 2   1823934.85009     -1482.532          30.400  
E26  26717326.646 4   -328216.38209      2345.346          31.800           0.000 0         0.00000         0.000           0.000  
> 2020 06 25 00 34 39.4409533  0 25
G10  21704879.546 3   -343094.68909      1999.437          35.400    21702525.232 2  -4863571.36509      1493.051          31.200  
G13  24100972.852 4         0.00000     -2192.600          31.200           0.000 0         0.00000         0.000           0.000  
G15  21951878.513 3    308962.71101     -1412.142          40.400           0.000 0         0.00000         0.000           0.000  
G16  23217816.914 3    224693.41209      -701.022          37.800           0.000 0         0.00000         0.000           0.000  
G18  20692547.532 2    918331.61901      -675.787          43.000           0.000 0         0.00000         0.000           0.000  
G20  20160236.039 3  -2337857.85701       292.807          40.400           0.000 0         0.00000         0.000           0.000  
G21  21507063.528 3  -1569758.25302      1091.564          38.800           0.000 0         0.00000         0.000           0.000  
G26  23585024.638 3    356397.73109     -2248.147          38.100    23582679.956 1   4170335.96803     -1678.866          35.300  
G27  23234619.379 3    -19911.33302      3111.550          37.800    23232275.047 1  -2993189.39503      2323.640          36.500  
G29  23145647.280 4   3684107.59409     -3423.236          33.700           0.000 0         0.00000         0.000           0.000  
R02  21329176.288 2   7488949.58401     -3379.779          42.700  
R18  19541948.580 2 -12700908.51501       985.185          42.200  
R09  24275149.269 4  -2221054.72909     -1334.170          35.700  
R19  21956046.881 5         0.00000      3353.242          26.500  
R17  20860954.768 3   3297169.07802     -2233.180          38.000  
R03  19218349.020 2 -17315520.99401       270.919          42.300  
R04  21444603.615 4 -15059443.30209      3757.214          32.500  
E01  28372673.008 4       852.88006      -174.850          34.900    28370551.969 3         0.00000      -127.400          28.100  
E03  24982332.396 3      5637.04404     -1215.518          38.700    24980207.727 3         0.00000      -905.750          28.800  
E07  27137830.825 5         0.00000      3085.950          28.000    27135714.044 3         0.00000      2306.850          27.400  
E08  22112630.826 4   -528504.13106      1570.227          34.800    22110500.853 2  -4278077.76705      1167.755          31.900  
E13  23801427.091 4   -304129.41409      1203.571          31.300    23799297.397 3  -1940383.28009       893.765          29.000  
E15  23985004.429 4    136548.55306      -967.826          35.000    23982879.481 3         0.00000      -726.400          23.800  
E21  27628850.776 4    306324.80709     -1989.743          29.800    27626721.291 3         0.00000     -1475.600          27.500  
E26  26716877.547 4   -330561.96809      2345.914          31.900    26714757.416 4         0.00000      1748.850          21.000  
> 2020 06 25 00 34 40.4409533  0 25
G10  21704494.873 3   -345099.82509      2009.956          35.700    21702144.817 2  -4865067.02005      1499.641          31.400  
G13  24101384.747 4   2464448.24009     -2199.126          33.700           0.000 0         0.00000         0.000           0.000  
G15  21952146.548 3    310380.59901     -1420.903          40.600           0.000 0         0.00000         0.000           0.000  
G16  23217946.115 4    225391.26909      -692.347          34.000           0.000 0         0.00000         0.000           0.000  
G18  20692679.735 2    919011.00301      -680.555          43.400           0.000 0         0.00000         0.000           0.000  
G20  20160177.895 2  -2338150.52101       294.740          41.400           0.000 0         0.00000         0.000           0.000  
G21  21506845.051 4  -1570849.86003      1093.289          34.700           0.000 0         0.00000         0.000           0.000  
G26  23585451.819 4    358641.44709     -2243.877          30.000    23583108.045 2   4172010.86104     -1669.417          34.800  
G27  23234028.794 3    -23023.75402      3114.725          38.700    23231682.019 1  -2995513.70003      2325.866          36.300  
G29  23146302.641 3   3687533.41709     -3423.370          36.800           0.000 0         0.00000         0.000           0.000  
R02  21329819.084 3   7492334.64701     -3388.002          40.200  
R18  19541766.958 3 -12701890.93701       981.874          41.200  
R09  24275397.481 3  -2219721.81202     -1328.935          37.700  
R19  21955408.901 5         0.00000      3357.600          27.600  
R17  20861387.324 3   3299406.25202     -2237.634          36.800  
R03  19218301.346 2 -17315790.36301       270.560          43.400  
R04  21443880.199 4 -15063197.05509      3760.542          31.300  
E01  28372707.768 4      1026.53306      -171.500          35.400    28370584.635 2      1340.79505      -127.502          31.200  
E03  24982567.694 3      6859.00405     -1224.878          36.300    24980441.281 2     65584.82609      -914.951          29.600  
E07  27137247.430 4         0.00000      3106.100          31.100    27135125.553 3         0.00000      2310.506          24.600  
E08  22112328.658 3   -530072.92704      1571.873          38.600    22110203.710 2  -4279249.64509      1173.299          30.600  
E13  23801195.352 3   -305331.52804      1202.846          38.200    23799069.567 3  -1941281.08009       898.865          28.400  
E15  23985192.403 4    137521.55309      -974.399          34.000    23983067.804 3         0.00000      -731.989          23.200  
E21  27629222.186 3         0.00000     -1960.300          37.600    27627099.053 3         0.00000     -1469.600          28.200  
E26  26716428.798 3   -332909.99105      2351.035          35.800    26714310.481 2    -12903.91009      1755.842          29.500  
> 2020 06 25 00 34 41.4409533  0 25
G10  21704107.269 3   -347116.54509      2020.334          40.500    21701758.120 2  -4866572.88309      1508.823          30.200  
G13  24101791.547 4         0.00000     -2207.206          28.500           0.000 0         0.00000         0.000           0.000  
G15  21952416.957 3    311802.35102     -1424.979          38.200           0.000 0         0.00000         0.000           0.000  
G16  23218078.667 4    226075.49909      -682.118          30.400           0.000 0         0.00000         0.000           0.000  
G18  20692809.565 3    919690.38702      -681.020          37.600           0.000 0         0.00000         0.000           0.000  
G20  20160125.126 2  -2338450.00501       300.472          41.600           0.000 0         0.00000         0.000           0.000  
G21  21506649.888 2  -1571946.81401      1097.225          41.900           0.000 0         0.00000         0.000           0.000  
G26  23585887.725 4         0.00000     -2222.950          29.300    23583529.573 2   4173673.26509     -1658.514          33.800  
G27  23233434.021 3    -26142.23202      3118.656          35.200    23231089.061 2  -2997842.38004      2328.798          34.700  
G29  23146961.002 4   3690950.86909     -3415.218          33.400           0.000 0         0.00000         0.000           0.000  
R02  21330451.061 3   7495724.21501     -3393.271          40.700  
R18  19541576.541 3 -12702874.83101       982.747          40.500  
R09  24275644.855 4  -2218398.04009     -1323.851          31.100  
R19  21954809.870 4   -151790.05703      3360.204          33.200  
R17  20861795.659 4   3301641.84304     -2236.073          32.900  
R03  19218244.946 3 -17316065.11401       275.322          41.600  
R04  21443177.164 3 -15066967.56009      3775.486          38.600  
E01  28372738.969 3      1193.07205      -166.187          35.900    28370614.929 3      1465.29409      -125.317          28.300  
E03  24982800.690 5         0.00000     -1228.450          27.900    24980675.114 2     66499.04305      -917.671          32.400  
E07  27136651.470 3    -17222.01604      3113.969          37.000    27134530.151 2         0.00000      2327.200          29.200  
E08  22112029.143 3   -531649.70203      1578.634          40.200    22109903.008 2  -4280426.97409      1177.888          29.500  
E13  23800964.870 3   -306538.51603      1207.104          40.400    23798841.108 2  -1942182.41909       901.025          32.700  
E15  23985382.121 5         0.00000      -971.750          26.500    23983251.520 3         0.00000      -728.450          24.900  
E21  27629593.596 3         0.00000     -1953.000          39.000    27627470.812 2         0.00000     -1458.081          29.200  
E26  26715982.421 3   -335267.77704      2359.264          36.800    26713861.382 2    -14664.66405      1761.434          34.000  
> 2020 06 25 00 34 42.4409533  0 25
G10  21703723.503 3   -349135.17801      2014.417          39.900    21701373.448 2  -4868080.23305      1504.076          31.200  
G13  24102213.074 5         0.00000     -2226.550          26.800           0.000 0         0.00000         0.000           0.000  
G15  21952701.465 4         0.00000     -1437.700          29.400           0.000 0         0.00000         0.000           0.000  
G16  23218206.053 4    226761.82709      -690.560          35.100           0.000 0         0.00000         0.000           0.000  
G18  20692935.207 3    920377.35502      -695.037          36.600           0.000 0         0.00000         0.000           0.000  
G20  20160064.608 2  -2338746.52601       290.267          41.200           0.000 0         0.00000         0.000           0.000  
G21  21506440.904 2  -1573039.73701      1086.416          41.700           0.000 0         0.00000         0.000           0.000  
G26  23586299.062 3    363111.12302     -2225.525          36.700    23583953.124 2   4175332.35805     -1661.748          33.800  
G27  23232840.155 3    -29256.37101      3107.636          39.400    23230493.659 2         0.00000      2320.849          29.400  
G29  23147601.076 3   3694369.90002     -3425.608          36.000           0.000 0         0.00000         0.000           0.000  
R02  21331088.413 3   7499125.03902     -3410.508          39.600  
R18  19541402.946 3 -12703851.73801       969.120          41.900  
R09  24275891.252 3  -2217069.49509     -1334.914          36.700  
R19  21954171.611 4   -155145.93009      3348.801          31.700  
R17  20862212.370 3   3303884.12502     -2250.667          39.200  
R03  19218199.157 3 -17316335.82401       263.665          40.500  
R04  21442458.913 5         0.00000      3772.200          27.600  
E01  28372769.821 4      1363.24008      -176.030          32.900    28370648.503 2      1591.45009      -134.563          29.200  
E03  24983038.990 5         0.00000     -1246.500          25.900    24980907.132 3         0.00000      -925.300          26.500  
E07  27136060.605 4    -20335.32909      3110.637          30.400    27133940.125 3         0.00000      2321.134          27.600  
E08  22111730.255 3   -533224.67503      1568.666          40.300    22109603.213 2  -4281602.87905      1168.548          32.600  
E13  23800736.063 3   -307741.00304      1195.854          38.300    23798613.278 2  -1943080.28304       890.474          34.500  
E15  23985568.071 5         0.00000      -988.850          26.900    23983438.027 3         0.00000      -738.750          27.600  
E21  27629964.798 4    312251.33206     -1957.347          34.800    27627842.572 3         0.00000     -1455.335          24.100  
E26  26715535.416 3   -337624.22804      2350.951          38.200    26713413.749 2    -16424.07109      1753.504          30.600  
> 2020 06 25 00 34 43.4409533  0 25
G10  21703340.995 3   -351152.79502      2021.260          37.100    21700990.590 2  -4869586.83409      1509.542          30.700  
G13  24102645.700 5         0.00000     -2228.149          26.100           0.000 0         0.00000         0.000           0.000  
G15  21952951.213 5         0.00000     -1442.266          26.500           0.000 0         0.00000         0.000           0.000  
G16  23218338.535 3    227448.74102      -682.762          35.900           0.000 0         0.00000         0.000           0.000  
G18  20693071.877 3    921072.49502      -693.869          37.900           0.000 0         0.00000         0.000           0.000  
G20  20160010.931 3  -2339038.34302       294.402          38.500           0.000 0         0.00000         0.000           0.000  
G21  21506231.083 3  -1574127.93801      1091.128          39.500           0.000 0         0.00000         0.000           0.000  
G26  23586722.334 3    365332.24109     -2216.743          37.000    23584376.816 2   4176990.90209     -1655.356          33.900  
G27  23232251.943 3    -32366.52202      3113.743          39.100    23229904.889 3         0.00000      2324.322          28.000  
G29  23148259.368 3   3697794.71202     -3423.622          38.600           0.000 0         0.00000         0.000           0.000  
R02  21331735.607 3   7502536.42502     -3410.451          37.100  
R18  19541218.323 3 -12704821.17501       971.205          41.600  
R09  24276141.279 3  -2215737.61809     -1327.794          38.500  
R19  21953561.552 4   -158496.57109      3354.353          31.600  
R17  20862635.363 3   3306135.50401     -2250.877          40.500  
R03  19218148.133 3 -17316600.10001       266.169          40.000  
R04  21441792.455 4         0.00000      3776.326          28.700  
E01  28372806.118 3      1536.61105      -170.129          36.200    28370679.983 3         0.00000      -126.034          27.800  
E03  24983271.915 5         0.00000     -1245.650          27.000           0.000 0         0.00000         0.000           0.000  
E07  27135467.647 4    -23448.83109      3115.689          29.300    27133347.445 3         0.00000      2327.232          25.200  
E08  22111434.090 3   -534794.10304      1571.215          39.500    22109305.582 2  -4282774.93405      1173.664          31.700  
E13  23800506.767 3   -308938.20805      1200.005          36.200    23798385.099 2  -1943974.42405       896.234          32.800  
E15  23985749.972 5         0.00000      -988.900          28.700    23983626.001 3         0.00000      -733.983          27.600  
E21  27630332.020 5         0.00000     -1949.650          28.700           0.000 0         0.00000         0.000           0.000  
E26  26715086.038 3   -339978.37604      2358.406          37.700    26712965.627 3         0.00000      1761.928          27.900  
> 2020 06 25 00 34 44.4409533  0 24
G10  21702953.390 3   -353169.78202      2013.641          39.100    21700606.895 2  -4871093.03109      1503.640          31.200  
G13  24103081.606 4   2473319.51509     -2239.578          30.700           0.000 0         0.00000         0.000           0.000  
G16  23218477.718 3    228135.41702      -689.159          37.000           0.000 0         0.00000         0.000           0.000  
G18  20693201.706 3    921772.63302      -705.187          37.700           0.000 0         0.00000         0.000           0.000  
G20  20159956.975 3  -2339327.65501       285.279          39.900           0.000 0         0.00000         0.000           0.000  
G21  21506026.287 3  -1575214.27101      1082.784          40.700           0.000 0         0.00000         0.000           0.000  
G26  23587142.326 3    367552.79509     -2223.107          36.400    23584799.460 1   4178649.11303     -1660.136          35.000  
G27  23231660.171 3    -35475.89001      3106.801          39.700    23229311.581 3         0.00000      2318.757          28.200  
G29  23148910.262 3   3701224.95101     -3435.914          39.300           0.000 0         0.00000         0.000           0.000  
R02  21332372.400 3   7505953.72502     -3422.496          37.500  
R18  19541033.909 3 -12705786.42601       960.647          40.600  
R09  24276397.029 4  -2214404.78603     -1334.489          34.200  
R19  21952933.204 4   -161845.68609      3346.759          31.800  
R17  20863064.429 3   3308393.76301     -2264.439          40.300  
R03  19218095.991 3 -17316860.11202       255.004          39.800  
R04  21441083.417 4 -15078284.65109      3765.686          30.300  
E01  28372837.598 3      1710.38904      -175.952          37.800    28370714.744 2      1851.05309      -132.613          30.100  
E03  24983516.288 4      2176.59409     -1255.829          28.900           0.000 0         0.00000         0.000           0.000  
E07  27134877.271 5         0.00000      3108.800          27.400    27132754.208 3         0.00000      2321.200          23.500  
E08  22111131.573 3   -536359.51403      1559.985          40.400    22109008.161 2  -4283944.69009      1163.425          32.400  
E13  23800278.029 3   -310133.51904      1191.980          37.100    23798158.177 2  -1944866.79205       888.031          33.300  
E15  23985936.480 4      4069.09709      -997.214          29.700    23983816.627 2   1749753.54009      -747.418          29.500  
E21  27630700.499 5         0.00000     -1954.050          27.700    27628586.300 4         0.00000     -1457.200          21.800  
E26  26714638.475 3   -342333.38304      2352.981          38.900    26712516.529 2         0.00000      1759.650          30.000  
> 2020 06 25 00 34 45.4409533  0 25
G10  21702569.625 3   -355182.58602      2012.160          38.200    21700224.037 2  -4872596.14105      1502.612          31.100  
G13  24103496.503 4   2475562.66909     -2248.187          29.500           0.000 0         0.00000         0.000           0.000  
G15  21953528.326 5         0.00000     -1464.274          27.000           0.000 0         0.00000         0.000           0.000  
G16  23218602.383 4    228824.66703      -689.289          34.600           0.000 0         0.00000         0.000           0.000  
G18  20693341.727 3    922480.85802      -711.018          36.500           0.000 0         0.00000         0.000           0.000  
G20  20159898.482 3  -2339611.08901       281.778          40.200           0.000 0         0.00000         0.000           0.000  
G21  21505820.654 3  -1576295.86801      1080.419          41.000           0.000 0         0.00000         0.000           0.000  
G26  23587559.386 3    369776.12509     -2223.337          35.200    23585222.174 1   4180309.37503     -1660.168          35.000  
G27  23231064.770 3    -38582.23502      3105.780          39.000    23228720.368 2  -3007130.00609      2319.440          31.200  
G29  23149566.809 3   3704664.64402     -3442.917          38.400           0.000 0         0.00000         0.000           0.000  
R02  21333011.846 4   7509379.35509     -3428.939          33.700  
R18  19540856.754 3 -12706744.42201       955.576          41.500  
R09  24276633.864 3  -2213070.16902     -1334.823          36.000  
R19  21952281.753 4   -165192.38109      3345.491          31.900  
R17  20863485.887 3   3310662.64101     -2272.852          41.500  
R03  19218051.319 3 -17317112.17301       249.493          41.100  
R04  21440374.101 4 -15082050.18209      3764.154          31.400  
E01  28372870.265 3      1886.96705      -176.266          36.200    28370747.481 2         0.00000      -129.400          29.800  
E03  24983749.842 4      3437.46809     -1263.768          29.400    24981623.987 4         0.00000      -941.550          21.400  
E07  27134287.314 4    -29664.80708      3104.281          32.800    27132164.181 3         0.00000      2317.386          23.600  
E08  22110838.061 3   -537916.43703      1554.799          40.200    22108710.739 2  -4285107.37505      1158.051          32.500  
E13  23800056.760 3   -311323.60704      1189.358          37.300    23797931.254 2  -1945755.57204       885.404          34.500  
E15  23986127.455 5         0.00000     -1008.500          27.300    23984007.323 3         0.00000      -752.344          27.700  
E21  27631069.466 5         0.00000     -1956.350          28.600    27628959.246 3         0.00000     -1458.600          26.600  
E26  26714190.214 3   -344686.33404      2353.548          38.200    26712069.803 2    -21717.92609      1763.609          29.600  
> 2020 06 25 00 34 46.4409533  0 25
G10  21702191.025 3   -357196.64401      2013.058          40.900    21699841.528 2  -4874100.10005      1503.066          31.000  
G13  24103915.866 5         0.00000     -2250.199          27.200           0.000 0         0.00000         0.000           0.000  
G15  21953806.832 4      2193.11209     -1468.082          30.100           0.000 0         0.00000         0.000           0.000  
G16  23218734.586 3    229511.30002      -687.372          36.300           0.000 0         0.00000         0.000           0.000  
G18  20693473.301 3    923192.35102      -713.602          37.600           0.000 0         0.00000         0.000           0.000  
G20  20159848.435 3  -2339893.66801       281.048          40.800           0.000 0         0.00000         0.000           0.000  
G21  21505612.578 3  -1577377.62801      1080.536          41.100           0.000 0         0.00000         0.000           0.000  
G26  23587992.571 4    371996.87909     -2221.638          34.700    23585644.888 2   4181967.76304     -1658.941          34.800  
G27  23230477.745 3    -41690.46201      3107.074          39.200    23228131.318 2  -3009451.11205      2320.241          31.000  
G29  23150219.447 3   3708108.12801     -3445.787          40.600           0.000 0         0.00000         0.000           0.000  
R02  21333631.538 4   7512808.59509     -3431.450          32.600  
R18  19540678.064 2 -12707700.05701       953.688          42.100  
R09  24276897.362 4  -2211738.02303     -1333.239          34.900  
R19  21951673.159 4   -168539.61904      3346.735          32.200  
R17  20863904.762 3   3312936.82501     -2276.692          40.900  
R03  19217998.270 3 -17317361.45201       247.262          41.900  
R04  21439660.317 3 -15085814.86002      3763.922          35.600  
E01  28372903.211 3      2060.99905      -174.110          36.200    28370781.334 2      2117.81705      -131.718          31.600  
E03  24983991.423 4      4702.26109     -1266.613          30.400    24981863.194 3         0.00000      -943.000          24.100  
E07  27133691.634 4    -32769.83808      3104.665          32.400    27131571.781 3         0.00000      2317.177          27.800  
E08  22110540.081 3   -539470.39204      1551.736          39.100    22108416.948 2  -4286267.77805      1156.935          32.600  
E13  23799828.930 3   -312513.76704      1189.448          37.800    23797704.890 2  -1946644.22805       885.835          33.200  
E15  23986322.897 6         0.00000     -1015.100          23.100    23984198.857 3         0.00000      -754.854          28.400  
E21  27631449.602 5         0.00000     -1948.950          28.100    27629328.353 3         0.00000     -1457.599          24.900  
E26  26713744.186 3   -347042.70304      2356.450          37.800    26711621.332 2    -23478.13109      1758.167          31.900  
> 2020 06 25 00 34 47.4409533  0 25
G10  21701807.819 3   -359207.38801      2010.438          39.300    21699459.298 2  -4875601.62005      1501.398          32.200  
G13  24104350.865 5         0.00000     -2249.900          24.500           0.000 0         0.00000         0.000           0.000  
G15  21954084.081 4      3663.64709     -1470.244          30.300           0.000 0         0.00000         0.000           0.000  
G16  23218862.600 3    230200.91002      -690.090          36.400           0.000 0         0.00000         0.000           0.000  
G18  20693612.415 3    923908.13102      -715.773          37.800           0.000 0         0.00000         0.000           0.000  
G20  20159795.386 3  -2340172.35301       278.504          40.700           0.000 0         0.00000         0.000           0.000  
G21  21505410.225 3  -1578456.02601      1078.274          40.300           0.000 0         0.00000         0.000           0.000  
G26  23588412.842 4    374220.34109     -2223.666          34.200    23586067.323 1   4183628.05003     -1660.411          35.000  
G27  23229885.694 3    -44795.77002      3105.051          37.800    23227541.641 2  -3011769.94905      2318.645          31.700  
G29  23150876.552 3   3711556.05502     -3447.865          35.900           0.000 0         0.00000         0.000           0.000  
R02  21334293.808 4   7516242.27909     -3433.788          30.900  
R18  19540507.471 3 -12708651.34201       951.095          41.700  
R09  24277153.671 4  -2210402.96103     -1335.222          35.300  
R19  21951044.253 4   -171884.50404      3344.637          32.100  
R17  20864331.036 3   3315215.96201     -2279.073          40.600  
R03  19217958.972 2 -17317606.00701       244.323          43.000  
R04  21438953.444 4 -15089576.48003      3761.308          33.400  
E01  28372936.506 4      2238.00606      -176.906          35.700    28370814.280 3      2249.87709      -133.321          29.000  
E03  24984239.704 4      5972.42909     -1269.721          29.700    24982106.660 3         0.00000      -941.950          22.800  
E07  27133102.235 4    -35871.28609      3101.819          31.700    27130981.824 3         0.00000      2315.882          27.800  
E08  22110244.474 3   -541019.76404      1549.596          37.900    22108122.248 2  -4287424.92205      1156.112          31.400  
E13  23799602.287 3   -313700.18804      1186.568          38.600    23797479.712 2  -1947530.42209       885.411          32.700  
E15  23986509.405 5         0.00000     -1014.000          24.400    23984389.553 3         0.00000      -756.244          27.300  
E21  27631817.452 4    322018.16709     -1951.516          30.500    27629702.137 3   1837063.65409     -1459.491          28.800  
E26  26713293.273 3   -349396.63004      2354.177          37.800    26711173.420 2    -25236.21009      1756.871          29.800  
> 2020 06 25 00 34 48.4409533  0 25
G10  21701424.751 3   -361217.50201      2008.158          39.200    21699075.533 2  -4877102.66809      1499.542          30.600  
G13  24104797.312 5         0.00000     -2255.575          25.700           0.000 0         0.00000         0.000           0.000  
G15  21954350.022 4      5132.45909     -1471.950          30.300           0.000 0         0.00000         0.000           0.000  
G16  23218998.991 3    230891.38102      -692.258          36.700           0.000 0         0.00000         0.000           0.000  
G18  20693747.898 3    924624.27302      -719.022          38.900           0.000 0         0.00000         0.000           0.000  
G20  20159739.615 3  -2340450.41001       275.637          40.600           0.000 0         0.00000         0.000           0.000  
G21  21505203.056 3  -1579534.02501      1075.843          40.800           0.000 0         0.00000         0.000           0.000  
G26  23588837.370 3    376444.33202     -2225.493          35.400    23586490.595 2   4185288.85805     -1662.025          33.800  
G27  23229293.294 3    -47900.45902      3102.862          38.600    23226947.426 2         0.00000      2317.062          29.700  
G29  23151529.818 4   3715004.09903     -3451.047          33.800           0.000 0         0.00000         0.000           0.000  
R02  21334941.002 4   7519676.45809     -3437.339          33.300  
R18  19540327.943 3 -12709601.95601       947.896          41.800  
R09  24277385.410 3  -2209066.99702     -1337.817          37.700  
R19  21950414.370 4   -175228.98504      3342.419          32.100  
R17  20864753.122 3   3317495.48401     -2282.907          40.200  
R03  19217907.110 3 -17317849.68101       240.844          41.900  
R04  21438254.946 4 -15093337.34909      3758.449          30.000  
E01  28372971.895 4      2415.55106      -179.456          35.400    28370848.762 2      2382.35409      -135.983          30.400  
E03  24984475.911 4      7242.56409     -1273.021          30.800           0.000 0         0.00000         0.000           0.000  
E07  27132519.468 4    -38972.85508      3099.259          32.100    27130390.611 3         0.00000      2313.947          26.200  
E08  22109950.961 3   -542568.98804      1546.817          39.500    22107826.642 2  -4288581.80209      1152.991          30.400  
E13  23799376.830 3   -314886.44604      1184.285          37.900    23797252.790 2  -1948416.26705       882.738          32.000  
E15  23986714.480 5         0.00000     -1015.500          24.000    23984583.181 3         0.00000      -758.893          28.800  
E21  27632196.750 5         0.00000     -1955.050          27.400    27630074.175 3         0.00000     -1460.462          26.100  
E26  26712847.804 3   -351750.51604      2352.567          37.500    26710725.578 3    -26993.76509      1753.564          28.900  
> 2020 06 25 00 34 49.4409533  0 26
G10  21701038.613 3   -363229.48201      2014.454          40.400    21698693.304 2  -4878605.19209      1504.346          30.200  
G13  24105220.026 5         0.00000     -2253.919          27.700           0.000 0         0.00000         0.000           0.000  
G15  21954644.093 4      6605.65909     -1472.403          31.300           0.000 0         0.00000         0.000           0.000  
G16  23219128.542 3    231579.52102      -685.469          36.700           0.000 0         0.00000         0.000           0.000  
G18  20693881.916 3    925341.12502      -715.582          38.000           0.000 0         0.00000         0.000           0.000  
G20  20159688.033 3  -2340729.18001       280.610          40.400           0.000 0         0.00000         0.000           0.000  
G21  21504998.888 3  -1580613.28401      1081.280          40.500           0.000 0         0.00000         0.000           0.000  
G26  23589257.711 3    378665.58102     -2218.425          36.800    23586913.658 2   4186947.56704     -1656.675          34.400  
G27  23228702.708 3    -51007.06801      3108.991          39.200    23226357.120 3         0.00000      2321.690          28.700  
G29  23152187.273 3   3718452.99502     -3447.712          35.800           0.000 0         0.00000         0.000           0.000  
R02  21335582.891 4   7523111.79703     -3434.367          33.700  
R18  19540144.785 3 -12710552.27801       951.791          41.300  
R09  24277645.627 3  -2207733.05202     -1331.469          36.700  
R19  21949790.769 4   -178575.27204      3348.739          32.400  
R17  20865178.837 3   3319776.79901     -2280.521          40.000  
R03  19217872.629 2 -17318092.82201       244.501          42.300  
R04  21437563.569 5         0.00000      3764.650          24.300  
E01  28373004.841 3      2591.07805      -173.133          36.100    28370882.057 2      2513.36709      -128.936          29.800  
E03  24984720.493 4      8514.37509     -1270.837          29.700           0.000 0         0.00000         0.000           0.000  
E07  27131928.254 4    -42075.75009      3104.954          29.400    27129801.491 3         0.00000      2319.169          25.500  
E08  22109656.611 3   -544117.72704      1550.273          38.200    22107532.291 2  -4289738.39409      1158.278          31.500  
E13  23799147.185 3   -316073.74404      1189.189          37.700    23797027.682 2  -1949302.98709       889.059          31.000  
E15  23986901.198 5         0.00000     -1013.550          26.700    23984776.878 2         0.00000      -755.850          29.400  
E21  27632558.877 4    325922.20409     -1947.640          28.800    27630443.562 3         0.00000     -1453.864          26.100  
E26  26712396.890 3   -354107.05004      2359.282          38.000    26710277.666 2    -28753.74409      1762.497          30.200  
E27  28426152.969 6         0.00000     -2501.200          21.700           0.000 0         0.00000         0.000           0.000  
> 2020 06 25 00 34 50.4409533  0 26
G10  21700662.665 3   -365242.02301      2009.389          40.300    21698310.795 2  -4880108.05505      1500.583          31.800  
G13  24105633.107 5         0.00000     -2257.626          25.700           0.000 0         0.00000         0.000           0.000  
G15  21954917.503 4      8081.15009     -1479.915          31.300           0.000 0         0.00000         0.000           0.000  
G16  23219252.369 3    232266.83502      -690.357          37.300           0.000 0         0.00000         0.000           0.000  
G18  20694020.750 3    926059.27302      -721.961          38.500           0.000 0         0.00000         0.000           0.000  
G20  20159637.357 3  -2341007.56801       274.849          40.700           0.000 0         0.00000         0.000           0.000  
G21  21504794.721 3  -1581692.64401      1076.074          40.900           0.000 0         0.00000         0.000           0.000  
G26  23589680.076 3    380885.82402     -2223.095          38.300    23587336.303 1   4188605.55403     -1660.102          35.500  
G27  23228110.029 3    -54114.24501      3104.245          39.900    23225765.907 2  -3018728.58505      2318.056          31.600  
G29  23152845.006 3   3721903.51401     -3454.503          39.200           0.000 0         0.00000         0.000           0.000  
R02  21336233.993 4   7526548.87503     -3441.124          34.500  
R18  19539969.376 3 -12711501.53301       945.466          41.700  
R09  24277894.747 4  -2206399.62603     -1336.510          35.100  
R19  21949163.957 4   -181922.14704      3343.793          32.900  
R17  20865607.833 3   3322060.44801     -2288.030          40.300  
R03  19217821.953 2 -17318334.60901       237.799          42.500  
R04  21436858.510 5         0.00000      3757.550          25.000  
E01  28373039.043 3      2765.84405      -177.627          36.400    28370914.724 2      2643.90605      -135.634          31.300  
E03  24984962.143 4      9788.13109     -1277.495          29.800    24982829.448 4         0.00000      -949.100          20.100  
E07  27131331.108 4    -45179.16509      3100.536          30.700    27129209.440 3         0.00000      2313.851          25.900  
E08  22109361.284 3   -545665.41804      1544.051          38.400    22107236.405 2  -4290894.02005      1149.728          31.700  
E13  23798925.986 3   -317261.17104      1184.459          38.000    23796801.597 2  -1950189.56505       881.145          32.400  
E15  23987095.174 5         0.00000     -1019.000          27.900    23984969.947 2         0.00000      -762.081          29.800  
E21  27632931.823 4    327871.14509     -1951.230          29.900    27630817.066 3         0.00000     -1457.969          26.400  
E26  26711948.419 3   -356465.26204      2355.626          37.800    26709829.195 3    -30514.51809      1756.469          28.700  
E27  28426628.732 5         0.00000     -2504.600          28.100           0.000 0         0.00000         0.000           0.000  
> 2020 06 25 00 34 51.4409533  0 27
G10  21700280.715 3   -367249.43101      2005.517          40.700    21697929.124 2  -4881607.01305      1497.849          32.800  
G13  24106068.386 5         0.00000     -2268.982          27.000           0.000 0         0.00000         0.000           0.000  
G15  21955196.916 4      9564.53709     -1487.160          31.700           0.000 0         0.00000         0.000           0.000  
G16  23219387.573 3    232958.65802      -693.251          37.100           0.000 0         0.00000         0.000           0.000  
G18  20694159.235 3    926784.34302      -727.772          39.100           0.000 0         0.00000         0.000           0.000  
G20  20159584.308 2  -2341280.00401       270.326          41.200           0.000 0         0.00000         0.000           0.000  
G21  21504589.367 3  -1582766.66601      1072.342          40.700           0.000 0         0.00000         0.000           0.000  
G26  23590102.511 3    383110.47602     -2226.070          36.500    23587759.645 1   4190266.84503     -1662.321          35.400  
G27  23227524.191 3    -57216.73202      3100.998          38.600    23225176.857 2  -3021045.40809      2315.635          30.500  
G29  23153502.461 3   3725361.35502     -3461.225          37.300           0.000 0         0.00000         0.000           0.000  
G32  25323411.978 5         0.00000      3620.350          23.800           0.000 0         0.00000         0.000           0.000  
R02  21336862.690 4   7529993.06509     -3447.183          30.800  
R18  19539788.592 3 -12712444.03501       940.081          41.900  
R09  24278130.743 4  -2205062.06109     -1340.686          32.400  
R19  21948528.979 4   -185264.25204      3340.481          31.700  
R17  20866036.829 3   3324352.11901     -2295.229          40.200  
R03  19217783.912 2 -17318569.19501       231.840          42.800  
R04  21436159.664 4 -15104620.46009      3753.988          30.500  
E01  28373073.246 3      2945.03609      -180.013          36.800    28370949.205 3      2777.79509      -137.337          28.200  
E03  24985204.422 4     11069.40309     -1283.834          30.400           0.000 0         0.00000         0.000           0.000  
E07  27130744.082 4    -48276.70208      3095.414          33.400    27128622.136 3         0.00000      2310.786          27.700  
E08  22109066.933 3   -547206.12604      1537.846          38.300    22106944.079 2  -4292044.54909      1146.827          30.700  
E13  23798698.715 3   -318443.08904      1180.241          38.300    23796577.327 2  -1951072.16809       879.483          32.700  
E15  23987289.430 5         0.00000     -1026.000          26.000    23985163.924 3         0.00000      -766.622          28.400  
E21  27633302.675 4    329824.29709     -1954.094          29.700    27631187.639 3         0.00000     -1460.084          28.100  
E26  26711500.507 3   -358819.28804      2353.648          36.800    26709379.817 3    -32272.47009      1755.846          28.700  
E27  28427100.027 4      3978.59509     -2509.716          30.700           0.000 0         0.00000         0.000           0.000  
> 2020 06 25 00 34 52.4409533  0 27
G10  21699894.298 3   -369254.93801      2007.607          40.800    21697547.522 2  -4883104.66605      1499.362          32.600  
G13  24106509.667 5         0.00000     -2268.251          25.900           0.000 0         0.00000         0.000           0.000  
G15  21955505.087 5         0.00000     -1489.926          26.900           0.000 0         0.00000         0.000           0.000  
G16  23219514.959 3    233651.13002      -689.647          37.300           0.000 0         0.00000         0.000           0.000  
G18  20694295.625 3    927513.86202      -728.801          38.000           0.000 0         0.00000         0.000           0.000  
G20  20159536.355 2  -2341549.25001       270.754          42.500           0.000 0         0.00000         0.000           0.000  
G21  21504384.292 3  -1583838.56401      1073.851          40.300           0.000 0         0.00000         0.000           0.000  
G26  23590532.415 4    385335.78403     -2222.585          33.500    23588182.080 2   4191928.50104     -1659.668          34.300  
G27  23226929.138 3    -60318.52202      3104.316          38.700    23224584.178 2  -3023361.54109      2318.198          30.000  
G29  23154166.826 3   3728824.13902     -3462.370          35.600           0.000 0         0.00000         0.000           0.000  
G32  25322709.293 5         0.00000      3620.800          25.700           0.000 0         0.00000         0.000           0.000  
R02  21337521.331 4   7533441.81803     -3448.000          33.900  
R18  19539616.532 3 -12713382.52501       939.553          40.800  
R09  24278390.612 4  -2203722.30509     -1336.253          32.200  
R19  21947907.192 4   -188605.40507      3343.685          30.800  
R17  20866466.175 3   3326649.89702     -2297.664          37.800  
R03  19217738.611 2 -17318799.15401       230.792          44.300  
R04  21435458.724 4         0.00000      3756.043          28.600  
E01  28373106.471 4      3124.64306      -176.746          35.200    28370984.594 3         0.00000      -132.231          27.300  
E03  24985454.449 5         0.00000     -1285.850          28.100    24983324.126 3         0.00000      -962.900          23.300  
E07  27130158.872 4    -51371.74409      3097.164          32.200    27128033.924 3         0.00000      2311.762          27.200  
E08  22108776.422 3   -548742.03804      1536.839          36.900    22106650.916 3         0.00000      1147.111          27.600  
E13  23798474.794 3   -319622.62604      1181.480          38.500    23796352.568 2  -1951953.00205       881.913          31.200  
E15  23987484.593 5         0.00000     -1026.950          26.500    23985357.900 3         0.00000      -767.930          27.000  
E21  27633674.714 4    331777.26809     -1949.507          30.100    27631559.049 3         0.00000     -1456.643          27.200  
E26  26711054.410 3   -361173.84305      2357.957          36.400    26708931.277 2    -34030.82709      1761.288          29.300  
E27  28427574.883 4      6488.37409     -2507.070          31.600           0.000 0         0.00000         0.000           0.000  
> 2020 06 25 00 34 53.4409533  0 27
G10  21699515.628 2   -371265.85101      2011.199          42.100    21697165.223 2  -4884606.32405      1501.937          33.400  
G13  24106938.733 5         0.00000     -2265.852          27.200           0.000 0         0.00000         0.000           0.000  
G15  21955762.652 5         0.00000     -1489.495          27.200           0.000 0         0.00000         0.000           0.000  
G16  23219650.792 3    234337.01602      -685.108          37.300           0.000 0         0.00000         0.000           0.000  
G18  20694434.739 3    928240.81702      -727.876          37.700           0.000 0         0.00000         0.000           0.000  
G20  20159480.305 2  -2341822.62301       273.081          43.100           0.000 0         0.00000         0.000           0.000  
G21  21504179.566 3  -1584915.41701      1076.983          40.600           0.000 0         0.00000         0.000           0.000  
G26  23590950.662 4    387554.68109     -2218.308          31.600    23588604.724 1   4193585.53103     -1656.301          35.200  
G27  23226337.297 3    -63426.58802      3108.556          38.500    23223994.151 2  -3025682.55205      2321.188          31.900  
G29  23154825.746 4         0.00000     -3462.100          35.000           0.000 0         0.00000         0.000           0.000  
G32  25322026.012 5         0.00000      3621.050          24.700           0.000 0         0.00000         0.000           0.000  
R02  21338154.215 4   7536887.78703     -3447.192          34.300  
R18  19539440.844 3 -12714324.25601       940.975          40.500  
R09  24278649.364 4  -2202390.41409     -1331.034          34.700  
R19  21947306.975 4   -191952.90304      3347.928          31.400  
R17  20866893.914 3   3328946.59202     -2298.308          38.600  
R03  19217690.030 2 -17319031.79401       231.708          43.900  
R04  21434772.232 5         0.00000      3757.660          26.700  
E01  28373139.766 3      3297.31205      -171.762          36.600    28371016.633 2      3041.84205      -129.782          32.100  
E03  24985694.564 5         0.00000     -1283.200          27.800    24983566.335 3         0.00000      -959.700          24.400  
E07  27129566.821 4    -54471.23509      3099.860          33.800    27127444.874 3         0.00000      2314.488          27.600  
E08  22108482.630 3   -550280.51904      1537.883          38.400    22106360.125 3  -4294340.31009      1147.592          28.400  
E13  23798247.801 3   -320807.09804      1184.743          38.600    23796125.855 2  -1952837.46505       883.534          32.600  
E15  23987675.289 5         0.00000     -1026.250          27.400    23985554.529 3         0.00000      -767.526          29.100  
E21  27634046.473 4    333723.13309     -1944.001          30.800    27631931.088 3         0.00000     -1452.812          28.100  
E26  26710605.032 3   -363535.67504      2363.331          38.000    26708482.178 2    -35794.47109      1763.211          32.500  
E27  28428059.650 4      8991.41009     -2501.875          29.200           0.000 0         0.00000         0.000           0.000  
> 2020 06 25 00 34 54.4409533  0 27
G10  21699130.676 3   -373278.30001      2012.716          40.800    21696782.993 2  -4886109.11905      1503.048          32.100  
G13  24107386.924 5         0.00000     -2271.050          24.000           0.000 0         0.00000         0.000           0.000  
G15  21956045.625 4         0.00000     -1490.674          28.200           0.000 0         0.00000         0.000           0.000  
G16  23219783.274 3    235020.80102      -683.545          37.000           0.000 0         0.00000         0.000           0.000  
G18  20694576.853 3    928968.75902      -728.321          37.500           0.000 0         0.00000         0.000           0.000  
G20  20159429.909 2  -2342096.28201       273.620          42.700           0.000 0         0.00000         0.000           0.000  
G21  21503974.491 3  -1585993.22101      1077.864          40.400           0.000 0         0.00000         0.000           0.000  
G26  23591368.839 4    389771.15404     -2216.139          32.300    23589026.531 2   4195240.67104     -1654.785          34.400  
G27  23225740.429 3    -66536.37602      3109.937          36.600    23223402.658 2  -3028004.76309      2322.228          30.000  
G29  23155478.663 3   3735754.41302     -3462.557          35.800           0.000 0         0.00000         0.000           0.000  
G32  25321344.267 5         0.00000      3621.395          26.300           0.000 0         0.00000         0.000           0.000  
R02  21338820.953 4   7540335.18809     -3447.985          33.500  
R18  19539269.622 3 -12715265.38501       940.778          40.900  
R09  24278893.946 4  -2201060.52004     -1329.281          31.700  
R19  21946670.530 4   -195301.94904      3349.076          31.600  
R17  20867328.355 3   3331245.39402     -2299.520          36.900  
R03  19217647.172 2 -17319263.59901       231.402          43.600  
R04  21434062.636 5         0.00000      3756.232          26.900  
E01  28373171.525 3      3468.05205      -170.609          36.200    28371049.300 3      3169.31109      -128.647          29.100  
E03  24985933.772 5         0.00000     -1288.700          26.200    24983809.173 3         0.00000      -961.473          23.400  
E07  27128977.981 4    -57571.93108      3101.012          32.600    27126852.474 3         0.00000      2315.570          26.800  
E08  22108192.398 3   -551818.16405      1537.605          36.600    22106068.358 3         0.00000      1148.049          27.200  
E13  23798022.972 3   -321992.24204      1185.436          38.200    23795901.933 2  -1953722.56209       884.502          31.000  
E15  23987878.829 5         0.00000     -1028.850          25.700    23985748.785 3         0.00000      -767.913          27.100  
E21  27634418.791 4    335666.42209     -1942.616          31.600    27632299.567 3         0.00000     -1450.577          25.600  
E26  26710151.466 3   -365900.24004      2365.128          37.600    26708033.428 2    -37560.29005      1765.565          31.900  
E27  28428531.853 4     11490.78709     -2498.345          30.000           0.000 0         0.00000         0.000           0.000  
> 2020 06 25 00 34 55.4409533  0 27
G10  21698746.632 3   -375289.47401      2006.577          41.100    21696398.949 2  -4887610.94605      1498.278          32.500  
G13  24107789.256 5         0.00000     -2278.000          23.800           0.000 0         0.00000         0.000           0.000  
G15  21956328.318 5         0.00000     -1497.946          27.400           0.000 0         0.00000         0.000           0.000  
G16  23219911.568 3    235706.16302      -690.340          38.300           0.000 0         0.00000         0.000           0.000  
G18  20694713.872 3    929698.64802      -734.153          38.400           0.000 0         0.00000         0.000           0.000  
G20  20159375.953 2  -2342368.42301       267.766          42.900           0.000 0         0.00000         0.000           0.000  
G21  21503766.763 3  -1587069.68001      1072.107          40.900           0.000 0         0.00000         0.000           0.000  
G26  23591790.366 4    391988.88003     -2222.571          34.900    23589448.687 2   4196896.82304     -1659.659          34.100  
G27  23225154.660 3    -69644.51702      3103.349          38.100    23222810.887 2  -3030325.85109      2317.552          30.400  
G29  23156136.118 3   3739218.81302     -3469.019          38.300           0.000 0         0.00000         0.000           0.000  
G32  25320662.592 6         0.00000      3618.600          23.000           0.000 0         0.00000         0.000           0.000  
R02  21339459.771 4   7543785.20104     -3454.368          32.700  
R18  19539086.744 3 -12716204.52601       934.679          41.600  
R09  24279144.880 4         0.00000     -1336.641          29.200  
R19  21946042.741 4   -198649.58604      3342.851          31.300  
R17  20867754.350 3   3333546.72102     -2305.805          38.200  
R03  19217605.221 2 -17319493.22801       225.039          43.700  
R04  21433361.417 4         0.00000      3752.346          28.700  
E01  28373206.007 4      3640.72206      -176.804          35.000    28371081.129 3         0.00000      -132.967          27.500  
E03  24986187.149 5         0.00000     -1292.550          25.200    24984055.919 3         0.00000      -966.277          24.500  
E07  27128387.745 4    -60671.18007      3095.045          34.300    27126263.355 3         0.00000      2310.301          25.800  
E08  22107898.327 3   -553354.12004      1532.079          37.200    22105773.658 3  -4296635.54309      1142.809          28.600  
E13  23797797.236 3   -323176.11404      1180.210          38.400    23795675.569 2  -1954606.53009       878.042          31.000  
E15  23988070.083 5         0.00000     -1030.300          27.000    23985946.112 3         0.00000      -772.697          27.300  
E21  27634788.736 4    337610.63809     -1948.595          31.500    27632668.325 3         0.00000     -1456.392          27.100  
E26  26709705.368 3   -368263.58004      2359.524          38.600    26707582.863 2    -39325.00809      1758.852          30.400  
E27  28429006.429 4     13993.12109     -2506.849          31.700           0.000 0         0.00000         0.000           0.000  
> 2020 06 25 00 34 56.4409533  0 27
G10  21698365.030 3   -377293.78301      2005.515          40.200    21696017.697 2  -4889107.69809      1497.619          30.200  
G13  24108208.899 5         0.00000     -2278.050          25.400           0.000 0         0.00000         0.000           0.000  
G15  21956627.206 5         0.00000     -1498.401          27.400           0.000 0         0.00000         0.000           0.000  
G16  23220041.677 3    236398.93302      -691.692          35.900           0.000 0         0.00000         0.000           0.000  
G18  20694852.357 3    930434.63202      -734.494          38.300           0.000 0         0.00000         0.000           0.000  
G20  20159324.370 2  -2342634.11201       266.996          41.600           0.000 0         0.00000         0.000           0.000  
G21  21503567.691 3  -1588139.84901      1071.534          40.800           0.000 0         0.00000         0.000           0.000  
G26  23592221.736 4    394213.85703     -2223.802          33.700    23589871.959 2   4198558.36605     -1660.673          32.800  
G27  23224574.266 3    -72745.66902      3102.409          37.500    23222220.022 3         0.00000      2316.826          28.300  
G29  23156799.016 3   3742689.71802     -3469.393          37.100           0.000 0         0.00000         0.000           0.000  
G32  25319948.738 5         0.00000      3604.500          24.000           0.000 0         0.00000         0.000           0.000  
R02  21340085.466 4   7547241.66804     -3455.335          31.600  
R18  19538909.310 3 -12717137.17101       934.000          41.400  
R09  24279394.907 4  -2198389.15309     -1339.880          30.400  
R19  21945409.647 4   -201990.28004      3341.864          31.300  
R17  20868188.720 3   3335854.52702     -2306.243          38.600  
R03  19217568.367 2 -17319715.98001       224.036          42.200  
R04  21432643.375 4 -15123394.87004      3750.730          31.700  
E01  28373238.116 4      3820.77907      -178.935          34.400    28371113.517 3         0.00000      -134.136          25.200  
E03  24986433.267 5         0.00000     -1292.600          28.400    24984300.850 3         0.00000      -971.800          22.400  
E07  27127801.906 4    -63763.40708      3093.527          33.500    27125672.211 3         0.00000      2310.028          24.500  
E08  22107606.908 3   -554883.61804      1531.119          39.000    22105482.589 3         0.00000      1143.091          28.000  
E13  23797574.781 3   -324353.64504      1179.049          38.100    23795450.741 2  -1955485.90009       879.947          30.900  
E15  23988266.154 5         0.00000     -1038.300          24.900    23986142.462 3         0.00000      -772.237          23.800  
E21  27635156.307 4    339562.20409     -1950.456          30.500    27633040.364 3         0.00000     -1456.911          26.300  
E26  26709256.828 3   -370619.80504      2357.383          38.600    26707133.765 3         0.00000      1760.361          27.800  
E27  28429485.751 4     16502.52109     -2507.939          30.300    28427365.340 3         0.00000     -1872.950          22.700  
> 2020 06 25 00 34 57.4409533  0 27
G10  21697980.986 3   -379300.63701      2007.418          40.400    21695635.397 2  -4890606.32209      1499.068          30.500  
G13  24108670.632 5         0.00000     -2274.136          27.500           0.000 0         0.00000         0.000           0.000  
G15  21956897.056 4     18522.25809     -1495.954          30.500           0.000 0         0.00000         0.000           0.000  
G16  23220173.042 3    237089.82202      -690.517          35.700           0.000 0         0.00000         0.000           0.000  
G18  20694991.121 3    931167.65801      -732.194          39.200           0.000 0         0.00000         0.000           0.000  
G20  20159276.138 2  -2342902.43001       268.849          41.300           0.000 0         0.00000         0.000           0.000  
G21  21503360.871 3  -1589212.75301      1073.528          40.800           0.000 0         0.00000         0.000           0.000  
G26  23592641.169 4    396436.47003     -2222.127          35.100    23590297.046 2   4200218.10805     -1659.310          32.900  
G27  23223976.491 3    -75849.00502      3103.716          37.500    23221631.461 2         0.00000      2317.708          29.400  
G29  23157457.937 3   3746157.37902     -3466.677          37.500           0.000 0         0.00000         0.000           0.000  
G32  25319297.915 6         0.00000      3575.050          21.700           0.000 0         0.00000         0.000           0.000  
R02  21340746.201 4   7550695.40204     -3453.057          32.200  
R18  19538739.624 2 -12718072.50201       936.007          42.300  
R09  24279637.465 4         0.00000     -1337.779          29.200  
R19  21944777.950 4   -205333.48804      3343.663          32.700  
R17  20868624.069 3   3338159.23201     -2303.779          40.200  
R03  19217523.694 2 -17319941.22901       225.726          42.300  
R04  21431952.067 4 -15127147.25604      3753.076          31.600  
E01  28373271.969 4      3999.17409      -178.020          35.100    28371149.743 3         0.00000      -132.951          25.600  
E03  24986678.477 4      2280.38609     -1291.867          30.100           0.000 0         0.00000         0.000           0.000  
E07  27127210.134 4    -66858.87409      3096.087          33.500    27125085.186 3         0.00000      2312.003          24.700  
E08  22107316.118 3   -556416.13904      1533.215          38.900    22105191.519 2  -4298922.19409      1144.996          29.900  
E13  23797349.603 3   -325533.93404      1180.763          38.200    23795226.819 2  -1956367.27005       881.110          31.200  
E15  23988455.942 6         0.00000     -1031.550          22.700    23986340.278 3         0.00000      -770.378          26.200  
E21  27635529.532 4    341511.90409     -1949.599          31.400    27633412.681 3         0.00000     -1455.862          28.000  
E26  26708804.169 3   -372978.50504      2358.991          38.500    26706685.852 2    -42845.90209      1761.560          29.400  
E27  28429967.517 4     19009.24409     -2506.493          29.600           0.000 0         0.00000         0.000           0.000  
> 2020 06 25 00 34 58.4409533  0 27
G10  21697601.758 3   -381307.99401      2006.682          40.900    21695253.796 2         0.00000      1498.482          29.800  
G13  24109087.901 5         0.00000     -2275.364          26.700           0.000 0         0.00000         0.000           0.000  
G15  21957176.120 5         0.00000     -1491.963          26.900           0.000 0         0.00000         0.000           0.000  
G16  23220302.523 3    237780.69102      -691.641          36.800           0.000 0         0.00000         0.000           0.000  
G18  20695132.957 3    931899.15302      -731.437          38.500           0.000 0         0.00000         0.000           0.000  
G20  20159227.277 2  -2343171.54201       268.725          41.300           0.000 0         0.00000         0.000           0.000  
G21  21503155.796 3  -1590286.57101      1073.519          40.300           0.000 0         0.00000         0.000           0.000  
G26  23593064.441 3    398658.62602     -2222.844          35.600    23590719.481 2   4201877.46909     -1659.978          33.700  
G27  23223379.903 3    -78952.84002      3103.360          37.600    23221040.318 2         0.00000      2317.529          29.800  
G29  23158121.952 3   3749623.29002     -3465.960          36.200           0.000 0         0.00000         0.000           0.000  
G32  25318586.504 5         0.00000      3619.350          23.200           0.000 0         0.00000         0.000           0.000  
R02  21341400.096 4   7554147.75909     -3451.964          34.200  
R18  19538557.374 2 -12719008.85501       936.154          42.300  
R09  24279915.342 4         0.00000     -1337.636          29.800  
R19  21944161.608 4   -208677.55904      3343.552          32.700  
R17  20869047.969 3   3340462.19502     -2302.852          39.300  
R03  19217480.836 2 -17320167.20801       225.561          42.700  
R04  21431242.472 4 -15130900.34409      3752.496          33.400  
E01  28373309.173 4      4177.21009      -178.544          32.300    28371185.132 3         0.00000      -131.000          24.000  
E03  24986920.686 5         0.00000     -1290.250          25.500           0.000 0         0.00000         0.000           0.000  
E07  27126621.364 4    -69955.49909      3096.670          32.500    27124499.138 3         0.00000      2312.043          24.000  
E08  22107026.863 3   -557950.06604      1533.640          37.500    22104899.193 3  -4300067.60209      1145.163          29.100  
E13  23797123.867 3   -326715.28804      1181.252          37.300    23795003.736 2  -1957249.50105       882.330          31.400  
E21  27635899.477 4    343460.88409     -1950.326          30.000    27633780.811 3         0.00000     -1456.276          27.300  
E26  26708357.793 3   -375337.86004      2359.214          38.400    26706236.474 3    -44607.68009      1761.487          28.700  
E27  28430443.280 4     21514.38109     -2505.633          31.600    28428318.960 4         0.00000     -1874.300          22.100  
E15         0.000 0         0.00000         0.000           0.000    23986534.883 3         0.00000      -769.237          26.200  
> 2020 06 25 00 34 59.4409533  0 27
G10  21697220.436 3   -383313.69001      2006.341          39.400    21694872.474 2         0.00000      1498.145          29.200  
G13  24109514.245 6         0.00000     -2273.750          22.700           0.000 0         0.00000         0.000           0.000  
G15  21957479.893 4         0.00000     -1493.800          28.300           0.000 0         0.00000         0.000           0.000  
G16  23220438.634 3    238474.07202      -693.430          37.400           0.000 0         0.00000         0.000           0.000  
G18  20695268.161 3    932631.54502      -732.033          38.300           0.000 0         0.00000         0.000           0.000  
G20  20159171.785 2  -2343439.21101       267.922          41.200           0.000 0         0.00000         0.000           0.000  
G21  21502953.374 3  -1591358.85601      1072.180          40.200           0.000 0         0.00000         0.000           0.000  
G26  23593488.063 3    400882.65902     -2223.037          36.300    23591142.195 2   4203538.25705     -1659.954          32.700  
G27  23222795.600 3    -82054.41602      3101.088          38.100    23220450.012 2  -3039592.96109      2315.770          30.500  
G29  23158776.126 3   3753089.18802     -3463.736          37.900           0.000 0         0.00000         0.000           0.000  
G32  25317912.577 6         0.00000      3620.600          22.200           0.000 0         0.00000         0.000           0.000  
R02  21342044.009 3   7557601.32602     -3453.738          37.300  
R18  19538387.967 2 -12719943.83701       935.001          42.100  
R09  24280102.758 5         0.00000     -1343.200          24.300  
R19  21943535.913 4   -212019.70504      3341.530          32.700  
R17  20869477.873 3   3342765.41301     -2301.888          41.300  
R03  19217433.721 2 -17320391.75001       224.996          42.400  
R04  21430566.101 4 -15134652.22609      3752.835          31.700  
E01  28373343.934 4      4359.65309      -183.611          29.700    28371221.708 3         0.00000      -135.484          23.400  
E03  24987170.713 5         0.00000     -1291.300          28.000    24985036.202 4         0.00000      -964.150          21.000  
E07  27126032.803 4    -73051.47609      3097.903          30.600    27123907.017 3         0.00000      2313.494          25.000  
E08  22106732.722 3   -559483.23804      1534.606          39.100    22104608.403 2  -4301212.61009      1146.225          29.300  
E13  23796900.854 3   -327895.03704      1179.469          38.700    23794778.279 2  -1958130.57509       881.674          30.600  
E15  23988852.272 5         0.00000     -1029.200          24.100    23986731.791 3         0.00000      -768.829          27.800  
E21  27636273.610 5         0.00000     -1951.950          26.400    27634153.129 3         0.00000     -1456.809          27.000  
E26  26707910.509 3   -377695.07304      2356.336          37.600    26705787.027 2    -46368.04309      1760.729          30.500  
E27  28430918.205 5         0.00000     -2503.400          25.800           0.000 0         0.00000         0.000           0.000  
> 2020 06 25 00 35 00.4409533  0 27
G10  21696834.297 3   -385321.62902      2006.758          36.000    21694487.801 3         0.00000      1498.651          26.600  
G13  24109968.439 5         0.00000     -2279.291          26.800           0.000 0         0.00000         0.000           0.000  
G15  21957764.053 4     23004.39703     -1498.907          33.900           0.000 0         0.00000         0.000           0.000  
G16  23220564.206 3    239167.71102      -696.714          37.300           0.000 0         0.00000         0.000           0.000  
G18  20695412.021 4    933363.12203      -734.304          35.000           0.000 0         0.00000         0.000           0.000  
G20  20159122.297 2  -2343707.72301       266.354          41.800           0.000 0         0.00000         0.000           0.000  
G21  21502745.367 3  -1592431.04601      1069.107          40.300           0.000 0         0.00000         0.000           0.000  
G26  23593905.961 3    403104.13102     -2222.604          37.200    23591565.189 2   4205197.21805     -1660.002          32.200  
G27  23222205.923 3    -85154.46902      3095.710          38.500    23219860.334 2  -3041907.98405      2311.830          33.100  
G29  23159440.421 3   3756549.55909     -3462.135          37.100           0.000 0         0.00000         0.000           0.000  
G32  25317207.449 4         0.00000      3622.179          28.200           0.000 0         0.00000         0.000           0.000  
R02  21342696.647 3   7561055.68502     -3458.659          38.200  
R18  19538208.370 3 -12720878.92401       932.004          41.100  
R09  24280416.931 5         0.00000     -1347.950          25.100  
R19  21942927.040 4   -215360.26803      3336.111          35.600  
R17  20869916.152 3   3345065.36601     -2301.151          41.100  
R03  19217398.960 3 -17320617.77701       224.200          41.600  
R04  21429852.946 4 -15138406.92809      3755.339          29.600  
E01  28373377.508 4      4541.94909      -186.090          31.600           0.000 0         0.00000         0.000           0.000  
E03  24987414.457 5         0.00000     -1295.550          26.800    24985286.857 3         0.00000      -966.463          27.900  
E07  27125440.124 5         0.00000      3104.900          28.500    27123317.898 3         0.00000      2316.215          23.200  
E08  22106439.559 3   -561020.04903      1535.943          40.300    22104312.796 2  -4302360.20309      1147.199          29.300  
E13  23796677.840 3   -329074.80603      1176.981          40.700    23794551.705 2  -1959011.35509       877.977          30.700  
E15  23989051.344 4      2153.71707     -1030.769          34.700    23986927.582 2   1761966.88709      -769.698          30.500  
E21  27636643.554 4      1455.57909     -1952.375          30.500           0.000 0         0.00000         0.000           0.000  
E26  26707459.595 3   -380051.73305      2353.352          36.300    26705339.463 2    -48127.73305      1756.686          32.900  
E27  28431394.875 4      1473.06208     -2502.475          31.900           0.000 0         0.00000         0.000           0.000  
> 2020 06 25 00 35 01.4409533  0 27
G10  21696461.351 4   -387324.85809      2000.475          34.000    21694109.201 2  -4896598.37904      1493.653          34.200  
G13  24110421.726 5         0.00000     -2289.999          26.100           0.000 0         0.00000         0.000           0.000  
G15  21958051.562 4     24509.04904     -1509.494          32.700           0.000 0         0.00000         0.000           0.000  
G16  23220699.759 3    239869.64709      -707.484          35.200           0.000 0         0.00000         0.000           0.000  
G18  20695549.110 3    934103.11502      -744.584          35.600           0.000 0         0.00000         0.000           0.000  
G20  20159072.878 2  -2343968.93901       257.021          41.400           0.000 0         0.00000         0.000           0.000  
G21  21502545.108 3  -1593493.72901      1057.328          40.300           0.000 0         0.00000         0.000           0.000  
G26  23594333.212 2    405329.92501     -2228.283          42.100    23591989.089 2   4206859.48905     -1664.064          32.500  
G27  23221614.430 3    -88242.63902      3081.462          37.400    23219271.215 2  -3044214.14409      2301.091          33.400  
G29  23160102.412 4   3760016.11509     -3465.191          34.500           0.000 0         0.00000         0.000           0.000  
G32  25316519.142 4    -81375.77009      3625.591          31.800           0.000 0         0.00000         0.000           0.000  
R02  21343344.538 3   7564521.60802     -3472.341          38.200  
R18  19538035.124 3 -12721804.57101       920.515          41.600  
R09  24280665.771 4  -2191679.62209     -1360.714          32.600  
R19  21942300.158 4   -218688.65903      3321.419          33.000  
R17  20870337.680 3   3347369.98702     -2307.061          36.200  
R03  19217349.820 3 -17320837.34701       215.904          41.200  
R04  21429139.441 4 -15142161.46009      3754.127          32.000  
E01  28373412.269 4      4736.37007      -200.392          34.300    28371290.671 3         0.00000      -145.550          24.700  
E03  24987658.481 4      3577.95409     -1303.705          31.200    24985531.439 2         0.00000      -974.939          30.700  
E07  27124850.446 4    -79252.55008      3101.764          32.100    27122726.405 3         0.00000      2318.750          23.000  
E08  22106148.768 3   -562553.64603      1531.996          39.900    22104022.006 3  -4303505.42109      1143.660          28.600  
E13  23796453.849 3   -330244.86203      1165.190          40.500    23794330.157 2  -1959885.08505       868.919          33.600  
E15  23989244.971 3      3188.06705     -1037.819          36.300    23987123.653 2   1762739.71005      -776.463          32.500  
E21  27637019.502 4      3412.35708     -1959.720          33.400    27634896.648 3         0.00000     -1462.400          22.700  
E26  26707013.498 4   -382397.54706      2340.721          35.700    26704892.808 2    -49879.50405      1746.329          31.500  
E27  28431869.102 5         0.00000     -2503.300          28.200           0.000 0         0.00000         0.000           0.000  
> 2020 06 25 00 35 02.4409533  0 27
G10  21696071.304 4   -389323.75709      1995.818          30.200    21693728.158 1  -4898091.49103      1492.697          36.900  
G13  24110843.184 4   2514130.91509     -2301.626          29.600           0.000 0         0.00000         0.000           0.000  
G15  21958333.977 4     26020.64709     -1514.612          30.500           0.000 0         0.00000         0.000           0.000  
G16  23220840.059 3    240580.54409      -713.483          36.600           0.000 0         0.00000         0.000           0.000  
G18  20695691.154 3    934850.10402      -748.633          35.600           0.000 0         0.00000         0.000           0.000  
G20  20159023.109 2  -2344223.83901       253.438          41.400           0.000 0         0.00000         0.000           0.000  
G21  21502347.223 3  -1594547.89609      1051.622          39.400           0.000 0         0.00000         0.000           0.000  
G26  23594754.670 3    407558.74001     -2229.139          40.700    23592411.803 3         0.00000     -1664.510          28.100  
G27  23221034.036 3    -91320.15709      3072.812          36.600    23218686.912 3         0.00000      2295.168          28.300  
G29  23160768.243 4   3763477.62909     -3459.274          31.300           0.000 0         0.00000         0.000           0.000  
G32  25315817.644 4    -85002.55509      3629.035          29.700           0.000 0         0.00000         0.000           0.000  
R02  21343995.641 3   7567998.00009     -3478.875          37.800  
R18  19537866.904 2 -12722722.09901       915.426          42.600  
R09  24280930.735 5         0.00000     -1368.487          27.400  
R19  21941679.279 4         0.00000      3311.629          29.800  
R17  20870773.586 4   3349677.14309     -2306.766          34.300  
R03  19217316.246 3 -17321051.77401       213.439          41.700  
R04  21428440.944 3 -15145916.71101      3756.363          39.000  
E01  28373452.125 5         0.00000      -211.850          27.000    28371326.339 3         0.00000      -155.393          23.900  
E03  24987905.856 4      4885.46108     -1309.000          33.300    24985779.093 3         0.00000      -978.750          25.100  
E07  27124260.768 4    -82355.68609      3104.668          34.300    27122138.542 2         0.00000      2317.900          29.600  
E08  22105853.441 3   -564085.86604      1532.709          38.500    22103729.400 2  -4304649.73109      1144.742          29.900  
E13  23796233.488 3   -331406.24903      1159.202          40.900    23794108.260 2  -1960752.36605       864.944          32.400  
E15  23989444.043 4      4227.56208     -1039.946          33.000    23987321.818 2   1763515.93804      -777.578          34.700  
E21  27637393.006 4      5374.01407     -1962.473          34.700    27635267.779 3         0.00000     -1475.696          26.300  
E26  26706572.217 4   -384733.07709      2332.749          34.300    26704448.176 3         0.00000      1742.050          25.500  
E27  28432347.866 4      6478.79809     -2499.705          30.300           0.000 0         0.00000         0.000           0.000  
> 2020 06 25 00 35 03.4409533  0 27
G10  21695683.700 5         0.00000      1990.489          26.400    21693348.023 1  -4899583.22703      1492.122          38.100  
G13  24111280.277 5         0.00000     -2303.987          27.100           0.000 0         0.00000         0.000           0.000  
G15  21958634.051 4         0.00000     -1513.371          29.000           0.000 0         0.00000         0.000           0.000  
G16  23220971.075 3    241296.36709      -716.274          36.900           0.000 0         0.00000         0.000           0.000  
G18  20695834.455 3    935600.45302      -749.103          35.600           0.000 0         0.00000         0.000           0.000  
G20  20158974.807 2  -2344475.27401       252.075          41.900           0.000 0         0.00000         0.000           0.000  
G21  21502147.313 3  -1595596.83109      1049.049          40.200           0.000 0         0.00000         0.000           0.000  
G26  23595181.572 4    409789.20403     -2229.947          34.000    23592836.332 3         0.00000     -1665.253          28.400  
G27  23220445.824 3    -94389.05409      3069.272          39.200    23218102.609 2  -3048804.24605      2291.939          31.400  
G29  23161406.502 4   3766933.49409     -3453.628          29.800           0.000 0         0.00000         0.000           0.000  
G32  25315144.275 5         0.00000      3630.049          26.700    25312788.216 4         0.00000      2710.300          21.600  
R02  21344649.815 4   7571479.35309     -3481.490          33.100  
R18  19537697.567 3 -12723635.13001       913.677          41.200  
R09  24281178.110 4  -2188940.33709     -1377.618          30.700  
R19  21941048.838 4         0.00000      3309.871          29.000  
R17  20871213.053 4   3351983.09009     -2307.676          32.400  
R03  19217277.855 3 -17321263.88201       213.190          40.800  
R04  21427737.630 3 -15149673.33001      3758.115          40.500  
E01  28373493.866 4         0.00000      -213.350          35.400    28371368.918 3         0.00000      -160.405          26.300  
E03  24988155.882 4      6195.96506     -1309.191          34.800    24986033.587 3         0.00000      -978.410          24.300  
E07  27123671.370 4    -85461.32606      3107.354          35.600    27121546.422 2   -424916.79609      2320.528          30.000  
E08  22105562.930 3   -565618.75804      1534.980          38.100    22103438.331 2  -4305794.35709      1145.937          30.100  
E13  23796015.848 3   -332562.40603      1156.302          41.200    23793888.806 2  -1961615.73204       863.554          34.500  
E15  23989643.395 4      5268.14309     -1038.777          29.700    23987519.703 1   1764292.98803      -775.571          36.200  
E21  27637763.230 5         0.00000     -1966.850          27.700           0.000 0         0.00000         0.000           0.000  
E26  26706126.747 4   -387063.02106      2328.604          35.700    26704004.801 2    -53363.47709      1738.677          30.100  
E27  28432826.700 5         0.00000     -2505.650          25.000    28430700.217 3         0.00000     -1866.050          25.800  
> 2020 06 25 00 35 04.4409533  0 27
G10  21695307.473 4         0.00000      1994.922          28.900    21692967.887 1  -4901075.26003      1490.872          36.300  
G13  24111709.901 5         0.00000     -2298.200          24.800           0.000 0         0.00000         0.000           0.000  
G15  21958920.653 4     29049.01709     -1511.385          31.000           0.000 0         0.00000         0.000           0.000  
G16  23221113.469 3    242013.50609      -718.727          35.400           0.000 0         0.00000         0.000           0.000  
G18  20695976.570 4    936348.03009      -747.597          33.700           0.000 0         0.00000         0.000           0.000  
G20  20158929.227 2  -2344727.72801       251.957          41.900           0.000 0         0.00000         0.000           0.000  
G21  21501944.612 3  -1596646.25609      1048.800          39.900           0.000 0         0.00000         0.000           0.000  
G26  23595606.101 4    412020.15509     -2232.651          33.700    23593257.860 3         0.00000     -1667.141          25.800  
G27  23219866.058 3    -97456.78009      3066.888          38.100    23217518.375 3         0.00000      2293.101          28.700  
G29  23162069.331 4   3770386.90009     -3452.136          29.700           0.000 0         0.00000         0.000           0.000  
G32  25314445.428 4    -92263.74209      3632.808          30.200    25312098.723 3         0.00000      2711.683          23.600  
R02  21345305.454 4   7574960.67209     -3478.794          34.400  
R18  19537525.438 3 -12724550.03209       915.516          39.900  
R09  24281428.136 4  -2187562.18709     -1377.612          30.300  
R19  21940427.680 5         0.00000      3309.316          27.700  
R17  20871651.053 4   3354293.18109     -2304.825          32.100  
R03  19217245.468 3 -17321477.78802       213.779          39.700  
R04  21427038.505 3 -15153431.86101      3757.599          40.600  
E01  28373536.095 3      5391.56504      -216.332          37.100    28371412.962 3         0.00000      -160.095          25.300  
E03  24988404.722 4      7503.46308     -1306.522          33.700    24986281.519 3         0.00000      -976.979          24.200  
E07  27123076.875 3    -88569.65905      3107.693          36.200    27120954.650 3   -427238.06609      2320.732          28.400  
E08  22105271.860 3   -567154.95604      1536.414          39.000    22103146.633 2  -4306941.60109      1147.227          29.300  
E13  23795792.835 3   -333719.15303      1156.376          40.000    23793669.073 2  -1962479.57905       863.050          33.600  
E15  23989836.464 5         0.00000     -1034.550          27.700    23987717.240 1         0.00000      -774.550          35.500  
E21  27638152.440 6         0.00000     -1971.150          23.500           0.000 0         0.00000         0.000           0.000  
E26  26705683.303 4   -389391.51009      2327.684          35.200    26703561.077 3         0.00000      1737.708          27.600  
E27  28433296.111 6         0.00000     -2497.450          23.600    28431178.422 3         0.00000     -1869.400          24.000  
> 2020 06 25 00 35 05.4409533  0 27
G10  21694934.248 4   -395308.34109      1996.670          31.900    21692588.310 1  -4902564.76003      1487.395          37.300  
G13  24112121.238 5         0.00000     -2296.850          23.900           0.000 0         0.00000         0.000           0.000  
G15  21959196.785 4     30557.87609     -1508.456          29.300           0.000 0         0.00000         0.000           0.000  
G16  23221249.581 3    242734.78709      -723.410          36.800           0.000 0         0.00000         0.000           0.000  
G18  20696127.061 4    937094.96709      -745.545          32.200           0.000 0         0.00000         0.000           0.000  
G20  20158880.088 2  -2344979.06701       250.071          41.500           0.000 0         0.00000         0.000           0.000  
G21  21501748.262 3  -1597694.86609      1047.818          38.200           0.000 0         0.00000         0.000           0.000  
G26  23596029.094 3    414255.07509     -2238.194          35.800    23593686.228 3         0.00000     -1672.950          27.900  
G27  23219281.406 3   -100523.54609      3065.812          39.500    23216936.166 2  -3053387.99609      2288.721          31.900  
G29  23162720.504 4   3773839.06909     -3453.330          33.500           0.000 0         0.00000         0.000           0.000  
G32  25313750.212 3    -95895.18409      3628.210          36.800    25311407.415 3         0.00000      2717.000          22.400  
R02  21345954.184 4   7578438.31109     -3476.421          34.600  
R18  19537342.839 3 -12725465.33509       915.526          39.900  
R09  24281670.974 4  -2186187.13109     -1377.352          32.600  
R19  21939827.462 4   -231932.33509      3307.388          30.400  
R17  20872071.394 4         0.00000     -2303.350          33.000  
R03  19217203.797 3 -17321691.17101       212.219          40.400  
R04  21426334.284 3 -15157187.44701      3752.299          40.500  
E01  28373572.043 4      5609.17609      -218.640          32.800    28371451.632 3         0.00000      -162.762          23.900  
E03  24988652.306 4      8808.10206     -1303.916          35.400    24986528.266 3         0.00000      -973.342          24.200  
E07  27122486.290 3    -91675.58305      3102.952          36.700    27120363.157 2   -429557.38009      2317.083          29.400  
E08  22104976.812 3   -568691.05404      1535.014          38.400    22102853.748 3  -4308088.63909      1145.826          29.100  
E13  23795574.847 3   -334875.47909      1155.691          39.800    23793449.340 2  -1963343.11109       862.532          34.200  
E15  23990036.723 4      7339.51309     -1034.166          30.400    23987913.938 1   1765839.70103      -772.235          36.200  
E21  27638516.381 4         0.00000     -1974.250          34.600    27636393.528 4         0.00000     -1474.100          21.800  
E26  26705239.020 4   -391716.97306      2324.329          35.700    26703118.330 2    -56838.80709      1734.228          30.700  
E27  28433786.323 6         0.00000     -2518.150          21.900           0.000 0         0.00000         0.000           0.000  
> 2020 06 25 00 35 06.4409533  0 27
G10  21694557.672 3   -397298.19609      1988.242          36.000    21692209.710 2  -4904051.28104      1484.633          34.700  
G13  24112579.899 4         0.00000     -2287.184          28.900           0.000 0         0.00000         0.000           0.000  
G15  21959485.133 4         0.00000     -1501.972          29.000           0.000 0         0.00000         0.000           0.000  
G16  23221386.600 4    243458.75509      -725.810          32.500           0.000 0         0.00000         0.000           0.000  
G18  20696261.637 4    937835.11009      -740.047          32.400           0.000 0         0.00000         0.000           0.000  
G20  20158830.948 2  -2345230.12001       250.957          42.000           0.000 0         0.00000         0.000           0.000  
G21  21501542.000 3  -1598744.92809      1051.098          38.400           0.000 0         0.00000         0.000           0.000  
G26  23596457.252 3    416495.85201     -2243.542          40.300    23594114.316 2   4215196.91709     -1675.394          30.100  
G27  23218700.732 3   -103591.40902      3069.703          35.300    23216349.490 3         0.00000      2292.875          26.300  
G29  23163384.240 3   3777293.92502     -3456.394          35.200           0.000 0         0.00000         0.000           0.000  
G32  25313060.160 4    -99520.40909      3618.446          30.200           0.000 0         0.00000         0.000           0.000  
R02  21346598.725 3   7581908.94109     -3467.750          38.600  
R18  19537177.411 3 -12726383.37609       919.530          41.100  
R09  24281927.283 4  -2184808.44409     -1377.594          34.800  
R19  21939211.400 4   -235242.14109      3312.539          31.600  
R17  20872508.766 3   3358882.06702     -2298.033          36.600  
R03  19217161.846 3 -17321903.89501       212.267          40.100  
R04  21425639.626 3 -15160937.28009      3747.786          37.200  
E01  28373614.621 4      5825.69409      -215.054          32.300    28371491.837 3         0.00000      -160.433          27.400  
E03  24988902.682 4     10108.06909     -1297.293          32.100           0.000 0         0.00000         0.000           0.000  
E07  27121899.614 4    -94775.60407      3096.158          33.800    27119775.574 3         0.00000      2312.345          24.800  
E08  22104688.743 3   -570225.25204      1532.772          36.900    22102562.330 3         0.00000      1144.645          26.900  
E13  23795353.578 3   -336033.47203      1159.247          40.400    23793228.071 2  -1964208.07109       866.774          31.100  
E15  23990235.515 4      8371.49509     -1030.831          34.100    23988110.917 2   1766610.33205      -769.473          32.700  
E21  27638888.699 3      3472.45204     -1976.878          37.100           0.000 0         0.00000         0.000           0.000  
E26  26704802.276 4   -394042.97409      2328.193          34.000    26702677.607 3         0.00000      1737.358          24.400  
E27  28434246.799 6         0.00000     -2515.050          23.500           0.000 0         0.00000         0.000           0.000  
> 2020 06 25 00 35 07.4409533  0 25
G10  21694178.723 3   -399280.91102      1978.886          37.800    21691831.669 2  -4905531.84209      1477.797          30.700  
G13  24113028.998 5         0.00000     -2284.048          25.700           0.000 0         0.00000         0.000           0.000  
G15  21959769.641 4     33562.85109     -1500.018          29.300           0.000 0         0.00000         0.000           0.000  
G16  23221531.925 5         0.00000      -730.728          27.000           0.000 0         0.00000         0.000           0.000  
G18  20696401.378 4    938576.79309      -740.418          34.800           0.000 0         0.00000         0.000           0.000  
G20  20158786.834 2  -2345478.29001       246.912          41.700           0.000 0         0.00000         0.000           0.000  
G21  21501348.931 4  -1599794.20809      1048.635          34.600           0.000 0         0.00000         0.000           0.000  
G26  23596888.343 3    418745.90702     -2255.185          37.700    23594541.498 2   4216877.10605     -1684.073          33.200  
G27  23218113.148 4   -106661.64809      3070.571          30.600    23215765.745 3         0.00000      2288.500          24.400  
G29  23164046.162 4   3780752.95409     -3461.861          32.400           0.000 0         0.00000         0.000           0.000  
G32  25312361.872 5         0.00000      3612.600          23.600           0.000 0         0.00000         0.000           0.000  
R02  21347254.085 3   7585375.17902     -3463.415          38.000  
R18  19537008.632 3 -12727301.61602       918.758          38.800  
R19  21938593.872 5         0.00000      3309.150          26.100  
R17  20872932.388 3   3361182.09402     -2299.658          38.200  
R03  19217110.543 3 -17322113.30701       208.417          40.300  
R04  21424947.410 4         0.00000      3735.200          33.500  
E01  28373659.643 5         0.00000      -218.850          28.100           0.000 0         0.00000         0.000           0.000  
E03  24989147.264 4     11404.99509     -1294.543          30.600    24987022.037 3         0.00000      -964.450          24.200  
E07  27121308.401 4    -97864.77109      3084.510          30.300           0.000 0         0.00000         0.000           0.000  
E08  22104397.046 3   -571754.10004      1527.449          38.200    22102270.004 3  -4310375.85909      1139.882          29.100  
E13  23795132.379 3   -337191.13709      1157.146          36.500    23793009.525 2  -1965072.38709       864.008          29.400  
E15  23990428.305 4      9403.29508     -1031.220          33.700    23988306.917 2   1767380.79809      -769.868          29.800  
E21  27639268.556 4      5455.02607     -1987.309          34.100    27637146.888 3         0.00000     -1484.050          23.500  
E27  28434714.116 6         0.00000     -2527.450          23.600           0.000 0         0.00000         0.000           0.000  
> 2020 06 25 00 35 08.4409533  0 25
G10  21693800.123 3   -401258.23302      1974.798          37.200    21691455.372 3         0.00000      1474.700          28.000  
G13  24113465.184 5         0.00000     -2269.682          27.700           0.000 0         0.00000         0.000           0.000  
G15  21960055.685 4     35055.89209     -1487.731          31.500           0.000 0         0.00000         0.000           0.000  
G16  23221663.849 3    244920.30109      -736.740          37.000           0.000 0         0.00000         0.000           0.000  
G18  20696542.236 4    939312.49209      -731.682          34.300           0.000 0         0.00000         0.000           0.000  
G20  20158737.973 2  -2345726.69601       248.738          42.800           0.000 0         0.00000         0.000           0.000  
G21  21501142.669 4  -1600844.86609      1052.015          34.700           0.000 0         0.00000         0.000           0.000  
G26  23597305.054 4    421003.92809     -2262.581          33.200    23594970.843 2   4218563.14705     -1689.111          33.100  
G27  23217543.224 5         0.00000      3074.814          26.300           0.000 0         0.00000         0.000           0.000  
G29  23164694.053 3   3784213.30309     -3458.034          37.300           0.000 0         0.00000         0.000           0.000  
R02  21347895.067 4   7588832.61309     -3454.776          32.800  
R18  19536841.040 3 -12728224.53209       925.031          36.000  
R09  24282456.443 4         0.00000     -1384.800          29.000  
R17  20873349.657 3   3363477.20201     -2290.804          41.100  
R03  19217077.038 3 -17322323.81201       211.810          41.700  
R04  21424247.447 4         0.00000      3730.150          31.200  
E01  28373697.405 4      6260.75508      -221.292          32.300           0.000 0         0.00000         0.000           0.000  
E03  24989397.919 5         0.00000     -1276.650          24.100           0.000 0         0.00000         0.000           0.000  
E07  27120725.633 5         0.00000      3082.150          25.700    27118600.406 3         0.00000      2301.500          23.600  
E08  22104109.257 3   -573283.25704      1530.008          37.500    22101980.400 2  -4311517.73409      1141.551          30.900  
E13  23794909.923 4         0.00000      1160.150          33.400    23792789.233 3         0.00000       866.620          26.600  
E15  23990625.563 4     10428.68409     -1021.144          30.100    23988503.616 3         0.00000      -762.520          27.500  
E21  27639648.342 5         0.00000     -1996.550          27.600    27637525.558 3         0.00000     -1488.926          23.200  
E26  26703918.178 4         0.00000      2318.650          29.200    26701792.323 3         0.00000      1731.400          22.300  
E27  28435214.169 6         0.00000     -2536.050          22.500           0.000 0         0.00000         0.000           0.000  
> 2020 06 25 00 35 09.4409533  0 25
G10  21693430.737 3   -403227.38102      1966.423          37.900    21691079.495 2  -4908478.87209      1468.536          30.200  
G13  24113889.713 5         0.00000     -2261.533          26.200           0.000 0         0.00000         0.000           0.000  
G15  21960321.277 4         0.00000     -1480.618          28.300           0.000 0         0.00000         0.000           0.000  
G16  23221807.499 3    245664.13009      -748.045          37.500           0.000 0         0.00000         0.000           0.000  
G18  20696677.790 3    940042.93309      -726.895          36.800           0.000 0         0.00000         0.000           0.000  
G20  20158690.648 2  -2345972.90601       246.413          43.000           0.000 0         0.00000         0.000           0.000  
G21  21500947.785 3  -1601893.57609      1048.536          39.200           0.000 0         0.00000         0.000           0.000  
G26  23597742.984 3    423272.94409     -2273.262          36.900    23595401.933 2   4220257.47505     -1697.638          33.500  
G27  23216945.171 3         0.00000      3060.950          39.600    23214600.140 3         0.00000      2286.500          27.500  
G29  23165358.627 3   3787670.85009     -3453.697          38.500           0.000 0         0.00000         0.000           0.000  
R02  21348529.417 4         0.00000     -3434.328          29.400  
R18  19536659.070 3 -12729149.16509       927.180          40.500  
R09  24282725.037 5         0.00000     -1395.193          28.600  
R19  21937359.304 5         0.00000      3309.200          27.000  
R17  20873785.564 3   3365765.35301     -2282.500          40.400  
R03  19217039.485 2 -17322534.39401       212.312          42.400  
R04  21423551.602 4         0.00000      3724.950          31.100  
E01  28373742.357 3      6485.69304      -228.039          37.400    28371618.945 3         0.00000      -171.000          23.000  
E03  24989649.691 5         0.00000     -1265.450          25.200           0.000 0         0.00000         0.000           0.000  
E07  27120131.418 5         0.00000      3074.150          27.500           0.000 0         0.00000         0.000           0.000  
E08  22103814.557 3   -574813.01605      1532.168          35.800    22101689.889 2  -4312660.13509      1144.265          30.800  
E13  23794691.098 3   -339494.26105      1159.102          36.700    23792567.057 2         0.00000       864.450          29.800  
E15  23990828.823 5         0.00000     -1011.750          25.200    23988698.151 3         0.00000      -757.387          28.200  
E26  26703473.826 3         0.00000      2311.400          36.400    26701351.949 2         0.00000      1721.707          29.200  
E21         0.000 0         0.00000         0.000           0.000    27637907.439 3         0.00000     -1498.493          26.700  
> 2020 06 25 00 35 10.4409533  0 26
G10  21693053.952 3   -405191.18102      1958.207          39.000    21690707.456 2  -4909945.30205      1462.165          31.900  
G13  24114326.178 6         0.00000     -2238.400          22.000           0.000 0         0.00000         0.000           0.000  
G15  21960606.065 5         0.00000     -1461.350          24.500           0.000 0         0.00000         0.000           0.000  
G16  23221942.703 3    246416.86109      -760.037          37.900           0.000 0         0.00000         0.000           0.000  
G18  20696819.276 3    940765.94209      -723.016          38.100           0.000 0         0.00000         0.000           0.000  
G20  20158644.719 2  -2346219.39801       243.303          42.600           0.000 0         0.00000         0.000           0.000  
G21  21500749.341 3  -1602941.51709      1044.337          38.300           0.000 0         0.00000         0.000           0.000  
G26  23598183.986 3    425550.85209     -2285.065          36.000    23595835.117 2   4221958.55404     -1706.255          34.100  
G27  23216363.869 3   -115865.61009      3053.174          39.000    23214019.188 2  -3064836.87405      2279.916          31.200  
G29  23166015.523 3   3791120.21509     -3448.706          37.200           0.000 0         0.00000         0.000           0.000  
R02  21349202.716 5         0.00000     -3430.650          24.100  
R18  19536488.476 2 -12730078.76701       928.250          42.300  
R09  24283025.390 6         0.00000     -1414.050          22.300  
R19  21936704.222 4   -248485.39304      3301.920          31.300  
R17  20874201.717 3   3368041.64902     -2274.475          39.100  
R03  19216999.978 2 -17322748.53301       212.253          44.100  
R04  21422857.852 4 -15175921.47903      3718.930          34.400  
E01  28373789.124 5         0.00000      -234.750          27.900           0.000 0         0.00000         0.000           0.000  
E03  24989883.873 6         0.00000     -1261.600          23.600           0.000 0         0.00000         0.000           0.000  
E07  27119558.842 4     -4706.61609      3070.610          30.100           0.000 0         0.00000         0.000           0.000  
E08  22103520.486 3   -576347.99905      1534.238          35.900    22101397.283 2  -4313806.43409      1144.638          29.600  
E13  23794470.736 3         0.00000      1155.400          39.000    23792347.324 2         0.00000       861.618          30.400  
E15  23991021.892 5         0.00000     -1008.550          23.900    23988888.847 3         0.00000      -752.144          28.300  
E21  27640413.430 6         0.00000     -2021.600          22.400    27638290.296 3         0.00000     -1508.000          26.400  
E26  26703037.710 4     -6037.56308      2299.757          32.100    26700912.413 3         0.00000      1713.964          25.000  
E27  28436182.517 5         0.00000     -2545.000          25.000           0.000 0         0.00000         0.000           0.000  
> 2020 06 25 00 35 11.4409533  0 26
G10  21692685.473 3   -407147.08502      1955.769          36.700    21690334.789 2  -4911405.89805      1460.549          31.000  
G13  24114761.177 6         0.00000     -2234.300          21.800           0.000 0         0.00000         0.000           0.000  
G15  21960913.677 5         0.00000     -1459.400          23.900           0.000 0         0.00000         0.000           0.000  
G16  23222094.660 3    247180.08509      -764.173          38.500           0.000 0         0.00000         0.000           0.000  
G18  20696953.922 3    941488.19809      -722.570          37.900           0.000 0         0.00000         0.000           0.000  
G20  20158599.488 2  -2346461.60001       241.740          42.800           0.000 0         0.00000         0.000           0.000  
G21  21500552.992 3  -1603984.42009      1042.198          38.000           0.000 0         0.00000         0.000           0.000  
G26  23598618.706 4    427838.77609     -2288.009          35.100    23596271.024 1   4223666.96303     -1708.578          35.000  
G27  23215781.660 3   -118916.62709      3050.027          39.000    23213438.165 2  -3067115.25609      2277.572          32.500  
G29  23166668.162 3   3794567.76109     -3446.592          37.200           0.000 0         0.00000         0.000           0.000  
G32  25309641.034 6         0.00000      3600.350          20.900           0.000 0         0.00000         0.000           0.000  
R02  21349835.601 4         0.00000     -3435.609          29.300  
R18  19536316.976 3 -12731006.82701       927.511          40.900  
R09  24283260.130 6         0.00000     -1410.500          21.900  
R19  21936112.451 4   -251785.43303      3299.362          33.800  
R17  20874629.177 3   3370313.95402     -2271.625          39.300  
R03  19216968.777 2 -17322960.46201       211.710          43.700  
R04  21422166.264 4 -15179639.20209      3717.854          33.600  
E01  28373842.800 5         0.00000      -244.400          24.500           0.000 0         0.00000         0.000           0.000  
E03  24990124.616 5         0.00000     -1263.200          25.500           0.000 0         0.00000         0.000           0.000  
E07  27118975.446 5         0.00000      3071.050          28.600    27116845.682 4         0.00000      2293.400          20.700  
E08  22103232.907 3   -577882.50404      1535.119          36.800    22101106.214 2  -4314952.27809      1145.612          30.200  
E13  23794252.190 3   -341802.96204      1153.520          37.700    23792127.521 2  -1968536.37805       861.072          31.500  
E15  23991204.421 5         0.00000     -1002.350          26.000    23989078.287 2         0.00000      -750.907          29.200  
E26  26702595.172 5         0.00000      2291.650          25.600    26700477.763 3         0.00000      1720.650          23.000  
E27  28436661.630 4      1497.21009     -2548.317          28.900           0.000 0         0.00000         0.000           0.000  
> 2020 06 25 00 35 12.4409533  0 26
G10  21692314.063 3   -409101.32709      1953.980          39.500    21689963.030 1  -4912865.20703      1458.741          36.600  
G13  24115215.092 6         0.00000     -2256.900          22.900           0.000 0         0.00000         0.000           0.000  
G15  21961186.459 4         0.00000     -1474.350          30.000           0.000 0         0.00000         0.000           0.000  
G16  23222243.685 3    247947.45709      -770.916          37.600           0.000 0         0.00000         0.000           0.000  
G18  20697091.220 4    942213.74709      -728.427          34.900           0.000 0         0.00000         0.000           0.000  
G20  20158551.814 2  -2346700.61901       236.469          42.700           0.000 0         0.00000         0.000           0.000  
G21  21500354.827 3  -1605023.31201      1034.985          40.200           0.000 0         0.00000         0.000           0.000  
G26  23599053.426 3    430127.72902     -2289.384          38.700    23596707.279 2   4225376.53305     -1709.708          33.700  
G27  23215204.267 3   -121962.23602      3040.417          36.000    23212858.330 2  -3069389.55009      2270.539          34.100  
G29  23167320.521 4   3798014.08003     -3445.386          34.300           0.000 0         0.00000         0.000           0.000  
G32  25308949.377 4         0.00000      3604.880          28.700           0.000 0         0.00000         0.000           0.000  
R02  21350483.492 3   7602574.04702     -3449.329          38.900  
R18  19536138.634 3 -12731930.72101       920.243          41.600  
R19  21935490.664 4   -255079.99403      3289.184          33.200  
R17  20875058.801 3   3372587.33502     -2274.907          38.900  
R03  19216925.570 2 -17323169.61001       207.149          42.700  
R04  21421457.506 3 -15183356.98709      3717.930          35.900  
E01  28373883.843 5         0.00000      -249.200          25.400           0.000 0         0.00000         0.000           0.000  
E03  24990358.728 4       976.91208     -1272.512          33.400    24988232.873 4         0.00000      -949.400          20.800  
E07  27118383.325 4    -10848.17208      3072.758          33.100    27116259.913 3         0.00000      2295.962          27.800  
E08  22102939.464 3   -579416.17004      1533.534          38.500    22100813.329 2  -4316097.57009      1143.794          30.900  
E13  23794034.202 3   -342952.71703      1146.228          40.500    23791908.416 1  -1969394.93703       854.758          35.300  
E15  23991392.116 4      2135.57208     -1009.372          33.100    23989270.728 2   1771163.87709      -755.301          34.500  
E21  27641188.359 5         0.00000     -2028.500          27.100           0.000 0         0.00000         0.000           0.000  
E26  26702166.735 5         0.00000      2288.100          28.300    26700036.761 3         0.00000      1706.550          23.700  
E27  28437152.400 5         0.00000     -2550.350          28.400           0.000 0         0.00000         0.000           0.000  
> 2020 06 25 00 35 13.4409533  0 27
G10  21691938.394 3   -411057.03009      1956.970          39.900    21689593.085 1  -4914324.74803      1461.272          36.000  
G13  24115634.455 6         0.00000     -2262.550          22.300           0.000 0         0.00000         0.000           0.000  
G15  21961456.868 3     42416.94509     -1478.556          36.800           0.000 0         0.00000         0.000           0.000  
G16  23222389.638 3    248720.22009      -773.883          36.300           0.000 0         0.00000         0.000           0.000  
G18  20697234.521 3    942944.39509      -730.944          38.400           0.000 0         0.00000         0.000           0.000  
G20  20158509.864 3  -2346936.02601       235.771          40.400           0.000 0         0.00000         0.000           0.000  
G21  21500158.407 2  -1606055.29901      1030.553          43.200           0.000 0         0.00000         0.000           0.000  
G26  23599490.519 3    432415.28309     -2285.461          37.100    23597142.557 2   4227084.92805     -1706.583          33.700  
G29  23167984.815 4   3801455.60609     -3434.687          33.800           0.000 0         0.00000         0.000           0.000  
G32  25308259.535 4         0.00000      3612.073          28.300           0.000 0         0.00000         0.000           0.000  
R02  21351139.411 4   7606027.52809     -3455.874          33.000  
R18  19535960.502 3 -12732848.25602       916.834          39.200  
R09  24283742.175 6         0.00000     -1420.800          22.600  
R19  21934904.267 5         0.00000      3283.350          25.100  
R17  20875476.071 3   3374860.01409     -2268.519          37.700  
R03  19216886.622 3 -17323376.62201       208.731          41.100  
R04  21420762.918 3 -15187079.59609      3728.451          39.400  
E01  28373928.516 5         0.00000      -256.900          24.800           0.000 0         0.00000         0.000           0.000  
E03  24990609.034 5         0.00000     -1278.200          28.200    24988477.874 3         0.00000      -953.480          27.200  
E07  27117798.115 4    -13926.07709      3077.348          30.700    27115675.610 2   -448005.24909      2302.511          30.300  
E08  22102645.672 3   -580952.23003      1540.490          40.300    22100519.188 3         0.00000      1141.302          26.100  
E13  23793816.842 3   -344095.43803      1141.336          41.100    23791691.056 1  -1970248.39603       851.651          38.100  
E15  23991589.932 3      3145.14204     -1007.915          38.300    23989462.680 2   1771918.25709      -753.018          31.900  
E21  27641565.214 4      3575.49808     -2025.823          33.600    27639443.337 3         0.00000     -1513.300          25.900  
E26  26701732.713 5         0.00000      2280.850          23.800           0.000 0         0.00000         0.000           0.000  
E27  28437640.727 5         0.00000     -2540.950          24.600           0.000 0         0.00000         0.000           0.000  
G27         0.000 0         0.00000         0.000           0.000    23212281.565 3         0.00000      2270.550          23.600  
> 2020 06 25 00 35 14.4409533  0 25
G10  21691564.262 2   -413014.28009      1954.722          43.600    21689220.488 2  -4915786.29205      1459.566          32.100  
G13  24116023.037 5         0.00000     -2268.850          23.700           0.000 0         0.00000         0.000           0.000  
G15  21961741.097 3     43895.02809     -1480.705          38.200           0.000 0         0.00000         0.000           0.000  
G16  23222535.662 3    249497.20409      -783.320          39.200           0.000 0         0.00000         0.000           0.000  
G18  20697375.100 3    943675.68109      -734.097          38.800           0.000 0         0.00000         0.000           0.000  
G20  20158463.097 3  -2347170.98601       231.356          39.700           0.000 0         0.00000         0.000           0.000  
G21  21499960.871 2  -1607083.12101      1022.154          43.500           0.000 0         0.00000         0.000           0.000  
G26  23599921.609 3    434700.17509     -2287.352          37.800    23597576.300 1   4228791.09303     -1708.197          37.200  
G29  23168638.082 4   3804883.79609     -3424.456          31.900           0.000 0         0.00000         0.000           0.000  
G32  25307579.954 5         0.00000      3622.737          26.100           0.000 0         0.00000         0.000           0.000  
R02  21351772.296 4   7609486.49109     -3463.804          34.300  
R18  19535802.264 3 -12733763.18501       910.763          41.900  
R17  20875902.694 3   3377125.53009     -2263.784          40.300  
R03  19216842.577 2 -17323586.19401       207.575          42.000  
R04  21420069.167 2 -15190811.88701      3733.810          42.800  
E01  28373990.569 6         0.00000      -269.600          22.800           0.000 0         0.00000         0.000           0.000  
E03  24990846.496 3      3531.32405     -1279.202          36.500    24988720.362 2         0.00000      -956.596          32.800  
E07  27117210.252 4    -17006.96709      3090.517          34.000    27115087.398 3         0.00000      2309.069          27.300  
E08  22102353.067 3   -582496.76104      1545.348          36.900    22100227.840 3         0.00000      1154.200          28.100  
E13  23793599.831 2   -345234.05503      1133.294          42.500    23791473.417 1  -1971098.50203       844.579          37.400  
E15  23991779.092 3      4151.12005     -1006.761          36.600    23989655.680 2   1772669.15109      -753.722          29.200  
E21  27641953.446 3      5602.73804     -2031.353          38.600    27639829.126 2   1876788.14405     -1518.604          31.800  
E26  26701299.808 5         0.00000      2276.350          24.600           0.000 0         0.00000         0.000           0.000  
E27  28438112.022 5         0.00000     -2530.150          27.600           0.000 0         0.00000         0.000           0.000  
G27         0.000 0         0.00000         0.000           0.000    23211704.172 3         0.00000      2250.500          25.200  
> 2020 06 25 00 35 15.4409533  0 26
G10  21691195.155 2   -414967.60009      1954.100          44.900    21688848.449 2  -4917244.86809      1459.224          32.900  
G15  21962022.604 3     45375.72009     -1477.662          36.300           0.000 0         0.00000         0.000           0.000  
G16  23222690.341 4    250284.57809      -790.196          32.100           0.000 0         0.00000         0.000           0.000  
G18  20697516.936 4    944410.90509      -733.873          34.200           0.000 0         0.00000         0.000           0.000  
G20  20158420.519 3  -2347400.34001       229.716          39.400           0.000 0         0.00000         0.000           0.000  
G21  21499767.522 2  -1608100.97901      1016.122          42.200           0.000 0         0.00000         0.000           0.000  
G26  23600356.608 3    436989.08109     -2288.348          39.100    23598011.648 2   4230500.40405     -1708.914          33.200  
G27  23213473.834 4         0.00000      3006.933          28.600    23211133.061 2  -3076172.60209      2245.842          30.500  
G29  23169281.716 4   3808302.06909     -3410.573          33.800           0.000 0         0.00000         0.000           0.000  
G32  25306933.877 6         0.00000      3549.700          22.500           0.000 0         0.00000         0.000           0.000  
R02  21352429.122 4   7612952.65509     -3466.768          35.800  
R18  19535623.853 3 -12734671.56902       908.633          38.600  
R09  24284313.006 6         0.00000     -1439.750          21.300  
R19  21933644.850 5         0.00000      3261.300          24.700  
R17  20876321.499 4   3379384.79109     -2252.175          33.400  
R03  19216802.721 3 -17323793.62901       209.758          41.000  
R04  21419366.482 3 -15194548.54101      3741.195          39.500  
E01  28374040.058 5         0.00000      -286.450          24.300           0.000 0         0.00000         0.000           0.000  
E03  24991092.894 4      4811.06509     -1277.568          34.800    24988963.199 3         0.00000      -952.450          25.900  
E07  27116617.573 4    -20103.19909      3099.847          33.000    27114496.534 3         0.00000      2318.100          22.900  
E08  22102063.463 4   -584045.72409      1553.876          29.900    22099931.605 3         0.00000      1160.322          27.400  
E13  23793384.286 3   -346362.66404      1127.155          38.200    23791258.779 2  -1971941.39305       842.873          31.500  
E15  23991971.324 3      5155.48305     -1000.547          36.600    23989844.561 3         0.00000      -745.442          27.800  
E21  27642338.398 4      7643.31509     -2042.367          35.700    27640214.986 3         0.00000     -1526.641          24.600  
E26  26700861.458 4     -1353.56809      2257.508          30.000    26698742.234 3         0.00000      1690.200          24.100  
E27  28438590.437 5         0.00000     -2532.200          26.800           0.000 0         0.00000         0.000           0.000  
> 2020 06 25 00 35 16.4409533  0 25
G10  21690821.022 3   -416921.71709      1952.117          36.700    21688476.969 2  -4918704.03304      1457.617          34.000  
G15  21962305.297 4     46852.82609     -1477.082          32.300           0.000 0         0.00000         0.000           0.000  
G16  23222838.458 3    251080.33009      -801.434          36.700           0.000 0         0.00000         0.000           0.000  
G18  20697652.070 3    945144.15309      -733.848          41.000           0.000 0         0.00000         0.000           0.000  
G20  20158377.033 3  -2347629.29802       226.989          38.400           0.000 0         0.00000         0.000           0.000  
G21  21499578.641 3  -1609114.33801      1009.556          40.200           0.000 0         0.00000         0.000           0.000  
G26  23600790.700 3    439278.14209     -2291.144          38.400    23598447.275 2         0.00000     -1710.975          29.800  
G27  23212903.630 4     -4264.81409      2995.991          30.700    23210562.579 2  -3078415.36509      2236.530          30.600  
G29  23169929.607 4   3811705.45809     -3398.128          33.300           0.000 0         0.00000         0.000           0.000  
G32  25306204.179 6         0.00000      3646.350          22.000           0.000 0         0.00000         0.000           0.000  
R02  21353077.293 3   7616420.53702     -3470.551          39.000  
R18  19535466.801 4 -12735579.36503       905.625          35.400  
R19  21933037.443 5         0.00000      3241.850          25.000  
R17  20876759.500 3         0.00000     -2244.350          37.200  
R03  19216758.607 3 -17324004.79901       210.834          41.900  
R04  21418669.171 2 -15198293.26301      3746.573          42.500  
E01  28374088.639 6         0.00000      -300.100          22.500           0.000 0         0.00000         0.000           0.000  
E03  24991333.358 3      6086.81005     -1276.427          35.800    24989210.504 3         0.00000      -953.300          23.100  
E07  27116031.176 4    -23211.22809      3109.404          31.300    27113907.414 3         0.00000      2322.217          26.200  
E08  22101761.853 4   -585604.09909      1560.069          34.600    22099636.347 2  -4320699.71709      1165.147          29.900  
E13  23793171.114 3   -347487.10704      1120.776          37.800    23791042.327 3         0.00000       839.200          22.700  
E15  23992159.227 3      6152.71305      -996.024          36.700           0.000 0         0.00000         0.000           0.000  
E21  27642725.444 3      9683.46405     -2043.781          36.300    27640606.778 3         0.00000     -1522.150          24.900  
E26  26700433.090 5         0.00000      2246.000          27.800           0.000 0         0.00000         0.000           0.000  
E27  28439069.551 6         0.00000     -2525.100          21.200           0.000 0         0.00000         0.000           0.000  
> 2020 06 25 00 35 17.4409533  0 25
G10  21690451.077 3   -418872.61809      1951.032          39.800    21688104.930 2  -4920160.88805      1456.926          32.900  
G13  24117348.416 5         0.00000     -2278.493          26.100           0.000 0         0.00000         0.000           0.000  
G15  21962587.432 4     48329.12609     -1476.111          30.700           0.000 0         0.00000         0.000           0.000  
G16  23222991.043 3    251886.19109      -808.292          37.500           0.000 0         0.00000         0.000           0.000  
G18  20697793.626 2    945878.69409      -734.834          43.700           0.000 0         0.00000         0.000           0.000  
G20  20158329.987 3  -2347854.36402       224.487          38.300           0.000 0         0.00000         0.000           0.000  
G21  21499384.665 3  -1610120.43501      1004.227          40.000           0.000 0         0.00000         0.000           0.000  
G26  23601230.794 3    441570.93509     -2292.871          39.600    23598884.927 2         0.00000     -1713.046          29.200  
G27  23212356.182 5         0.00000      2985.894          27.400    23209992.376 3         0.00000      2230.034          28.700  
G29  23170576.522 4   3815099.64909     -3391.434          30.700           0.000 0         0.00000         0.000           0.000  
G32  25305490.674 5         0.00000      3650.770          27.800           0.000 0         0.00000         0.000           0.000  
R02  21353732.025 4   7619893.85003     -3475.154          34.100  
R18  19535284.551 3 -12736482.98702       902.621          36.000  
R17  20877154.084 4         0.00000     -2236.850          32.800  
R03  19216723.218 2 -17324215.30801       210.934          43.400  
R04  21417975.420 3 -15202041.92509      3750.462          38.700  
E01  28374159.976 6         0.00000      -310.600          22.500           0.000 0         0.00000         0.000           0.000  
E03  24991575.916 4      7363.52409     -1276.424          29.500    24989450.060 3         0.00000      -953.276          25.700  
E07  27115430.679 5         0.00000      3110.950          24.900           0.000 0         0.00000         0.000           0.000  
E08  22101465.688 3   -587166.33103      1564.664          41.300    22099338.367 2  -4321866.38909      1167.658          31.100  
E13  23792958.012 3   -348604.55804      1115.812          37.200           0.000 0         0.00000         0.000           0.000  
E15  23992348.458 4      7146.96407      -992.933          34.100    23990224.068 4         0.00000      -740.400          22.000  
E21  27643118.772 4     11729.95609     -2046.148          29.600           0.000 0         0.00000         0.000           0.000  
E26  26700010.376 4     -5846.45709      2237.750          31.200           0.000 0         0.00000         0.000           0.000  
E27  28439557.040 5         0.00000     -2523.700          28.000           0.000 0         0.00000         0.000           0.000  
> 2020 06 25 00 35 18.4409533  0 24
G10  21690082.668 2   -420821.51801      1946.855          41.500    21687733.450 2  -4921616.63104      1453.925          34.100  
G13  24117763.940 4      3357.39409     -2287.430          30.200           0.000 0         0.00000         0.000           0.000  
G15  21962868.032 4     49807.54409     -1481.979          33.800           0.000 0         0.00000         0.000           0.000  
G16  23223149.072 3    252698.50802      -817.251          36.300           0.000 0         0.00000         0.000           0.000  
G18  20697932.111 2    946616.46701      -740.495          42.700           0.000 0         0.00000         0.000           0.000  
G20  20158288.037 3  -2348076.24702       218.684          38.300           0.000 0         0.00000         0.000           0.000  
G21  21499197.598 3  -1611120.79701       996.042          40.300           0.000 0         0.00000         0.000           0.000  
G26  23601659.790 3    443865.64801     -2296.768          39.200    23599322.020 2         0.00000     -1714.985          29.800  
G29  23171220.156 3   3818489.14702     -3387.937          37.200           0.000 0         0.00000         0.000           0.000  
G32  25304790.991 4   -142883.82009      3654.618          30.000           0.000 0         0.00000         0.000           0.000  
R02  21354380.475 4   7623372.73503     -3483.428          35.500  
R18  19535113.050 3 -12737382.25709       895.526          37.100  
R17  20877581.544 3   3386064.72902     -2239.993          38.400  
R03  19216690.272 2 -17324424.56201       206.726          43.600  
R04  21417269.733 4 -15205792.47009      3749.733          32.300  
E01  28374200.739 5         0.00000      -322.100          24.700           0.000 0         0.00000         0.000           0.000  
E03  24991820.777 4         0.00000     -1280.900          31.600    24989693.805 3         0.00000      -957.941          26.000  
E07  27114843.723 4     -1676.58609      3119.109          31.400    27112718.426 3         0.00000      2328.000          28.500  
E08  22101168.895 3   -588731.47803      1563.899          41.000    22099041.225 2  -4323035.05905      1167.351          33.700  
E13  23792745.747 4   -349716.28706      1108.001          35.700    23790623.452 3         0.00000       831.250          24.500  
E15  23992534.617 4      8140.79108      -995.416          33.300    23990412.949 3         0.00000      -744.050          25.800  
E21  27643514.822 5         0.00000     -2054.800          27.400    27641385.686 3         0.00000     -1534.150          25.100  
E26  26699588.570 5         0.00000      2228.750          24.100    26697462.714 4         0.00000      1669.700          21.500  
E27  28440034.897 5         0.00000     -2516.050          24.200           0.000 0         0.00000         0.000           0.000  
> 2020 06 25 00 35 19.4409533  0 24
G10  21689712.444 4   -422765.85409      1948.887          33.400    21687363.506 3         0.00000      1450.300          25.100  
G13  24118189.935 5         0.00000     -2288.200          27.400           0.000 0         0.00000         0.000           0.000  
G15  21963145.909 3     51292.02302     -1482.360          36.900           0.000 0         0.00000         0.000           0.000  
G16  23223306.124 4    253517.55209      -816.870          29.800           0.000 0         0.00000         0.000           0.000  
G18  20698072.411 2    947359.58001      -741.197          41.200           0.000 0         0.00000         0.000           0.000  
G20  20158245.737 3  -2348291.99002       217.185          37.000           0.000 0         0.00000         0.000           0.000  
G21  21499006.623 3  -1612112.97601       992.990          39.200           0.000 0         0.00000         0.000           0.000  
G26  23602106.516 4    446163.37509     -2297.162          33.400           0.000 0         0.00000         0.000           0.000  
G27  23211203.490 5         0.00000      2967.282          27.500           0.000 0         0.00000         0.000           0.000  
G29  23171871.328 3   3821876.31802     -3382.541          35.200           0.000 0         0.00000         0.000           0.000  
G32  25304098.426 4   -146538.05009      3654.513          29.700    25301757.375 4         0.00000      2724.800          21.500  
R02  21355029.204 4   7626860.19803     -3486.410          33.700  
R18  19534955.021 4 -12738274.27903       893.444          34.000  
R17  20878009.982 3   3388304.81409     -2237.477          36.500  
R03  19216646.786 2 -17324628.92501       206.386          42.400  
R04  21416563.418 4 -15209545.64609      3757.430          30.200  
E01  28374273.262 5         0.00000      -329.100          26.200           0.000 0         0.00000         0.000           0.000  
E03  24992067.244 4         0.00000     -1281.900          34.400           0.000 0         0.00000         0.000           0.000  
E07  27114247.694 5         0.00000      3117.450          27.100    27112126.375 3         0.00000      2327.750          27.300  
E08  22100870.845 3   -590294.92304      1566.954          39.400    22098743.245 2  -4324202.62609      1170.979          30.800  
E13  23792535.577 4   -350819.53809      1103.862          31.800    23790412.723 3         0.00000       824.700          24.300  
E15  23992728.244 4      9138.26407      -994.994          34.600           0.000 0         0.00000         0.000           0.000  
E26  26699165.856 6         0.00000      2228.900          22.500    26697036.720 3         0.00000      1669.500          22.900  
E27  28440520.571 5         0.00000     -2516.900          23.900           0.000 0         0.00000         0.000           0.000  
> 2020 06 25 00 35 20.4409533  0 23
G10  21689337.684 3         0.00000      1951.400          40.200    21686991.467 2         0.00000      1455.100          29.400  
G13  24118650.970 5         0.00000     -2286.900          27.700           0.000 0         0.00000         0.000           0.000  
G15  21963425.043 4     52768.87503     -1475.966          34.800           0.000 0         0.00000         0.000           0.000  
G16  23223460.244 5         0.00000      -813.850          27.200           0.000 0         0.00000         0.000           0.000  
G18  20698211.803 2    948095.32401      -735.028          41.700           0.000 0         0.00000         0.000           0.000  
G20  20158203.438 3  -2348514.56609       222.723          35.400           0.000 0         0.00000         0.000           0.000  
G21  21498822.558 4  -1613109.83109       995.369          31.100           0.000 0         0.00000         0.000           0.000  
G26  23602537.885 4    448456.10609     -2298.084          33.900    23600192.297 3         0.00000     -1712.900          23.800  
G27  23210662.115 6         0.00000      3003.850          22.500           0.000 0         0.00000         0.000           0.000  
G29  23172509.029 4   3825251.14409     -3373.000          31.800           0.000 0         0.00000         0.000           0.000  
G32  25303387.923 5         0.00000      3665.413          26.700           0.000 0         0.00000         0.000           0.000  
R02  21355687.287 4   7630341.51909     -3480.411          31.300  
R18  19534796.154 4         0.00000       901.900          31.500  
R17  20878428.508 4   3390535.18903     -2228.071          35.500  
R03  19216608.744 3 -17324841.12609       213.047          40.800  
R04  21415864.642 3 -15213307.92709      3762.006          35.300  
E03  24992306.451 3     11295.79304     -1276.123          36.900    24990183.388 4         0.00000      -953.750          21.700  
E07  27113654.107 3         0.00000      3129.250          39.200    27111532.789 1         0.00000      2335.801          35.500  
E08  22100570.213 3   -591868.36204      1574.953          38.700    22098443.450 2  -4325377.57109      1174.978          30.900  
E13  23792326.593 5         0.00000      1110.350          26.000    23790197.178 3         0.00000       827.384          23.700  
E15  23992916.288 4     10126.43007      -986.522          34.600    23990788.618 3         0.00000      -742.550          22.800  
E21  27644281.096 6         0.00000     -2051.650          22.500    27642167.525 4         0.00000     -1532.950          21.600  
E27  28440989.074 5         0.00000     -2509.450          28.500           0.000 0         0.00000         0.000           0.000  
> 2020 06 25 00 35 21.4409533  0 23
G10  21688968.367 2   -426674.88309      1951.018          42.700    21686620.964 2  -4925989.58905      1456.975          33.000  
G13  24119083.316 6         0.00000     -2293.550          22.700           0.000 0         0.00000         0.000           0.000  
G15  21963713.111 4     54246.94303     -1476.004          34.800           0.000 0         0.00000         0.000           0.000  
G16  23223604.453 5         0.00000      -815.820          26.700           0.000 0         0.00000         0.000           0.000  
G18  20698353.011 2    948832.83101      -735.315          43.100           0.000 0         0.00000         0.000           0.000  
G20  20158164.768 3  -2348734.07409       221.371          38.500           0.000 0         0.00000         0.000           0.000  
G21  21498624.394 3  -1614102.94509       995.621          37.300           0.000 0         0.00000         0.000           0.000  
G26  23602973.513 3         0.00000     -2290.250          37.600           0.000 0         0.00000         0.000           0.000  
G29  23173146.660 4   3828625.66009     -3370.998          31.700           0.000 0         0.00000         0.000           0.000  
G32  25302727.188 5         0.00000      3665.700          25.200           0.000 0         0.00000         0.000           0.000  
R02  21356338.459 4   7633825.43009     -3483.341          32.400  
R18  19534630.935 4 -12740078.99809       897.803          35.400  
R17  20878835.029 3   3392764.92902     -2226.794          39.900  
R03  19216571.261 2 -17325050.95201       212.051          42.200  
R04  21415163.422 3 -15217066.27502      3761.366          35.300  
E03  24992547.823 4     12574.59207     -1276.735          34.700    24990423.224 3         0.00000      -953.650          23.400  
E07  27113057.798 4    -11030.81206      3130.862          35.300    27110937.387 2   -466584.77009      2337.570          31.400  
E08  22100271.256 3   -593441.20804      1575.535          38.300    22098144.842 2  -4326552.08409      1175.936          30.500  
E13  23792117.330 4      -303.24509      1108.221          30.200    23789990.009 3         0.00000       826.598          25.800  
E15  23993104.541 4     11115.08009      -986.159          30.800           0.000 0         0.00000         0.000           0.000  
E21  27644680.357 5         0.00000     -2052.950          24.800    27642558.131 3         0.00000     -1534.050          24.600  
E26  26698319.869 6         0.00000      2233.800          21.600    26696194.293 4         0.00000      1656.700          22.000  
E27  28441466.094 4      3987.93309     -2507.407          29.300           0.000 0         0.00000         0.000           0.000  
> 2020 06 25 00 35 22.4409533  0 24
G10  21688595.072 2   -428629.01709      1953.819          42.100    21686248.018 2  -4927448.86705      1459.048          31.000  
G13  24119507.217 4     12526.42309     -2288.299          31.200           0.000 0         0.00000         0.000           0.000  
G15  21963991.965 4     55721.27403     -1476.941          35.000           0.000 0         0.00000         0.000           0.000  
G16  23223755.851 4    255959.39709      -820.128          30.000           0.000 0         0.00000         0.000           0.000  
G18  20698494.218 2    949566.14701      -735.344          43.300           0.000 0         0.00000         0.000           0.000  
G20  20158121.003 3  -2348957.76709       222.305          37.800           0.000 0         0.00000         0.000           0.000  
G21  21498435.233 3  -1615100.62909       995.881          39.000           0.000 0         0.00000         0.000           0.000  
G26  23603410.885 3    453047.00609     -2289.302          37.800    23601065.925 4         0.00000     -1712.250          21.800  
G29  23173792.108 4   3831993.13309     -3367.189          31.000           0.000 0         0.00000         0.000           0.000  
R02  21356993.191 4   7637307.22703     -3483.841          34.600  
R18  19534446.591 3 -12740977.94902       897.314          37.400  
R09  24286255.355 5         0.00000     -1496.035          27.500  
R17  20879248.668 3   3394988.84202     -2225.067          39.300  
R03  19216526.868 2 -17325265.42501       213.083          42.800  
R04  21414456.479 3 -15220831.60002      3765.835          37.600  
E01  28374455.582 6         0.00000      -329.400          23.300           0.000 0         0.00000         0.000           0.000  
E03  24992795.756 4     13849.45606     -1276.900          35.300    24990665.712 3         0.00000      -955.150          24.900  
E07  27112460.652 4    -14165.64109      3135.220          30.200    27110342.893 3         0.00000      2339.800          26.600  
E08  22099970.623 3   -595020.07704      1578.560          38.800    22097844.489 2  -4327731.09905      1178.874          31.500  
E13  23791903.042 4     -1411.88809      1107.495          32.200    23789776.000 3         0.00000       826.658          25.900  
E15  23993287.698 4     12098.61009      -984.669          29.800    23991164.844 4         0.00000      -732.850          21.000  
E21  27645073.405 4      1604.71109     -2052.240          30.000    27642945.526 3         0.00000     -1533.171          23.800  
E27  28441945.765 5         0.00000     -2499.800          27.400           0.000 0         0.00000         0.000           0.000  
E26         0.000 0         0.00000         0.000           0.000    26695769.485 3         0.00000      1655.200          22.200  
> 2020 06 25 00 35 23.4409533  0 25
G10  21688224.848 2   -430583.17709      1951.884          41.600    21685877.166 2  -4928908.15609      1457.444          30.100  
G13  24119951.779 4     14819.08909     -2297.866          30.900           0.000 0         0.00000         0.000           0.000  
G15  21964268.028 3     57200.32802     -1483.692          37.000           0.000 0         0.00000         0.000           0.000  
G16  23223922.186 4    256779.68109      -822.983          31.400           0.000 0         0.00000         0.000           0.000  
G18  20698633.331 2    950303.15801      -740.978          43.100           0.000 0         0.00000         0.000           0.000  
G20  20158080.868 3  -2349179.20909       218.203          37.600           0.000 0         0.00000         0.000           0.000  
G21  21498249.353 3  -1616095.20809       990.820          39.300           0.000 0         0.00000         0.000           0.000  
G26  23603844.418 4    455335.67009     -2290.371          34.300           0.000 0         0.00000         0.000           0.000  
G27  23208947.596 4     -1243.55709      2961.846          30.700           0.000 0         0.00000         0.000           0.000  
G29  23174435.742 4   3835359.82509     -3368.570          34.800           0.000 0         0.00000         0.000           0.000  
R02  21357644.573 4   7640793.93003     -3491.921          35.600  
R18  19534281.722 3 -12741873.56302       891.573          37.200  
R09  24286520.668 5         0.00000     -1498.900          24.300  
R17  20879670.545 4   3397214.72603     -2229.095          34.900  
R03  19216492.386 2 -17325477.49301       208.805          42.900  
R04  21413759.727 3 -15224598.73809      3766.021          35.900  
E01  28374524.266 5         0.00000      -335.550          28.100           0.000 0         0.00000         0.000           0.000  
E03  24993035.871 4     15128.87906     -1283.421          35.500    24990912.109 3         0.00000      -956.150          24.200  
E07  27111864.622 3    -17304.14009      3137.979          37.300    27109744.211 2   -471274.51205      2340.480          32.600  
E08  22099672.643 3   -596598.54204      1576.390          38.700    22097545.602 2  -4328909.77209      1174.710          31.100  
E13  23791689.870 4     -2517.60608      1102.164          32.300    23789566.737 3         0.00000       822.666          25.300  
E15  23993476.579 4     13084.84609      -989.088          30.600           0.000 0         0.00000         0.000           0.000  
E21  27645461.917 4      3657.09109     -2053.890          31.400    27643342.134 3         0.00000     -1534.397          24.700  
E26  26697485.818 6         0.00000      2221.500          22.300           0.000 0         0.00000         0.000           0.000  
E27  28442418.527 6         0.00000     -2509.300          23.700           0.000 0         0.00000         0.000           0.000  
> 2020 06 25 00 35 24.4409533  0 25
G10  21687853.996 3   -432530.21209      1947.132          39.200    21685507.221 3         0.00000      1454.740          28.700  
G13  24120398.784 5         0.00000     -2307.350          25.400           0.000 0         0.00000         0.000           0.000  
G15  21964552.257 3     58691.21309     -1493.369          35.900           0.000 0         0.00000         0.000           0.000  
G16  23224090.686 4    257607.59509      -830.046          30.200           0.000 0         0.00000         0.000           0.000  
G18  20698774.538 2    951050.76301      -749.357          42.800           0.000 0         0.00000         0.000           0.000  
G20  20158035.567 3  -2349391.09302       211.366          36.300           0.000 0         0.00000         0.000           0.000  
G21  21498062.008 3  -1617079.42101       983.408          40.700           0.000 0         0.00000         0.000           0.000  
G26  23604285.699 3    457630.14109     -2293.554          35.200    23601940.111 3         0.00000     -1710.100          22.700  
G27  23208389.050 5         0.00000      2951.767          27.700           0.000 0         0.00000         0.000           0.000  
G29  23175075.258 3   3838733.15002     -3373.055          35.800           0.000 0         0.00000         0.000           0.000  
G32  25300599.239 5         0.00000      3678.150          25.200           0.000 0         0.00000         0.000           0.000  
R02  21358297.839 3   7644293.31602     -3502.115          36.800  
R18  19534123.134 3 -12742758.24702       882.829          37.200  
R09  24286821.650 5         0.00000     -1512.500          24.500  
R17  20880079.159 3   3399449.73702     -2236.387          37.200  
R03  19216447.714 2 -17325680.15701       201.435          43.100  
R04  21413053.761 3 -15228360.68809      3762.446          35.600  
E01  28374581.224 4       611.13209      -344.631          29.400           0.000 0         0.00000         0.000           0.000  
E03  24993284.082 4     16419.75606     -1293.035          34.800    24991157.110 3         0.00000      -966.958          23.800  
E07  27111269.570 4    -20437.93209      3133.681          35.100    27109147.344 2   -473614.60109      2338.560          30.100  
E08  22099371.662 3   -598169.61104      1570.647          39.200    22097244.550 2  -4330083.08809      1171.175          29.800  
E13  23791487.168 4     -3613.27708      1093.928          31.900    23789359.847 3         0.00000       817.292          24.200  
E15  23993668.113 4     14080.69709      -997.238          30.800    23991542.607 4         0.00000      -742.150          21.400  
E21  27645853.779 5         0.00000     -2059.350          28.300    27643731.833 3         0.00000     -1531.700          23.900  
E26  26697048.376 6         0.00000      2230.650          22.000           0.000 0         0.00000         0.000           0.000  
> 2020 06 25 00 35 25.4409533  0 24
G10  21687482.865 3   -434478.27509      1946.122          39.600    21685135.811 2  -4931816.29109      1452.411          31.900  
G13  24120812.842 5         0.00000     -2319.083          27.800           0.000 0         0.00000         0.000           0.000  
G15  21964841.861 4     60186.61603     -1499.865          34.300           0.000 0         0.00000         0.000           0.000  
G16  23224247.458 4    258437.40709      -831.166          33.200           0.000 0         0.00000         0.000           0.000  
G18  20698917.211 2    951801.56601      -754.450          42.600           0.000 0         0.00000         0.000           0.000  
G20  20158001.993 3  -2349601.92802       207.954          36.400           0.000 0         0.00000         0.000           0.000  
G21  21497872.568 3  -1618062.13101       979.885          39.300           0.000 0         0.00000         0.000           0.000  
G26  23604716.231 3         0.00000     -2292.000          37.200    23602376.296 3         0.00000     -1713.300          23.200  
G29  23175721.614 4   3842105.79609     -3375.246          31.500           0.000 0         0.00000         0.000           0.000  
G32  25299906.465 5         0.00000      3670.300          25.600           0.000 0         0.00000         0.000           0.000  
R02  21358949.291 4   7647797.68203     -3508.687          35.500  
R18  19533951.354 3 -12743639.83102       878.125          36.300  
R17  20880499.430 3   3401687.11401     -2240.990          40.300  
R03  19216416.862 2 -17325880.68101       197.254          43.500  
R04  21412350.168 3 -15232123.88109      3761.421          36.600  
E01  28374636.646 5         0.00000      -345.800          26.700           0.000 0         0.00000         0.000           0.000  
E03  24993529.363 4     17714.90708     -1299.184          32.300           0.000 0         0.00000         0.000           0.000  
E07  27110673.261 3    -23572.80104      3134.541          38.200    27108550.477 2   -475955.55605      2339.107          34.000  
E08  22099075.427 3   -599739.98103      1568.280          40.600    22096945.663 2  -4331255.75109      1168.889          30.000  
E13  23791276.718 4     -4706.88509      1090.744          34.300    23789153.585 3         0.00000       814.124          23.400  
E15  23993854.621 4     15079.19909     -1001.369          30.000    23991736.862 3         0.00000      -753.100          24.000  
E21  27646242.012 5         0.00000     -2054.850          25.200           0.000 0         0.00000         0.000           0.000  
E26  26696634.387 6         0.00000      2210.650          22.600           0.000 0         0.00000         0.000           0.000  
E27  28443373.961 5         0.00000     -2500.600          24.100           0.000 0         0.00000         0.000           0.000  
> 2020 06 25 00 35 26.4409533  0 24
G10  21687111.385 3   -436425.69609      1948.139          38.800    21684766.425 2  -4933270.49505      1454.795          31.500  
G13  24121275.692 5         0.00000     -2318.411          27.400           0.000 0         0.00000         0.000           0.000  
G15  21965121.553 4         0.00000     -1508.303          28.200           0.000 0         0.00000         0.000           0.000  
G16  23224397.949 3    259267.34409      -829.629          36.700           0.000 0         0.00000         0.000           0.000  
G18  20699062.606 2    952556.57601      -755.698          43.500           0.000 0         0.00000         0.000           0.000  
G20  20157956.762 3  -2349810.14902       208.227          36.900           0.000 0         0.00000         0.000           0.000  
G21  21497686.968 3  -1619042.22301       980.078          40.200           0.000 0         0.00000         0.000           0.000  
G26  23605153.882 3    462222.86809     -2290.883          38.400    23602811.644 3         0.00000     -1713.800          26.200  
G27  23207270.840 4     -1236.94709      2951.200          30.200           0.000 0         0.00000         0.000           0.000  
G29  23176358.058 5         0.00000     -3374.850          25.500           0.000 0         0.00000         0.000           0.000  
G32  25299205.525 4   -172211.93609      3674.920          30.100           0.000 0         0.00000         0.000           0.000  
R02  21359610.375 4   7651307.43803     -3511.198          34.400  
R18  19533795.140 4 -12744517.28503       876.929          35.800  
R17  20880919.143 3   3403928.55202     -2242.273          39.100  
R03  19216378.750 2 -17326077.73001       196.692          43.100  
R04  21411653.695 3 -15235886.86202      3763.760          37.900  
E03  24993780.576 4     19015.30809     -1301.206          30.000    24991652.976 3         0.00000      -973.650          22.600  
E07  27110075.486 3    -26709.06504      3136.883          37.900    27107953.540 2   -478297.48209      2342.196          32.200  
E08  22098773.818 3   -601307.93303      1567.953          40.800    22096648.032 3  -4332426.65409      1170.845          28.700  
E13  23791070.806 4     -5797.64906      1090.726          35.600    23788945.230 3         0.00000       813.750          22.900  
E15  23994052.785 4     16082.09409     -1002.957          29.900    23991923.021 3         0.00000      -749.387          25.200  
E21  27646637.713 4      1631.22609     -2056.558          28.800    27644514.580 4         0.00000     -1538.800          21.500  
E26  26696210.208 5         0.00000      2208.550          24.400           0.000 0         0.00000         0.000           0.000  
E27  28443848.816 4      1472.61009     -2497.428          30.800           0.000 0         0.00000         0.000           0.000  
> 2020 06 25 00 35 27.4409533  0 25
G10  21686744.511 3   -438372.46609      1945.037          38.700    21684396.201 2  -4934724.19905      1452.352          33.200  
G13  24121710.342 4     24080.38809     -2327.332          31.000           0.000 0         0.00000         0.000           0.000  
G15  21965412.623 4     63198.95809     -1509.956          32.900           0.000 0         0.00000         0.000           0.000  
G16  23224555.978 3    260097.85809      -832.167          35.600           0.000 0         0.00000         0.000           0.000  
G18  20699208.071 2    953314.95901      -761.111          43.600           0.000 0         0.00000         0.000           0.000  
G20  20157922.001 3  -2350016.19502       203.815          37.000           0.000 0         0.00000         0.000           0.000  
G21  21497498.994 3  -1620020.17701       975.695          40.700           0.000 0         0.00000         0.000           0.000  
G26  23605591.883 3    464514.93409     -2293.643          39.900    23603245.387 3         0.00000     -1710.500          27.400  
G27  23206699.450 4         0.00000      2945.726          28.300           0.000 0         0.00000         0.000           0.000  
G29  23177003.158 4   3848842.99609     -3379.568          30.700           0.000 0         0.00000         0.000           0.000  
G32  25298507.586 4   -175887.34909      3672.020          32.300           0.000 0         0.00000         0.000           0.000  
R02  21360260.291 4   7654821.75103     -3517.337          34.000  
R18  19533624.826 4 -12745391.52303       871.620          35.800  
R19  21926495.705 6         0.00000      3195.850          20.200  
R17  20881348.139 3   3406173.53902     -2247.717          36.500  
R03  19216340.988 2 -17326271.88301       191.554          43.300  
R04  21410948.287 3 -15239649.25509      3761.170          36.900  
E01  28374774.293 6         0.00000      -346.650          21.700           0.000 0         0.00000         0.000           0.000  
E03  24994024.251 4     20319.80509     -1307.313          32.800    24991897.279 3         0.00000      -980.750          23.000  
E07  27109480.085 4    -29844.95909      3135.062          34.700    27107356.323 2   -480639.17709      2338.775          30.700  
E08  22098479.118 3   -602873.81203      1563.748          40.700    22096349.703 2  -4333595.97109      1164.890          29.500  
E13  23790862.101 3     -6886.10205      1086.283          35.900    23788736.316 3         0.00000       810.646          24.300  
E15  23994237.130 4     17088.41409     -1008.874          31.200    23992115.183 3         0.00000      -754.259          25.300  
E21  27647026.853 4      3688.58209     -2058.859          31.000    27644903.999 3         0.00000     -1538.100          24.500  
E26  26695783.864 5         0.00000      2213.800          25.100           0.000 0         0.00000         0.000           0.000  
> 2020 06 25 00 35 28.4409533  0 25
G10  21686369.402 4   -440319.50709      1949.813          32.800    21684025.977 2         0.00000      1456.838          29.000  
G13  24122156.160 4     26405.96109     -2323.864          34.000           0.000 0         0.00000         0.000           0.000  
G15  21965703.483 4     64706.91609     -1507.243          33.700           0.000 0         0.00000         0.000           0.000  
G16  23224708.842 4    260928.09909      -827.476          33.600           0.000 0         0.00000         0.000           0.000  
G18  20699349.837 2    954074.46001      -758.153          42.500           0.000 0         0.00000         0.000           0.000  
G20  20157883.610 3  -2350222.17402       208.041          35.300           0.000 0         0.00000         0.000           0.000  
G21  21497313.114 3  -1620998.62209       979.955          37.800           0.000 0         0.00000         0.000           0.000  
G26  23606031.070 4    466803.52909     -2285.347          33.400           0.000 0         0.00000         0.000           0.000  
G27  23206145.440 4         0.00000      2949.826          28.300           0.000 0         0.00000         0.000           0.000  
G29  23177647.420 4   3852220.30009     -3374.107          33.400           0.000 0         0.00000         0.000           0.000  
G32  25297806.087 4   -179562.45009      3680.394          30.400           0.000 0         0.00000         0.000           0.000  
R02  21360924.027 4   7658338.21403     -3515.632          33.700  
R18  19533460.863 4 -12746264.71003       874.856          34.300  
R17  20881766.944 4   3408419.57709     -2244.611          32.300  
R03  19216307.693 2 -17326465.26401       195.122          42.600  
R04  21410246.509 3 -15243413.22609      3766.735          38.800  
E01  28374855.192 6         0.00000      -345.700          21.800           0.000 0         0.00000         0.000           0.000  
E03  24994274.627 4     21626.16908     -1305.135          33.400    24992148.492 3         0.00000      -977.300          22.500  
E07  27108882.031 4    -32982.52509      3140.690          33.200    27106758.898 2   -482982.69209      2345.946          29.200  
E08  22098177.858 3   -604439.77504      1568.113          39.700    22096050.816 3         0.00000      1171.160          27.700  
E13  23790654.653 4     -7974.43209      1090.458          34.700           0.000 0         0.00000         0.000           0.000  
E15  23994430.199 4     18095.46208     -1005.547          32.800    23992306.507 3         0.00000      -751.750          22.500  
E21  27647419.273 5         0.00000     -2051.700          26.700           0.000 0         0.00000         0.000           0.000  
E26  26695368.060 5         0.00000      2212.350          27.000           0.000 0         0.00000         0.000           0.000  
E27  28444793.152 5         0.00000     -2493.150          27.700           0.000 0         0.00000         0.000           0.000  
> 2020 06 25 00 35 29.4409533  0 24
G10  21686002.528 3   -442271.69309      1950.323          35.400    21683653.310 2  -4937633.39409      1451.131          30.800  
G13  24122594.440 3     28734.22209     -2333.435          37.600           0.000 0         0.00000         0.000           0.000  
G15  21965995.181 4     66218.02109     -1516.063          34.900           0.000 0         0.00000         0.000           0.000  
G16  23224872.246 3    261757.82509      -832.793          36.500           0.000 0         0.00000         0.000           0.000  
G18  20699496.139 2    954835.86201      -765.655          42.200           0.000 0         0.00000         0.000           0.000  
G20  20157838.030 3  -2350427.64002       201.942          36.700           0.000 0         0.00000         0.000           0.000  
G21  21497126.676 3  -1621975.98209       973.897          38.800           0.000 0         0.00000         0.000           0.000  
G26  23606460.694 3    469091.32809     -2290.566          36.900    23604116.642 3         0.00000     -1707.750          24.600  
G27  23205576.423 4         0.00000      2944.011          28.900    23203232.371 3         0.00000      2198.848          24.500  
G29  23178289.588 4   3855596.80409     -3380.760          34.900           0.000 0         0.00000         0.000           0.000  
G32  25297110.871 4   -183242.19009      3676.957          30.100           0.000 0         0.00000         0.000           0.000  
R02  21361595.861 3   7661857.79502     -3524.415          36.100  
R18  19533297.180 3 -12747136.07302       867.095          36.200  
R19  21925277.052 6         0.00000      3199.050          21.100  
R17  20882165.996 5         0.00000     -2258.121          26.900  
R03  19216265.464 2 -17326657.40801       188.069          43.000  
R04  21409542.009 2 -15247178.76701      3762.637          41.200  
E03  24994519.837 4     22935.20808     -1313.079          33.300    24992398.519 3         0.00000      -981.333          25.000  
E07  27108283.628 3    -36122.66304      3138.057          38.300    27106161.681 2   -485327.74105      2341.463          34.000  
E08  22097882.251 3   -606005.55304      1562.425          39.200    22095751.929 2  -4335934.44409      1165.775          29.400  
E13  23790450.485 3     -9062.04709      1084.680          36.300    23788323.513 3         0.00000       819.700          24.100  
E15  23994625.083 3     19104.25605     -1012.517          36.700    23992498.599 3         0.00000      -757.288          23.600  
E21  27647817.068 5         0.00000     -2053.750          28.100           0.000 0         0.00000         0.000           0.000  
E26  26694951.349 5         0.00000      2213.700          25.100           0.000 0         0.00000         0.000           0.000  
> 2020 06 25 00 35 30.4409533  0 24
G10  21685628.675 4   -444216.16609      1943.819          35.000    21683283.086 2  -4939085.86605      1451.621          31.700  
G13  24123040.886 3     31070.45002     -2337.766          35.700           0.000 0         0.00000         0.000           0.000  
G15  21966276.967 4     67737.49409     -1520.537          34.800           0.000 0         0.00000         0.000           0.000  
G16  23225030.834 3    262591.71202      -834.246          37.200           0.000 0         0.00000         0.000           0.000  
G18  20699639.441 2    955603.93101      -769.428          42.300           0.000 0         0.00000         0.000           0.000  
G20  20157808.365 3  -2350627.51302       198.697          38.000           0.000 0         0.00000         0.000           0.000  
G21  21496946.450 3  -1622947.62901       971.377          40.200           0.000 0         0.00000         0.000           0.000  
G26  23606897.159 3    471382.79709     -2292.483          37.400    23604552.478 3         0.00000     -1707.700          26.800  
G27  23205008.593 5         0.00000      2943.878          27.600    23202672.288 3         0.00000      2200.300          24.900  
G29  23178933.571 4   3858979.87303     -3384.993          34.700           0.000 0         0.00000         0.000           0.000  
G32  25296412.094 4   -186917.29509      3674.218          30.400           0.000 0         0.00000         0.000           0.000  
R02  21362246.126 3   7665384.81602     -3528.403          36.700  
R18  19533135.312 3 -12748000.96102       863.577          36.500  
R17  20882597.365 4         0.00000     -2255.350          33.000  
R03  19216234.891 2 -17326842.97301       183.961          42.600  
R04  21408843.512 2 -15250939.53001      3759.349          41.700  
E03  24994770.492 4     24251.69407     -1318.014          34.000    24992648.266 3         0.00000      -985.010          24.100  
E07  27107687.947 3    -39258.49205      3134.550          36.700    27105563.628 2   -487669.40705      2338.434          32.400  
E08  22097584.550 3   -607565.20604      1558.161          39.500    22095455.135 3  -4337099.21509      1162.803          28.600  
E13  23790242.130 3    -10144.18004      1081.350          37.100    23788117.810 3         0.00000       809.150          23.800  
E15  23994816.337 3     20119.97604     -1017.178          37.300    23992688.388 3         0.00000      -761.868          23.500  
E21  27648203.556 4         0.00000     -2055.850          29.800    27646080.702 4         0.00000     -1536.450          20.800  
E26  26694521.445 4     -1283.74809      2205.800          31.000           0.000 0         0.00000         0.000           0.000  
E27  28445742.304 4      6456.62209     -2498.016          29.200           0.000 0         0.00000         0.000           0.000  
> 2020 06 25 00 35 31.4409533  0 25
G10  21685254.193 4   -446162.38409      1945.805          32.000    21682913.142 2  -4940538.53105      1452.812          32.100  
G13  24123484.820 4     33405.65003     -2332.501          33.600           0.000 0         0.00000         0.000           0.000  
G15  21966564.197 3     69256.45902     -1517.157          35.200           0.000 0         0.00000         0.000           0.000  
G16  23225187.676 4    263423.96409      -831.145          34.000           0.000 0         0.00000         0.000           0.000  
G18  20699785.464 3    956371.41201      -765.692          40.400           0.000 0         0.00000         0.000           0.000  
G20  20157763.064 3  -2350828.07702       201.705          35.900           0.000 0         0.00000         0.000           0.000  
G21  21496758.197 3  -1623921.45602       975.782          38.600           0.000 0         0.00000         0.000           0.000  
G26  23607333.694 3    473673.66702     -2290.823          37.000    23604987.826 3         0.00000     -1712.600          27.800  
G27  23204456.957 4         0.00000      2948.841          28.600    23202110.810 2  -3111801.80409      2201.586          30.400  
G29  23179581.113 3   3862364.50402     -3385.285          35.900           0.000 0         0.00000         0.000           0.000  
G32  25295706.337 4         0.00000      3674.026          28.300           0.000 0         0.00000         0.000           0.000  
R02  21362911.049 3   7668910.71802     -3523.221          36.900  
R18  19532964.998 4 -12748866.66203       867.532          34.100  
R19  21924103.979 6         0.00000      3193.750          21.200  
R17  20883020.079 4   3415198.49909     -2255.774          32.600  
R03  19216197.966 3 -17327028.10801       185.798          41.500  
R04  21408141.315 2 -15254699.39701      3759.032          41.900  
E03  24995021.147 4     25568.12608     -1314.300          32.300    24992894.663 3         0.00000      -981.687          26.100  
E07  27107089.824 3    -42393.54605      3134.412          36.000    27104967.598 2   -490010.62009      2339.479          32.900  
E08  22097286.850 3   -609123.94104      1558.834          38.400    22095157.714 3         0.00000      1163.669          27.800  
E13  23790034.682 3    -11228.00704      1085.824          37.000    23787911.269 3         0.00000       809.300          22.900  
E15  23995010.593 3     21135.88204     -1014.571          37.400           0.000 0         0.00000         0.000           0.000  
E21  27648586.972 5         0.00000     -2054.550          26.400    27646468.934 3         0.00000     -1533.300          22.800  
E26  26694099.639 4     -3492.51809      2211.639          30.500           0.000 0         0.00000         0.000           0.000  
E27  28446238.170 5         0.00000     -2494.200          25.100           0.000 0         0.00000         0.000           0.000  
> 2020 06 25 00 35 32.4409533  0 25
G10  21684892.694 4   -448105.45309      1941.986          32.400    21682543.197 2  -4941989.66205      1450.266          32.000  
G13  24123925.822 4     35735.47703     -2324.344          33.300           0.000 0         0.00000         0.000           0.000  
G15  21966853.452 3     70772.63702     -1512.780          36.900           0.000 0         0.00000         0.000           0.000  
G16  23225343.193 3    264255.50509      -830.232          36.900           0.000 0         0.00000         0.000           0.000  
G18  20699932.325 3    957136.16001      -761.849          40.800           0.000 0         0.00000         0.000           0.000  
G20  20157726.209 3  -2351029.39902       202.697          36.200           0.000 0         0.00000         0.000           0.000  
G21  21496569.037 3  -1624898.30302       979.750          38.900           0.000 0         0.00000         0.000           0.000  
G26  23607771.694 3    475967.37202     -2295.394          38.500    23605427.293 3         0.00000     -1714.200          28.300  
G27  23203899.667 4    -18923.27009      2955.167          29.200    23201549.332 2         0.00000      2206.276          29.000  
G29  23180221.187 3   3865753.21702     -3391.072          36.100           0.000 0         0.00000         0.000           0.000  
G32  25295016.216 6         0.00000      3662.500          22.800           0.000 0         0.00000         0.000           0.000  
R02  21363574.785 3   7672431.38302     -3515.640          37.600  
R18  19532823.233 4 -12749735.09503       871.343          33.600  
R19  21923483.379 6         0.00000      3201.800          23.300  
R17  20883448.168 4   3417455.94609     -2257.004          30.700  
R03  19216168.650 2 -17327212.73901       185.186          42.200  
R04  21407440.165 2 -15258454.14701      3751.161          42.400  
E03  24995272.919 4     26881.11307     -1310.033          33.800    24993147.412 3         0.00000      -978.162          24.000  
E07  27106492.677 3    -45523.18304      3125.656          37.800    27104372.825 2   -492347.64405      2334.164          31.300  
E08  22096990.056 3   -610680.27103      1555.322          40.400    22094863.363 3  -4339425.44409      1161.453          28.300  
E13  23789829.956 3    -12315.13605      1089.892          36.300           0.000 0         0.00000         0.000           0.000  
E15  23995203.104 3     22150.66504     -1013.376          38.300           0.000 0         0.00000         0.000           0.000  
E21  27648989.025 5         0.00000     -2058.800          25.500           0.000 0         0.00000         0.000           0.000  
E26  26693680.205 4     -5705.17109      2215.640          31.800           0.000 0         0.00000         0.000           0.000  
E27  28446702.555 6         0.00000     -2506.700          22.900           0.000 0         0.00000         0.000           0.000  
> 2020 06 25 00 35 33.4409533  0 25
G10  21684517.933 3   -450044.07509      1933.333          36.500    21682174.160 2  -4943437.25105      1443.682          31.600  
G13  24124362.915 4     38055.93109     -2317.684          33.900           0.000 0         0.00000         0.000           0.000  
G15  21967140.962 3     72283.45202     -1510.888          36.500           0.000 0         0.00000         0.000           0.000  
G16  23225508.132 3    265086.98709      -833.941          36.900           0.000 0         0.00000         0.000           0.000  
G18  20700078.348 2    957896.53601      -760.834          41.800           0.000 0         0.00000         0.000           0.000  
G20  20157690.262 3  -2351231.60702       199.905          36.400           0.000 0         0.00000         0.000           0.000  
G21  21496388.253 3  -1625879.62202       981.048          38.600           0.000 0         0.00000         0.000           0.000  
G26  23608210.602 3    478267.44502     -2306.003          38.900    23605865.014 3         0.00000     -1722.374          28.800  
G27  23203332.744 3    -21879.76609      2957.695          35.200    23200986.877 2  -3116212.93505      2208.907          31.100  
G29  23180869.009 3   3869149.73002     -3403.624          36.700           0.000 0         0.00000         0.000           0.000  
R02  21364222.049 3   7675942.87702     -3509.486          36.600  
R18  19532640.354 4 -12750608.12103       872.589          34.600  
R19  21922831.020 5         0.00000      3208.150          25.400  
R17  20883865.507 4   3419714.10709     -2263.175          32.400  
R03  19216135.983 2 -17327396.42301       180.231          42.400  
R04  21406737.410 3 -15262198.91001      3736.536          40.500  
E01  28375176.556 6         0.00000      -341.550          20.800           0.000 0         0.00000         0.000           0.000  
E03  24995522.317 4     28188.64009     -1307.831          32.200    24993395.066 3         0.00000      -976.456          24.100  
E07  27105899.998 3    -48641.54604      3109.833          37.700    27103779.517 2   -494676.40705      2321.056          32.500  
E08  22096696.893 3   -612231.67003      1546.148          40.800    22094567.757 3         0.00000      1154.171          27.300  
E13  23789621.251 3    -13407.00405      1091.423          35.800    23787499.374 4         0.00000       812.050          22.000  
E15  23995393.451 3     23163.79704     -1015.225          37.800           0.000 0         0.00000         0.000           0.000  
E21  27649385.913 5         0.00000     -2063.400          27.700           0.000 0         0.00000         0.000           0.000  
E26  26693259.027 5         0.00000      2215.850          27.600    26691137.080 4         0.00000      1651.150          20.800  
E27  28447181.598 5         0.00000     -2519.600          25.600           0.000 0         0.00000         0.000           0.000  
> 2020 06 25 00 35 34.4409533  0 24
G10  21684152.805 3   -451978.14609      1933.716          36.300    21681806.588 2  -4944881.48805      1443.917          31.500  
G13  24124806.639 4     40365.72409     -2302.550          32.300           0.000 0         0.00000         0.000           0.000  
G15  21967429.379 3     73788.61902     -1500.914          37.100           0.000 0         0.00000         0.000           0.000  
G16  23225659.251 3    265917.13309      -827.384          37.300           0.000 0         0.00000         0.000           0.000  
G18  20700222.836 2    958652.11001      -751.522          41.200           0.000 0         0.00000         0.000           0.000  
G20  20157650.615 3  -2351435.09302       206.031          36.300           0.000 0         0.00000         0.000           0.000  
G21  21496200.000 3  -1626866.45802       991.503          39.000           0.000 0         0.00000         0.000           0.000  
G26  23608647.695 3    480573.73802     -2307.416          38.100    23606303.293 3         0.00000     -1722.850          28.800  
G27  23202771.545 4    -24844.96109      2971.357          33.900    23200422.955 2  -3118427.17709      2218.740          30.500  
G29  23181516.273 3   3872555.31002     -3408.540          37.000           0.000 0         0.00000         0.000           0.000  
R02  21364899.257 3   7679444.08002     -3494.425          36.700  
R18  19532480.510 4 -12751486.34003       882.598          34.900  
R19  21922210.770 5         0.00000      3221.750          24.900  
R17  20884302.321 4   3421976.13009     -2260.534          32.700  
R03  19216100.873 3 -17327579.06301       183.944          41.800  
R04  21406051.477 3 -15265932.85101      3730.406          39.600  
E03  24995768.505 4     29489.82308     -1297.209          32.100    24993641.463 3         0.00000      -975.350          23.100  
E07  27105309.692 4    -51748.13107      3102.751          33.800    27103189.211 3         0.00000      2316.708          26.600  
E08  22096399.820 3   -613777.57803      1544.696          40.800    22094273.057 3         0.00000      1153.782          25.400  
E13  23789413.244 4    -14505.04206      1102.575          35.400           0.000 0         0.00000         0.000           0.000  
E15  23995587.427 3     24175.45804     -1009.648          37.200           0.000 0         0.00000         0.000           0.000  
E21  27649783.149 5         0.00000     -2054.200          24.400           0.000 0         0.00000         0.000           0.000  
E26  26692840.501 5         0.00000      2226.600          27.700           0.000 0         0.00000         0.000           0.000  
E27  28447657.431 5         0.00000     -2531.000          27.000           0.000 0         0.00000         0.000           0.000  
> 2020 06 25 00 35 35.4409533  0 24
G10  21683785.513 3   -453904.62609      1924.553          35.900    21681439.645 2  -4946320.10609      1434.008          30.900  
G13  24125244.081 4     42668.29609     -2301.293          32.700           0.000 0         0.00000         0.000           0.000  
G15  21967713.888 3     75291.64502     -1504.290          37.200           0.000 0         0.00000         0.000           0.000  
G16  23225825.935 3    266748.54109      -834.603          37.000           0.000 0         0.00000         0.000           0.000  
G18  20700367.045 2    959406.09701      -755.560          42.100           0.000 0         0.00000         0.000           0.000  
G20  20157614.947 3  -2351636.85702       198.585          37.500           0.000 0         0.00000         0.000           0.000  
G21  21496010.560 3  -1627856.08401       988.472          39.800           0.000 0         0.00000         0.000           0.000  
G26  23609088.697 3    482889.10109     -2322.633          38.700    23606743.667 2         0.00000     -1736.249          29.000  
G27  23202200.714 4    -27815.96309      2971.471          32.500    23199856.661 3         0.00000      2218.091          27.700  
G29  23182167.096 3   3875973.89002     -3427.244          35.900           0.000 0         0.00000         0.000           0.000  
R02  21365553.430 4   7682938.04103     -3492.885          35.400  
R18  19532312.639 4 -12752366.74203       878.973          35.300  
R19  21921579.072 6         0.00000      3225.300          21.500  
R17  20884713.658 4   3424242.91009     -2273.084          32.900  
R03  19216061.924 2 -17327757.31201       173.800          42.500  
R04  21405350.886 3 -15269652.45509      3709.582          37.800  
E03  24996014.623 4     30788.41408     -1299.686          32.200    24993888.209 3         0.00000      -971.350          22.900  
E07  27104712.825 5         0.00000      3076.600          25.000    27102600.790 3         0.00000      2297.304          24.500  
E08  22096110.496 2   -615314.22403      1530.230          41.800    22093982.267 3         0.00000      1141.835          27.500  
E13  23789203.074 4    -15606.08106      1100.220          35.400    23787079.034 4         0.00000       828.250          21.500  
E15  23995781.055 3     25189.26104     -1016.827          37.400           0.000 0         0.00000         0.000           0.000  
E21  27650193.579 5         0.00000     -2071.300          25.000           0.000 0         0.00000         0.000           0.000  
E26  26692419.043 6         0.00000      2232.000          21.800           0.000 0         0.00000         0.000           0.000  
E27  28448136.753 4      4035.53709     -2547.174          29.700           0.000 0         0.00000         0.000           0.000  
> 2020 06 25 00 35 36.4409533  0 23
G10  21683426.038 3         0.00000      1915.950          35.200    21681074.796 2  -4947752.34305      1431.497          31.200  
G13  24125681.732 4     44964.93503     -2292.275          33.800           0.000 0         0.00000         0.000           0.000  
G15  21967998.675 4     76793.65903     -1499.619          34.100           0.000 0         0.00000         0.000           0.000  
G16  23225981.172 3    267582.62409      -832.437          35.200           0.000 0         0.00000         0.000           0.000  
G18  20700511.533 2    960159.74401      -751.346          42.300           0.000 0         0.00000         0.000           0.000  
G20  20157571.810 3  -2351835.78802       200.124          36.400           0.000 0         0.00000         0.000           0.000  
G21  21495817.491 3  -1628846.84202       993.417          38.000           0.000 0         0.00000         0.000           0.000  
G26  23609531.444 3    485215.73409     -2327.162          36.900    23607187.670 2   4266596.16309     -1738.050          31.100  
G27  23201637.700 4    -30792.77609      2982.730          29.400    23199290.366 3         0.00000      2223.900          26.200  
G29  23182820.362 4   3879405.82903     -3434.738          33.500           0.000 0         0.00000         0.000           0.000  
G32  25292251.264 5         0.00000      3608.294          26.000           0.000 0         0.00000         0.000           0.000  
R02  21366201.322 4   7686426.47103     -3483.997          34.900  
R18  19532145.955 4 -12753247.94203       883.606          35.100  
R17  20885144.120 4   3426518.78309     -2275.312          33.000  
R03  19216026.814 2 -17327930.23701       173.092          42.000  
R04  21404659.578 3 -15273355.59409      3700.705          35.200  
E03  24996262.835 4     32085.47708     -1294.637          31.800    24994134.955 3         0.00000      -967.300          22.900  
E07  27104130.616 4     -1639.03809      3071.205          29.200    27102014.951 3         0.00000      2292.100          24.800  
E08  22095818.519 3   -616841.04503      1525.081          41.600    22093690.848 3  -4344025.90709      1138.665          28.600  
E13  23788991.089 4    -16710.84109      1108.152          32.800    23786868.863 3         0.00000       830.700          23.400  
E15  23995975.660 3     26206.22604     -1016.177          37.000           0.000 0         0.00000         0.000           0.000  
E21  27650558.707 4      1687.28909     -2074.184          29.500           0.000 0         0.00000         0.000           0.000  
E26  26691999.889 5         0.00000      2235.450          26.400           0.000 0         0.00000         0.000           0.000  
> 2020 06 25 00 35 37.4409533  0 25
G10  21683061.817 3   -457767.78309      1920.285          35.300    21680712.041 3         0.00000      1433.473          27.000  
G13  24126117.360 4     47251.42804     -2278.801          32.200           0.000 0         0.00000         0.000           0.000  
G15  21968284.091 4     78288.89009     -1490.203          32.500           0.000 0         0.00000         0.000           0.000  
G16  23226142.482 3    268412.56209      -825.887          36.700           0.000 0         0.00000         0.000           0.000  
G18  20700650.925 2    960907.53001      -742.279          41.800           0.000 0         0.00000         0.000           0.000  
G20  20157534.885 3  -2352038.07602       206.471          36.400           0.000 0         0.00000         0.000           0.000  
G21  21495626.795 3  -1629844.65002      1003.562          39.000           0.000 0         0.00000         0.000           0.000  
G26  23609973.353 3    487542.52909     -2325.312          36.300    23607629.580 3         0.00000     -1736.962          27.300  
G27  23201068.125 4         0.00000      2992.284          29.100    23198723.444 3         0.00000      2228.469          24.000  
G29  23183469.092 4   3882842.35309     -3436.680          31.400           0.000 0         0.00000         0.000           0.000  
G32  25291550.882 5         0.00000      3603.922          26.500           0.000 0         0.00000         0.000           0.000  
R02  21366863.872 4   7689904.48109     -3471.007          34.600  
R18  19531980.806 4 -12754135.38103       893.171          34.700  
R09  24290520.258 5         0.00000     -1470.900          24.700  
R17  20885562.297 4   3428792.87409     -2272.170          33.800  
R03  19215998.615 3 -17328104.70801       177.851          41.900  
R04  21403964.640 3 -15277055.44509      3698.622          39.200  
E03  24996504.485 4     33375.85109     -1284.416          30.800    24994384.354 3         0.00000      -959.412          24.300  
E07  27103549.593 5         0.00000      3066.500          28.200           0.000 0         0.00000         0.000           0.000  
E08  22095529.194 3   -618365.99703      1526.473          41.600    22093400.616 3         0.00000      1139.687          25.900  
E13  23788783.361 4    -17820.52509      1115.878          32.700    23786659.949 3         0.00000       830.700          22.400  
E15  23996166.007 3     27219.81305     -1009.568          35.800           0.000 0         0.00000         0.000           0.000  
E21  27650955.944 4      3760.20709     -2070.629          30.000           0.000 0         0.00000         0.000           0.000  
E26  26691575.081 5         0.00000      2249.400          28.000           0.000 0         0.00000         0.000           0.000  
E27  28449109.847 6         0.00000     -2558.800          21.300           0.000 0         0.00000         0.000           0.000  
> 2020 06 25 00 35 38.4409533  0 25
G10  21682693.967 3   -459685.34409      1914.428          37.600    21680346.005 2         0.00000      1430.950          29.500  
G13  24126548.450 4     49525.83209     -2271.847          33.400           0.000 0         0.00000         0.000           0.000  
G15  21968569.158 4         0.00000     -1486.500          29.500           0.000 0         0.00000         0.000           0.000  
G16  23226301.070 3    269237.65409      -825.624          35.200           0.000 0         0.00000         0.000           0.000  
G18  20700792.760 3    961647.89001      -740.108          40.900           0.000 0         0.00000         0.000           0.000  
G20  20157498.938 3  -2352245.30902       206.375          35.200           0.000 0         0.00000         0.000           0.000  
G21  21495441.823 3  -1630850.76002      1006.856          37.300           0.000 0         0.00000         0.000           0.000  
G26  23610419.102 4    489870.94009     -2339.266          30.600    23608076.585 3         0.00000     -1740.150          25.400  
G27  23200515.930 4    -36777.27709      3000.244          30.800    23198152.682 3         0.00000      2236.700          22.800  
G29  23184126.267 5         0.00000     -3441.821          26.800           0.000 0         0.00000         0.000           0.000  
G32  25290858.109 5         0.00000      3590.300          24.800           0.000 0         0.00000         0.000           0.000  
R02  21367497.873 4   7693369.65809     -3461.207          30.700  
R18  19531820.683 4 -12755030.64709       895.780          34.600  
R09  24290764.282 5         0.00000     -1471.100          25.900  
R17  20885991.014 3   3431066.84009     -2276.445          37.900  
R03  19215958.479 2 -17328282.02101       175.253          42.500  
R04  21403272.704 3 -15280749.49301      3688.014          39.400  
E01  28375505.736 5         0.00000      -298.700          24.300           0.000 0         0.00000         0.000           0.000  
E03  24996749.416 4     34658.10409     -1281.576          29.800    24994626.563 3         0.00000      -957.793          25.400  
E07  27102969.827 4         0.00000      3055.900          30.200    27100848.509 3         0.00000      2281.950          22.500  
E08  22095240.149 3   -619889.92103      1520.326          40.400    22093112.827 2  -4346302.71009      1134.662          29.900  
E13  23788568.375 4    -18938.96409      1119.349          31.300    23786442.868 3         0.00000       835.341          24.800  
E15  23996357.889 4     28229.05107     -1010.364          34.100    23994236.850 4         0.00000      -755.450          20.700  
E21  27651356.182 5         0.00000     -2070.200          26.500           0.000 0         0.00000         0.000           0.000  
E26  26691142.804 4         0.00000      2249.400          30.500           0.000 0         0.00000         0.000           0.000  
> 2020 06 25 00 35 39.4409533  0 25
G10  21682332.119 4   -461601.24209      1916.797          33.700    21679982.063 2         0.00000      1431.459          29.000  
G13  24126985.543 4     51792.60109     -2263.669          33.100           0.000 0         0.00000         0.000           0.000  
G15  21968851.851 4     81261.83109     -1481.106          33.300           0.000 0         0.00000         0.000           0.000  
G16  23226451.561 3    270059.86309      -820.539          38.300           0.000 0         0.00000         0.000           0.000  
G18  20700931.524 2    962383.94501      -734.000          41.800           0.000 0         0.00000         0.000           0.000  
G20  20157451.892 3  -2352454.91502       211.010          35.900           0.000 0         0.00000         0.000           0.000  
G21  21495244.566 3  -1631862.40202      1014.122          36.500           0.000 0         0.00000         0.000           0.000  
G26  23610866.456 4         0.00000     -2331.350          31.900           0.000 0         0.00000         0.000           0.000  
G27  23199932.814 4    -39780.33109      3006.809          29.800           0.000 0         0.00000         0.000           0.000  
G29  23184782.186 4   3889725.02909     -3447.338          32.600           0.000 0         0.00000         0.000           0.000  
G32  25290190.742 4         0.00000      3589.513          28.400           0.000 0         0.00000         0.000           0.000  
R02  21368143.322 4   7696826.75509     -3454.594          34.300  
R18  19531645.343 4 -12755930.75503       902.297          34.900  
R09  24291144.069 6         0.00000     -1462.900          23.800  
R17  20886420.010 3   3433341.80702     -2274.841          39.700  
R03  19215930.001 2 -17328459.60701       178.446          43.300  
R04  21402583.211 3 -15284437.83009      3687.151          40.600  
E01  28375563.601 5         0.00000      -289.350          27.000           0.000 0         0.00000         0.000           0.000  
E03  24996995.814 4     35935.44609     -1274.832          31.400    24994868.841 3         0.00000      -951.918          23.300  
E07  27102390.271 4    -10812.99509      3053.568          30.500    27100268.045 3         0.00000      2280.551          23.600  
E08  22094950.894 3   -621410.80703      1520.901          41.300    22092822.944 2  -4347438.57309      1135.667          30.500  
E13  23788360.927 4    -20062.77209      1123.515          28.800           0.000 0         0.00000         0.000           0.000  
E15  23996551.796 4     29236.48907     -1006.235          34.300    23994429.012 3         0.00000      -747.950          24.100  
E21  27651739.598 5         0.00000     -2066.700          26.000           0.000 0         0.00000         0.000           0.000  
E26  26690708.363 4     -5761.05509      2255.880          30.200           0.000 0         0.00000         0.000           0.000  
> 2020 06 25 00 35 40.4409533  0 25
G10  21681964.269 4         0.00000      1903.781          28.700    21679618.122 2  -4953474.23009      1426.115          30.800  
G13  24127425.916 4     54057.72409     -2264.715          31.900           0.000 0         0.00000         0.000           0.000  
G15  21969127.704 4     82745.00409     -1484.175          32.800           0.000 0         0.00000         0.000           0.000  
G16  23226608.682 3    270883.60809      -825.029          37.000           0.000 0         0.00000         0.000           0.000  
G18  20701072.452 3    963120.58601      -737.441          41.000           0.000 0         0.00000         0.000           0.000  
G20  20157414.688 4  -2352662.69503       206.284          34.800           0.000 0         0.00000         0.000           0.000  
G21  21495057.220 3  -1632874.28102      1011.396          36.900           0.000 0         0.00000         0.000           0.000  
G26  23611302.641 4    494558.30509     -2337.763          31.000    23608959.775 3         0.00000     -1743.300          22.300  
G27  23199366.798 4         0.00000      3004.816          28.300           0.000 0         0.00000         0.000           0.000  
G29  23185441.176 4   3893176.69009     -3454.847          29.300           0.000 0         0.00000         0.000           0.000  
G32  25289526.098 5         0.00000      3580.250          23.500           0.000 0         0.00000         0.000           0.000  
R02  21368792.400 4   7700284.45109     -3457.470          32.500  
R18  19531470.212 4         0.00000       899.601          29.900  
R09  24291317.105 5         0.00000     -1467.350          26.100  
R17  20886847.540 3   3435620.61402     -2281.404          36.800  
R03  19215895.240 2 -17328634.01801       172.275          43.800  
R04  21401898.744 3 -15288118.57602      3677.808          37.600  
E01  28375613.090 5         0.00000      -291.700          28.700           0.000 0         0.00000         0.000           0.000  
E03  24997244.374 4     37211.93809     -1277.719          29.300    24995114.680 3         0.00000      -955.250          24.300  
E07  27101808.969 4    -13860.96909      3044.604          30.800    27099685.277 3         0.00000      2271.094          24.500  
E08  22094663.105 3   -622926.66403      1513.419          39.800    22092532.433 2  -4348570.54109      1124.106          30.400  
E13  23788143.916 4    -21184.51008      1123.853          33.600    23786016.315 4         0.00000       842.200          21.600  
E15  23996741.306 4     30246.10408     -1010.869          31.900           0.000 0         0.00000         0.000           0.000  
E21  27652138.580 5         0.00000     -2077.200          25.400           0.000 0         0.00000         0.000           0.000  
E26  26690288.371 4     -8015.55508      2254.962          31.900           0.000 0         0.00000         0.000           0.000  
> 2020 06 25 00 35 41.4409533  0 25
G10  21681628.806 5         0.00000      1908.050          26.000    21679255.018 2  -4954901.03109      1426.984          30.500  
G13  24127799.491 5         0.00000     -2258.900          24.700           0.000 0         0.00000         0.000           0.000  
G15  21969412.212 4     84228.33509     -1483.126          29.600           0.000 0         0.00000         0.000           0.000  
G16  23226772.016 3    271707.12009      -822.983          37.400           0.000 0         0.00000         0.000           0.000  
G18  20701207.936 3    963856.21701      -734.885          41.100           0.000 0         0.00000         0.000           0.000  
G20  20157371.830 4  -2352870.43804       208.254          31.700           0.000 0         0.00000         0.000           0.000  
G21  21494855.426 3  -1633887.82002      1014.431          36.500           0.000 0         0.00000         0.000           0.000  
G26  23611757.743 4    496895.58309     -2336.875          29.300           0.000 0         0.00000         0.000           0.000  
G27  23198766.930 4    -45793.52809      3007.865          29.900           0.000 0         0.00000         0.000           0.000  
G29  23186089.277 4   3896633.24609     -3456.679          32.000           0.000 0         0.00000         0.000           0.000  
G32  25288809.313 5         0.00000      3578.481          26.500           0.000 0         0.00000         0.000           0.000  
R02  21369435.755 4         0.00000     -3451.100          29.600  
R18  19531323.072 4 -12757732.39903       901.417          33.200  
R09  24291635.118 5         0.00000     -1464.604          28.200  
R17  20887266.066 3   3437901.30802     -2280.497          37.200  
R03  19215862.852 2 -17328807.14801       173.270          42.000  
R04  21401211.973 3 -15291795.99502      3677.092          38.700  
E01  28375664.952 4       857.59409      -292.790          31.300           0.000 0         0.00000         0.000           0.000  
E03  24997470.739 6         0.00000     -1275.600          23.500    24995357.168 3         0.00000      -953.036          24.500  
E07  27101234.019 4    -16904.94908      3043.276          32.600    27099106.698 3         0.00000      2272.972          25.200  
E08  22094371.965 3   -624440.09203      1513.421          40.900    22092246.110 2  -4349699.73705      1129.006          31.400  
E13  23787927.742 4    -22310.76208      1126.892          33.700           0.000 0         0.00000         0.000           0.000  
E15  23996932.281 4     31256.06909     -1010.115          31.700    23994814.522 3         0.00000      -757.800          23.300  
E21  27652528.627 5         0.00000     -2074.200          27.700           0.000 0         0.00000         0.000           0.000  
E26  26689877.105 4    -10272.33009      2257.987          31.300           0.000 0         0.00000         0.000           0.000  
> 2020 06 25 00 35 42.4409533  0 25
G10  21681271.146 5         0.00000      1917.700          25.300    21678891.425 3         0.00000      1433.663          28.300  
G13  24128247.682 5         0.00000     -2254.450          25.600           0.000 0         0.00000         0.000           0.000  
G15  21969709.564 4     85707.63304     -1475.752          32.500           0.000 0         0.00000         0.000           0.000  
G16  23226928.789 3    272527.06002      -816.032          36.900           0.000 0         0.00000         0.000           0.000  
G18  20701350.679 2    964587.40501      -727.592          41.900           0.000 0         0.00000         0.000           0.000  
G20  20157339.163 4  -2353082.40404       215.646          30.400           0.000 0         0.00000         0.000           0.000  
G21  21494667.173 3  -1634906.07802      1022.057          38.800           0.000 0         0.00000         0.000           0.000  
G26  23612192.742 4         0.00000     -2329.654          28.400           0.000 0         0.00000         0.000           0.000  
G27  23198223.390 4         0.00000      3015.403          29.100           0.000 0         0.00000         0.000           0.000  
G29  23186750.640 4   3900086.73209     -3449.654          30.100           0.000 0         0.00000         0.000           0.000  
G32  25288139.853 4         0.00000      3587.332          28.300           0.000 0         0.00000         0.000           0.000  
R02  21370081.204 4         0.00000     -3444.600          31.500  
R18  19531158.203 4 -12758637.70203       908.833          34.500  
R09  24291905.875 4         0.00000     -1458.689          29.300  
R17  20887691.154 3   3440178.25901     -2273.323          40.000  
R03  19215826.276 3 -17328983.95301       180.320          40.500  
R04  21400520.945 3 -15295476.67202      3684.335          38.400  
E01  28375721.910 4      1146.49408      -285.454          31.800           0.000 0         0.00000         0.000           0.000  
E03  24997720.416 5         0.00000     -1268.950          27.300           0.000 0         0.00000         0.000           0.000  
E07  27100650.274 4    -19952.74908      3051.259          33.200    27098530.143 3         0.00000      2278.422          24.600  
E08  22094082.361 3   -625957.34003      1520.648          40.900    22091955.669 3  -4350832.68209      1136.261          29.100  
E13  23787717.293 4    -23441.81807      1134.802          34.500           0.000 0         0.00000         0.000           0.000  
E15  23997127.444 4     32261.40207     -1001.886          33.900    23995007.312 3         0.00000      -748.450          25.300  
E21  27652913.300 5         0.00000     -2066.400          25.600           0.000 0         0.00000         0.000           0.000  
E26  26689431.566 4    -12534.14808      2265.314          32.500           0.000 0         0.00000         0.000           0.000  
> 2020 06 25 00 35 43.4409533  0 25
G10  21680916.488 5         0.00000      1917.700          24.400    21678525.389 2         0.00000      1431.463          29.400  
G13  24128686.241 4         0.00000     -2253.644          28.700           0.000 0         0.00000         0.000           0.000  
G15  21969975.506 4     87184.22904     -1477.356          31.200           0.000 0         0.00000         0.000           0.000  
G16  23227084.724 3    273343.72602      -817.364          35.200           0.000 0         0.00000         0.000           0.000  
G18  20701484.696 2    965315.47401      -728.716          41.400           0.000 0         0.00000         0.000           0.000  
G20  20157284.579 4  -2353298.43609       214.904          32.900           0.000 0         0.00000         0.000           0.000  
G21  21494473.475 3  -1635927.48702      1020.842          37.300           0.000 0         0.00000         0.000           0.000  
G26  23612651.124 4    501559.52709     -2330.776          31.200           0.000 0         0.00000         0.000           0.000  
G27  23197652.629 5         0.00000      3014.133          27.700           0.000 0         0.00000         0.000           0.000  
G29  23187408.094 4   3903536.55109     -3450.444          31.700           0.000 0         0.00000         0.000           0.000  
G32  25287459.364 5         0.00000      3586.317          27.100           0.000 0         0.00000         0.000           0.000  
R02  21370741.031 4   7710660.71909     -3447.331          35.500  
R18  19530982.793 4 -12759545.71109       907.313          33.000  
R09  24292174.469 4  -2130704.06409     -1459.047          30.200  
R17  20888110.587 3   3442452.16401     -2274.643          40.100  
R03  19215797.798 3 -17329163.45301       178.602          41.500  
R04  21399832.638 3 -15299160.56701      3683.086          39.400  
E01  28375778.867 4      1432.54209      -287.113          30.600    28373634.724 3         0.00000      -214.450          24.000  
E03  24997944.966 5         0.00000     -1266.950          25.500    24995839.213 3         0.00000      -948.750          23.200  
E07  27100068.694 4    -23003.53808      3050.011          33.000    27097949.190 3         0.00000      2273.250          25.900  
E08  22093793.386 3   -627477.36703      1519.757          40.700    22091667.531 2  -4351967.87509      1133.884          30.900  
E13  23787502.376 4    -24575.90907      1133.238          34.100    23785372.332 4         0.00000       845.850          20.200  
E15  23997320.513 3     33263.86705     -1003.289          36.100    23995196.194 3         0.00000      -749.448          26.900  
E21  27653318.284 5         0.00000     -2065.100          27.200           0.000 0         0.00000         0.000           0.000  
E26  26689003.477 4    -14799.23409      2265.132          30.600    26686862.684 4         0.00000      1690.100          22.000  
> 2020 06 25 00 35 44.4409533  0 25
G10  21680510.596 6         0.00000      1921.100          23.100    21678160.819 2  -4959197.90709      1435.268          30.200  
G13  24129128.150 4     63074.84509     -2250.382          30.300           0.000 0         0.00000         0.000           0.000  
G15  21970272.299 4     88657.84104     -1472.232          31.800           0.000 0         0.00000         0.000           0.000  
G16  23227229.491 3    274157.41902      -812.263          35.700           0.000 0         0.00000         0.000           0.000  
G18  20701624.647 2    966040.29601      -723.241          42.000           0.000 0         0.00000         0.000           0.000  
G20  20157238.092 4  -2353516.37009       219.619          33.200           0.000 0         0.00000         0.000           0.000  
G21  21494270.564 3  -1636952.38502      1026.565          36.200           0.000 0         0.00000         0.000           0.000  
G26  23613094.779 4    503886.38509     -2325.082          31.600           0.000 0         0.00000         0.000           0.000  
G27  23197071.606 4    -54837.55809      3019.616          30.300           0.000 0         0.00000         0.000           0.000  
G29  23188072.110 4         0.00000     -3444.758          28.200           0.000 0         0.00000         0.000           0.000  
G32  25286770.151 4         0.00000      3592.352          29.000           0.000 0         0.00000         0.000           0.000  
R02  21371367.913 4   7714104.65403     -3441.848          35.900  
R18  19530801.101 3 -12760456.97302       912.840          36.100  
R09  24292412.211 5         0.00000     -1453.609          26.900  
R17  20888543.771 3   3444722.91602     -2269.245          37.500  
R03  19215767.783 2 -17329345.75001       183.780          42.500  
R04  21399140.981 3 -15302847.58902      3688.639          37.600  
E01  28375819.352 4      1715.45709      -281.680          30.500    28373691.402 3         0.00000      -213.500          22.500  
E03  24998204.904 5         0.00000     -1264.400          24.400    24996082.050 3         0.00000      -943.886          25.200  
E07  27099491.301 4    -26057.98208      3056.007          33.300    27097364.259 3         0.00000      2276.399          24.200  
E08  22093503.503 3   -629000.68203      1524.679          41.200    22091378.276 2  -4353105.41309      1138.902          29.700  
E13  23787281.386 4    -25713.63108      1139.294          32.800    23785156.159 3         0.00000       849.700          22.800  
E15  23997505.486 3     34262.80405      -997.437          36.400    23995386.261 3         0.00000      -744.383          23.400  
E21  27653692.487 5         0.00000     -2063.750          25.300           0.000 0         0.00000         0.000           0.000  
E26  26688574.481 4    -17068.10909      2270.445          31.400           0.000 0         0.00000         0.000           0.000  
> 2020 06 25 00 35 45.4409533  0 25
G10  21680151.749 5         0.00000      1914.767          26.900    21677795.970 2  -4960630.45505      1429.895          32.600  
G13  24129527.202 5         0.00000     -2258.121          27.300           0.000 0         0.00000         0.000           0.000  
G15  21970540.613 4     90134.05603     -1479.909          34.800           0.000 0         0.00000         0.000           0.000  
G16  23227382.076 3    274973.70902      -819.796          35.300           0.000 0         0.00000         0.000           0.000  
G18  20701764.039 2    966767.28501      -730.379          42.300           0.000 0         0.00000         0.000           0.000  
G20  20157211.707 4  -2353732.06709       212.251          32.700           0.000 0         0.00000         0.000           0.000  
G21  21494088.244 3  -1637975.16202      1019.492          37.700           0.000 0         0.00000         0.000           0.000  
G26  23613523.216 4    506215.52309     -2332.522          30.700           0.000 0         0.00000         0.000           0.000  
G27  23196490.304 4    -57853.23309      3012.201          29.300           0.000 0         0.00000         0.000           0.000  
G29  23188728.099 4   3910431.70709     -3452.248          32.000           0.000 0         0.00000         0.000           0.000  
G32  25286086.312 4         0.00000      3585.569          28.900    25283754.823 3         0.00000      2677.449          23.800  
R02  21372037.373 4   7717549.89509     -3449.224          32.800  
R18  19530625.412 4 -12761365.77703       905.272          35.200  
R09  24292665.239 5         0.00000     -1461.014          28.500  
R17  20888964.112 3   3446996.15102     -2276.675          36.400  
R03  19215732.115 2 -17329525.24001       175.850          42.800  
R04  21398450.860 3 -15306532.05002      3681.039          38.000  
E01  28375889.502 4      2000.53009      -287.669          30.400    28373743.264 3         0.00000      -216.429          24.200  
E03  24998433.362 5         0.00000     -1271.850          27.200    24996322.794 3         0.00000      -950.358          27.100  
E07  27098908.533 4    -29110.48107      3049.605          34.500    27096784.493 3         0.00000      2273.900          27.800  
E08  22093213.550 3   -630521.80403      1517.907          41.400    22091088.951 2  -4354241.06505      1131.586          33.100  
E13  23787063.468 4    -26849.38508      1132.965          33.600           0.000 0         0.00000         0.000           0.000  
E15  23997697.647 4     35263.86106     -1003.922          35.600    23995578.702 3         0.00000      -750.576          27.300  
E21  27654090.910 5         0.00000     -2071.050          26.700           0.000 0         0.00000         0.000           0.000  
E26  26688146.951 4    -19335.19808      2264.061          32.700    26686001.691 3         0.00000      1697.950          22.200  
> 2020 06 25 00 35 46.4409533  0 25
G10  21679779.083 4   -474986.85209      1910.493          29.200    21677430.842 2  -4962059.28505      1427.093          33.200  
G13  24129990.959 4     67589.24109     -2262.837          33.700           0.000 0         0.00000         0.000           0.000  
G15  21970824.494 4     91615.56803     -1484.367          35.100           0.000 0         0.00000         0.000           0.000  
G16  23227544.014 4    275795.13903      -824.398          33.600           0.000 0         0.00000         0.000           0.000  
G18  20701902.873 2    967499.20601      -734.570          42.400           0.000 0         0.00000         0.000           0.000  
G20  20157171.292 4  -2353942.69409       208.064          32.500           0.000 0         0.00000         0.000           0.000  
G21  21493888.265 3  -1638993.18902      1015.383          37.600           0.000 0         0.00000         0.000           0.000  
G26  23613967.499 4    508549.55709     -2336.518          29.800           0.000 0         0.00000         0.000           0.000  
G27  23195918.635 4    -60863.83409      3007.811          30.500           0.000 0         0.00000         0.000           0.000  
G29  23189386.111 4   3913885.25409     -3455.771          34.300           0.000 0         0.00000         0.000           0.000  
G32  25285397.377 4         0.00000      3581.685          28.900    25283076.707 3         0.00000      2674.764          23.900  
R02  21372680.728 4   7721001.27103     -3453.810          33.500  
R18  19530459.077 3 -12762269.31602       900.661          36.900  
R09  24292914.079 5         0.00000     -1466.375          26.600  
R17  20889402.671 3   3449274.60602     -2280.835          37.800  
R03  19215699.448 2 -17329699.07501       171.093          43.500  
R04  21397766.742 3 -15310211.47102      3677.105          38.600  
E01  28375940.107 4      2291.15509      -293.488          30.300    28373801.129 3         0.00000      -219.493          27.300  
E03  24998676.200 5         0.00000     -1276.100          28.700    24996564.444 3         0.00000      -953.186          27.700  
E07  27098328.697 4    -32158.11107      3046.097          34.200    27096205.913 3   -524390.59509      2273.845          28.300  
E08  22092926.948 2   -632037.63903      1513.652          42.100    22090798.719 2  -4355373.07705      1128.686          33.600  
E13  23786848.481 4    -27980.06208      1128.438          32.900    23784727.512 3         0.00000       842.800          22.500  
E15  23997890.996 4     36269.87007     -1008.233          34.100    23995769.328 3         0.00000      -753.448          27.500  
E21  27654486.891 5         0.00000     -2069.950          25.500           0.000 0         0.00000         0.000           0.000  
E26  26687708.043 4    -21597.32709      2259.634          30.600    26685570.251 3         0.00000      1689.450          23.300  
> 2020 06 25 00 35 47.4409533  0 26
G10  21679415.141 4         0.00000      1915.913          28.800    21677068.086 2         0.00000      1430.592          29.700  
G13  24130427.145 4     69851.58809     -2258.905          33.800           0.000 0         0.00000         0.000           0.000  
G15  21971107.815 4     93099.31403     -1480.409          34.800           0.000 0         0.00000         0.000           0.000  
G16  23227713.351 4    276618.58004      -820.071          32.000           0.000 0         0.00000         0.000           0.000  
G18  20702044.360 2    968232.97101      -730.246          41.800           0.000 0         0.00000         0.000           0.000  
G20  20157138.626 3  -2354151.63309       212.331          36.200           0.000 0         0.00000         0.000           0.000  
G21  21493696.103 3  -1640009.42701      1019.783          40.300           0.000 0         0.00000         0.000           0.000  
G26  23614420.158 4    510884.33109     -2330.788          29.400           0.000 0         0.00000         0.000           0.000  
G27  23195361.275 4    -63873.20309      3012.986          30.200           0.000 0         0.00000         0.000           0.000  
G29  23190043.566 4   3917338.87409     -3450.067          30.500           0.000 0         0.00000         0.000           0.000  
G32  25284729.452 6         0.00000      3588.100          22.600    25282391.053 3         0.00000      2682.850          23.800  
R02  21373322.267 4   7724454.28109     -3449.755          31.500  
R18  19530291.136 3 -12763170.71102       904.876          36.100  
R09  24293261.199 5         0.00000     -1462.273          28.300  
R19  21914254.866 6         0.00000      3271.550          23.700  
R17  20889817.288 3   3451554.32802     -2276.326          36.800  
R03  19215672.784 2 -17329871.02001       175.222          44.700  
R04  21397084.997 3 -15313890.43102      3682.327          36.900  
E01  28375998.600 5         0.00000      -290.050          27.000    28373855.993 3         0.00000      -216.117          28.800  
E03  24998929.158 4      3630.79709     -1271.911          29.800    24996808.189 3         0.00000      -949.831          28.000  
E07  27097748.303 4    -35205.83208      3050.971          33.200    27095626.427 3         0.00000      2278.742          26.900  
E08  22092637.972 2   -633552.63802      1518.375          42.800    22090512.117 2  -4356504.42905      1133.981          32.600  
E13  23786633.215 4    -29109.04207      1132.521          33.800           0.000 0         0.00000         0.000           0.000  
E15  23998079.598 4     37277.17407     -1003.952          34.700    23995959.745 3         0.00000      -749.686          25.500  
E21  27654902.415 5         0.00000     -2063.600          25.900    27652769.998 4         0.00000     -1545.100          20.400  
E26  26687262.574 4    -23857.90009      2263.910          30.900           0.000 0         0.00000         0.000           0.000  
> 2020 06 25 00 35 48.4409533  0 26
G10  21679046.383 4   -478813.75003      1914.097          34.400    21676704.145 2  -4964917.23605      1429.454          31.900  
G13  24130858.584 4     72111.55303     -2259.405          33.400           0.000 0         0.00000         0.000           0.000  
G15  21971383.319 3     94580.49902     -1481.719          36.700           0.000 0         0.00000         0.000           0.000  
G16  23227854.907 3    277439.50102      -821.255          35.300           0.000 0         0.00000         0.000           0.000  
G18  20702184.939 2    968963.66801      -731.116          41.700           0.000 0         0.00000         0.000           0.000  
G20  20157087.601 3  -2354363.28802       211.070          35.200           0.000 0         0.00000         0.000           0.000  
G21  21493502.196 2  -1641028.78501      1019.095          41.200           0.000 0         0.00000         0.000           0.000  
G26  23614846.152 5         0.00000     -2330.466          26.000           0.000 0         0.00000         0.000           0.000  
G27  23194782.417 4    -66884.82009      3011.621          31.500           0.000 0         0.00000         0.000           0.000  
G29  23190695.017 4   3920791.06304     -3452.536          31.900           0.000 0         0.00000         0.000           0.000  
G32  25284065.088 6         0.00000      3584.600          22.300    25281708.401 3         0.00000      2677.453          23.100  
R02  21373987.191 4         0.00000     -3449.567          29.700  
R18  19530108.607 3 -12764074.97402       903.705          36.800  
R09  24293514.576 4  -2123399.19209     -1463.087          31.100  
R19  21913765.911 5         0.00000      3266.703          27.700  
R17  20890249.844 3   3453831.48502     -2278.011          37.400  
R03  19215632.579 2 -17330045.19301       173.304          44.300  
R04  21396384.056 3 -15317571.39502      3680.080          37.500  
E01  28376048.368 5         0.00000      -287.900          24.700    28373912.043 2         0.00000      -219.562          30.400  
E03  24999175.346 4      4903.26809     -1272.728          30.100    24997048.304 3         0.00000      -951.150          27.800  
E07  27097164.000 4    -38255.91308      3049.160          32.500    27095045.683 3         0.00000      2275.992          27.900  
E08  22092350.811 2   -635069.96402      1516.947          42.800    22090223.141 2  -4357637.52005      1129.918          34.000  
E13  23786431.491 4    -30241.09208      1131.675          33.000           0.000 0         0.00000         0.000           0.000  
E15  23998272.318 4     38281.77707     -1005.233          34.100    23996151.907 3         0.00000      -750.891          27.600  
E21  27655308.028 4      1686.25609     -2070.465          29.000           0.000 0         0.00000         0.000           0.000  
E26  26686836.579 4    -26121.91108      2264.301          32.100           0.000 0         0.00000         0.000           0.000  
> 2020 06 25 00 35 49.4409533  0 26
G10  21678684.256 3   -480733.59002      1922.066          37.100    21676338.039 2  -4966350.81705      1435.192          31.000  
G13  24131286.323 4     74365.75303     -2252.099          33.700           0.000 0         0.00000         0.000           0.000  
G15  21971671.108 3     96056.57702     -1474.148          37.200           0.000 0         0.00000         0.000           0.000  
G16  23228015.309 3    278255.38002      -813.679          35.300           0.000 0         0.00000         0.000           0.000  
G18  20702320.771 2    969689.09101      -723.236          41.200           0.000 0         0.00000         0.000           0.000  
G20  20157056.191 3  -2354579.99902       218.913          36.300           0.000 0         0.00000         0.000           0.000  
G21  21493307.591 3  -1642053.74601      1027.130          39.700           0.000 0         0.00000         0.000           0.000  
G26  23615291.063 4    515541.05409     -2324.261          29.400    23612963.483 4         0.00000     -1737.200          21.000  
G27  23194195.112 4    -69902.65809      3020.188          29.500           0.000 0         0.00000         0.000           0.000  
G29  23191357.567 4   3924237.62904     -3444.114          31.300           0.000 0         0.00000         0.000           0.000  
G32  25283374.967 6         0.00000      3593.450          21.300           0.000 0         0.00000         0.000           0.000  
R02  21374630.545 4   7731348.43009     -3442.632          30.300  
R18  19529947.018 3 -12764984.35402       911.632          37.400  
R09  24293794.896 5         0.00000     -1455.873          28.200  
R19  21913170.859 5         0.00000      3280.550          26.200  
R17  20890665.718 4   3456103.65103     -2269.883          35.300  
R03  19215605.636 2 -17330224.04601       180.997          44.700  
R04  21395700.845 3 -15321257.22702      3688.154          38.100  
E01  28376107.420 5         0.00000      -281.050          27.700    28373965.999 2         0.00000      -210.567          30.700  
E03  24999410.086 4      6170.41909     -1264.620          29.900    24997288.140 3         0.00000      -944.544          26.100  
E07  27096586.049 4    -41311.08308      3057.604          32.200    27094461.729 3         0.00000      2283.682          27.800  
E08  22092059.393 2   -636592.18002      1524.499          42.800    22089933.537 2  -4358774.32705      1138.655          33.700  
E13  23786205.755 4    -31378.80806      1139.984          35.000           0.000 0         0.00000         0.000           0.000  
E15  23998459.384 4     39281.00408      -997.024          32.700    23996341.696 3         0.00000      -744.153          27.800  
E21  27655705.544 5         0.00000     -2060.800          26.100    27653551.210 4         0.00000     -1541.950          21.900  
E26  26686400.114 4    -28391.39508      2271.908          32.300    26684281.727 4         0.00000      1694.150          20.800  
> 2020 06 25 00 35 50.4409533  0 25
G10  21678315.777 3   -482652.81202      1918.940          35.900    21675969.909 2         0.00000      1432.979          29.300  
G13  24131713.854 3     76620.81702     -2254.763          35.400           0.000 0         0.00000         0.000           0.000  
G15  21971936.770 4     97533.79209     -1477.366          29.700           0.000 0         0.00000         0.000           0.000  
G16  23228163.985 4    279071.62209      -816.585          33.900           0.000 0         0.00000         0.000           0.000  
G18  20702457.790 3    970415.06801      -726.053          40.600           0.000 0         0.00000         0.000           0.000  
G20  20157011.169 3  -2354796.04902       215.781          35.900           0.000 0         0.00000         0.000           0.000  
G21  21493114.243 3  -1643078.11101      1024.540          39.900           0.000 0         0.00000         0.000           0.000  
G26  23615762.079 5         0.00000     -2327.683          27.300    23613399.669 3         0.00000     -1726.189          25.600  
G27  23193614.090 5         0.00000      3016.557          27.700           0.000 0         0.00000         0.000           0.000  
G29  23192008.391 4   3927684.75907     -3447.006          29.300           0.000 0         0.00000         0.000           0.000  
G32  25282680.029 5         0.00000      3591.745          26.500    25280343.515 4         0.00000      2679.700          21.000  
R02  21375242.769 5         0.00000     -3446.169          28.800  
R18  19529785.080 4 -12765893.02003       908.456          35.900  
R09  24294025.379 5         0.00000     -1459.407          27.000  
R19  21912507.401 6         0.00000      3271.750          22.900  
R17  20891090.805 4   3458376.54309     -2273.173          34.200  
R03  19215570.247 2 -17330401.90101       177.414          44.700  
R04  21395027.267 3 -15324942.53002      3684.772          38.100  
E01  28376142.530 5         0.00000      -287.200          27.400    28374020.304 3         0.00000      -213.300          27.600  
E03  24999654.668 5         0.00000     -1266.200          27.100    24997532.443 3         0.00000      -946.792          25.400  
E07  27096000.210 4    -44366.09409      3054.511          32.000    27093880.707 3         0.00000      2281.145          24.400  
E08  22091773.698 2   -638113.88502      1521.587          42.900    22089642.468 2  -4359910.67909      1134.810          31.500  
E13  23785989.582 4    -32515.93307      1136.764          34.200    23783860.795 4         0.00000       847.350          20.600  
E15  23998652.802 4     40280.65308     -1000.150          33.100    23996530.856 3         0.00000      -746.278          25.500  
E26  26685969.861 4    -30660.90208      2269.851          32.800           0.000 0         0.00000         0.000           0.000  
> 2020 06 25 00 35 51.4409533  0 24
G10  21677949.183 3   -484572.97502      1920.752          37.700    21675605.968 2  -4969217.95709      1434.524          31.400  
G13  24132147.666 3     78875.15502     -2254.702          35.400           0.000 0         0.00000         0.000           0.000  
G15  21972226.933 4     99010.66009     -1476.584          33.500           0.000 0         0.00000         0.000           0.000  
G16  23228315.663 4    279887.66709      -815.969          35.100           0.000 0         0.00000         0.000           0.000  
G18  20702597.183 2    971139.98701      -724.837          41.800           0.000 0         0.00000         0.000           0.000  
G20  20156974.594 3  -2355013.08002       217.105          38.300           0.000 0         0.00000         0.000           0.000  
G21  21492920.546 3  -1644103.78001      1025.746          40.200           0.000 0         0.00000         0.000           0.000  
G26  23616196.450 5         0.00000     -2326.096          25.700    23613843.393 3         0.00000     -1735.150          26.300  
G27  23193046.888 4    -75936.24009      3016.738          29.700           0.000 0         0.00000         0.000           0.000  
G29  23192646.371 5         0.00000     -3445.527          27.600           0.000 0         0.00000         0.000           0.000  
G32  25281971.969 4         0.00000      3595.244          28.600           0.000 0         0.00000         0.000           0.000  
R02  21375908.878 4   7738239.48603     -3444.925          34.700  
R18  19529613.649 3 -12766802.51602       909.307          37.000  
R09  24294362.936 5         0.00000     -1457.585          27.800  
R17  20891506.609 3   3460648.50602     -2271.373          36.300  
R03  19215535.765 2 -17330580.24801       178.515          44.100  
R04  21394323.604 3 -15328628.71902      3687.312          35.500  
E01  28376208.771 5         0.00000      -283.200          27.500    28374073.632 3         0.00000      -212.865          25.100  
E03  24999899.041 4      8705.22809     -1266.881          30.100    24997775.001 3         0.00000      -946.742          24.300  
E07  27095418.629 4    -47422.48008      3057.179          33.200    27093304.501 3         0.00000      2284.650          22.900  
E08  22091479.278 2   -639636.59103      1523.073          42.300    22089352.864 2  -4361047.67209      1137.055          30.000  
E13  23785765.311 4    -33654.27009      1137.869          29.900           0.000 0         0.00000         0.000           0.000  
E15  23998836.518 4     41279.05508      -998.494          32.300    23996723.925 3         0.00000      -745.205          25.400  
E26  26685531.582 4    -32931.61508      2270.187          32.700           0.000 0         0.00000         0.000           0.000  
> 2020 06 25 00 35 52.4409533  0 26
G10  21677581.891 3   -486496.55201      1926.820          39.700    21675240.211 2         0.00000      1437.861          29.800  
G13  24132574.568 4     81128.31709     -2251.795          32.200           0.000 0         0.00000         0.000           0.000  
G15  21972510.254 4    100485.71509     -1473.044          34.900           0.000 0         0.00000         0.000           0.000  
G16  23228479.974 4    280701.85809      -811.935          34.300           0.000 0         0.00000         0.000           0.000  
G18  20702736.296 2    971862.98801      -720.796          41.800           0.000 0         0.00000         0.000           0.000  
G20  20156933.830 3  -2355232.26402       221.717          37.800           0.000 0         0.00000         0.000           0.000  
G21  21492723.009 3  -1645131.14702      1029.295          38.300           0.000 0         0.00000         0.000           0.000  
G26  23616614.069 5         0.00000     -2321.070          25.700           0.000 0         0.00000         0.000           0.000  
G27  23192479.686 4    -78954.73909      3020.012          30.100    23190128.374 4         0.00000      2256.950          20.700  
G29  23193319.391 4   3934571.97209     -3436.192          31.000           0.000 0         0.00000         0.000           0.000  
G32  25281314.794 5         0.00000      3604.089          27.800           0.000 0         0.00000         0.000           0.000  
R02  21376548.603 4   7741683.19909     -3442.279          33.500  
R18  19529445.708 4 -12767713.56303       913.034          35.700  
R09  24294599.212 5         0.00000     -1455.345          27.800  
R19  21911310.596 6         0.00000      3279.200          22.000  
R17  20891936.792 3   3462917.15602     -2265.414          36.500  
R03  19215505.472 2 -17330760.94301       183.299          43.500  
R04  21393648.211 3 -15332319.42302      3695.167          37.300  
E01  28376258.260 4      1111.29009      -283.081          29.200    28374128.216 3         0.00000      -211.200          23.000  
E03  25000137.970 4      9970.77009     -1263.710          30.700    24998017.210 3         0.00000      -948.450          22.300  
E07  27094840.050 4    -50484.02809      3065.687          29.800           0.000 0         0.00000         0.000           0.000  
E08  22091190.023 3   -641162.97503      1529.927          40.600    22089063.888 2  -4362187.59209      1142.827          29.700  
E13  23785561.214 4         0.00000      1141.900          29.300           0.000 0         0.00000         0.000           0.000  
E15  23999034.753 4     42274.84707      -992.967          34.000    23996908.618 3         0.00000      -741.139          23.300  
E26  26685104.400 4    -35203.96809      2274.298          31.500           0.000 0         0.00000         0.000           0.000  
E27  28456450.945 6         0.00000     -2557.650          21.000           0.000 0         0.00000         0.000           0.000  
> 2020 06 25 00 35 53.4409533  0 24
G10  21677219.764 2   -488424.59301      1926.779          41.500    21674873.338 2  -4972093.17205      1438.954          32.100  
G13  24132995.188 4         0.00000     -2257.029          28.800           0.000 0         0.00000         0.000           0.000  
G15  21972788.481 3    101960.07509     -1478.176          39.100           0.000 0         0.00000         0.000           0.000  
G16  23228637.933 4    281513.35409      -813.462          29.200           0.000 0         0.00000         0.000           0.000  
G18  20702875.409 2    972584.73701      -725.139          42.800           0.000 0         0.00000         0.000           0.000  
G20  20156886.435 3  -2355453.52902       218.565          38.800           0.000 0         0.00000         0.000           0.000  
G21  21492527.218 3  -1646158.95501      1023.742          40.300           0.000 0         0.00000         0.000           0.000  
G26  23617076.639 4    524836.53709     -2316.286          33.700    23614728.049 4         0.00000     -1731.600          20.600  
G27  23191919.674 5         0.00000      3015.309          27.100           0.000 0         0.00000         0.000           0.000  
G29  23193970.563 3   3938005.23909     -3431.987          36.100           0.000 0         0.00000         0.000           0.000  
R02  21377198.589 4   7745127.63709     -3449.646          35.200  
R18  19529267.367 3 -12768625.11502       907.762          37.600  
R09  24294885.814 5         0.00000     -1464.667          27.300  
R17  20892368.231 3   3465181.08502     -2264.664          37.700  
R03  19215468.896 2 -17330944.44701       181.430          43.700  
R04  21392953.902 3 -15336018.30709      3699.725          35.800  
E01  28376311.587 4      1396.19208      -290.019          31.800    28374184.895 3         0.00000      -217.750          24.000  
E03  25000382.273 4     11235.34909     -1268.141          30.800    24998257.674 3         0.00000      -947.406          26.200  
E07  27094256.375 4    -53554.40509      3072.783          31.400    27092131.078 3         0.00000      2295.050          23.000  
E08  22090899.163 3   -642695.09303      1532.151          40.300    22088772.470 2  -4363331.65305      1142.905          32.100  
E13  23785334.849 4         0.00000      1136.950          34.700    23783214.997 4         0.00000       849.400          21.300  
E15  23999222.098 3     43267.38105      -994.114          36.000    23997100.431 3         0.00000      -742.888          25.800  
E26  26684669.401 5         0.00000      2271.750          27.100    26682554.365 4         0.00000      1689.750          20.200  
E27  28456922.519 5         0.00000     -2548.300          26.700           0.000 0         0.00000         0.000           0.000  
> 2020 06 25 00 35 54.4409533  0 24
G10  21676852.192 3   -490352.95001      1931.698          39.200    21674505.138 2  -4973533.19409      1442.504          30.500  
G13  24133432.002 4         0.00000     -2264.528          28.500           0.000 0         0.00000         0.000           0.000  
G15  21973069.918 3    103440.45302     -1479.408          36.500           0.000 0         0.00000         0.000           0.000  
G16  23228799.871 4    282331.08709      -817.775          31.100           0.000 0         0.00000         0.000           0.000  
G18  20703010.892 2    973311.18001      -725.664          41.300           0.000 0         0.00000         0.000           0.000  
G20  20156846.300 3  -2355671.53702       219.554          37.900           0.000 0         0.00000         0.000           0.000  
G21  21492332.962 3  -1647180.77001      1022.124          39.900           0.000 0         0.00000         0.000           0.000  
G26  23617510.451 3    527153.04902     -2312.266          39.100    23615165.421 3         0.00000     -1726.594          25.600  
G27  23191338.093 5         0.00000      3009.851          25.800    23188979.591 4         0.00000      2247.450          21.200  
G29  23194621.735 3   3941433.13402     -3422.146          36.800           0.000 0         0.00000         0.000           0.000  
G32  25279930.643 6         0.00000      3617.850          20.100           0.000 0         0.00000         0.000           0.000  
R02  21377844.038 3   7748582.38102     -3455.214          36.800  
R18  19529103.125 3 -12769530.90602       906.351          38.500  
R09  24295150.499 5         0.00000     -1455.750          24.800  
R19  21910083.566 6         0.00000      3278.000          21.100  
R17  20892781.312 3   3467444.18502     -2259.535          36.300  
R03  19215431.413 2 -17331125.96201       183.786          42.500  
R04  21392269.435 4 -15339721.43309      3709.210          33.900  
E01  28376363.450 4      1690.49509      -295.818          29.200           0.000 0         0.00000         0.000           0.000  
E03  25000620.922 4     12505.46709     -1269.922          33.200    24998496.881 3         0.00000      -948.026          24.400  
E07  27093664.883 4    -56631.43209      3083.024          31.100    27091548.590 3   -542653.36109      2303.025          28.800  
E08  22090609.000 3   -644229.55004      1538.452          39.200    22088480.772 2  -4364477.56209      1149.113          30.600  
E13  23785119.583 4    -37047.72508      1133.899          33.500           0.000 0         0.00000         0.000           0.000  
E15  23999413.074 4     44261.98108      -992.505          33.600    23997286.939 3         0.00000      -740.726          25.200  
> 2020 06 25 00 35 55.4409533  0 25
G10  21676483.504 3   -492286.28401      1932.483          39.800    21674139.102 2  -4974976.96205      1443.051          32.400  
G13  24133868.188 4     87912.07809     -2277.273          29.800           0.000 0         0.00000         0.000           0.000  
G15  21973353.868 4    104922.31203     -1487.399          33.500           0.000 0         0.00000         0.000           0.000  
G16  23228941.916 3    283149.55409      -821.786          37.500           0.000 0         0.00000         0.000           0.000  
G18  20703150.913 2    974038.56901      -732.328          42.700           0.000 0         0.00000         0.000           0.000  
G20  20156799.533 3  -2355890.46102       215.296          38.100           0.000 0         0.00000         0.000           0.000  
G21  21492143.801 3  -1648200.55001      1014.186          39.500           0.000 0         0.00000         0.000           0.000  
G26  23617943.915 3    529463.08702     -2310.118          38.600    23615604.050 3         0.00000     -1724.100          26.900  
G27  23190733.966 5         0.00000      3000.250          23.900           0.000 0         0.00000         0.000           0.000  
G29  23195273.466 4   3944850.91703     -3415.808          34.100           0.000 0         0.00000         0.000           0.000  
G32  25279270.536 6         0.00000      3623.750          21.300           0.000 0         0.00000         0.000           0.000  
R02  21378499.956 3   7752041.86102     -3467.209          38.200  
R18  19528930.438 3 -12770434.89102       898.662          38.200  
R17  20893205.841 3   3469702.36502     -2259.257          37.700  
R03  19215405.656 3 -17331309.81801       181.081          41.900  
R04  21391564.655 4 -15343435.62609      3716.470          34.600  
E01  28376432.413 6         0.00000      -304.000          22.600           0.000 0         0.00000         0.000           0.000  
E03  25000870.041 4     13777.67209     -1277.391          31.000    24998737.066 3         0.00000      -954.321          23.700  
E07  27093081.766 4    -59720.53108      3092.390          33.000    27090959.191 3         0.00000      2309.200          27.700  
E08  22090313.114 3   -645770.81303      1541.565          39.900    22088186.631 2  -4365628.42709      1149.485          30.200  
E13  23784905.574 4    -38179.73208      1126.894          33.600    23782779.439 3         0.00000       844.750          23.200  
E15  23999598.604 4     45254.20008      -994.917          33.500    23997477.286 3         0.00000      -743.643          23.700  
E21  27658033.124 6         0.00000     -2049.200          22.900           0.000 0         0.00000         0.000           0.000  
E26  26683792.214 6         0.00000      2257.050          20.300           0.000 0         0.00000         0.000           0.000  
E27  28457890.239 6         0.00000     -2530.400          22.000           0.000 0         0.00000         0.000           0.000  
> 2020 06 25 00 35 56.4409533  0 24
G10  21676114.118 3   -494218.77901      1935.076          39.800    21673769.437 2  -4976420.03605      1445.033          32.000  
G13  24134289.366 4     90197.13309     -2288.574          34.400           0.000 0         0.00000         0.000           0.000  
G15  21973640.749 4    106414.68209     -1494.255          30.400           0.000 0         0.00000         0.000           0.000  
G16  23229097.851 3    283974.76509      -825.464          35.600           0.000 0         0.00000         0.000           0.000  
G18  20703289.398 2    974775.20701      -737.386          42.100           0.000 0         0.00000         0.000           0.000  
G20  20156760.863 3  -2356102.69902       212.504          37.000           0.000 0         0.00000         0.000           0.000  
G21  21491943.543 3  -1649209.86301      1007.969          41.000           0.000 0         0.00000         0.000           0.000  
G26  23618386.103 3    531771.86302     -2305.543          39.000    23616042.051 3         0.00000     -1721.692          28.600  
G29  23195923.103 4   3948262.61209     -3407.020          30.800           0.000 0         0.00000         0.000           0.000  
G32  25278554.658 5         0.00000      3645.200          26.300           0.000 0         0.00000         0.000           0.000  
R02  21379136.401 3   7755516.53202     -3477.997          37.700  
R18  19528765.498 3 -12771328.45002       892.366          36.200  
R09  24295775.007 6         0.00000     -1441.250          21.800  
R17  20893616.829 3   3471962.07009     -2257.385          36.600  
R03  19215368.173 2 -17331488.74401       179.984          42.300  
R04  21390869.718 3 -15347154.58809      3725.352          36.100  
E03  25001108.969 5         0.00000     -1285.100          28.000    24998982.277 3         0.00000      -959.087          24.800  
E07  27092489.994 4    -62817.76809      3102.948          33.500    27090371.049 2   -547273.01909      2314.302          30.100  
E08  22090021.975 3   -647313.15903      1545.930          40.000    22087892.909 3  -4366780.23209      1153.431          28.900  
E13  23784689.680 3    -39300.90104      1119.919          37.500    23782565.639 3         0.00000       836.079          25.600  
E15  23999789.300 4     46251.78107      -996.554          34.600    23997665.818 3         0.00000      -744.616          24.100  
E21  27658417.168 5         0.00000     -2050.450          26.500           0.000 0         0.00000         0.000           0.000  
E26  26683379.691 5         0.00000      2248.050          24.800           0.000 0         0.00000         0.000           0.000  
G27         0.000 0         0.00000         0.000           0.000    23187841.907 3         0.00000      2228.300          22.100  
> 2020 06 25 00 35 57.4409533  0 24
G10  21675750.176 3   -496158.27209      1941.403          35.600    21673400.679 2         0.00000      1447.002          29.400  
G13  24134723.179 4     92486.88409     -2291.965          33.400           0.000 0         0.00000         0.000           0.000  
G15  21973917.789 4    107907.18709     -1493.944          30.200           0.000 0         0.00000         0.000           0.000  
G16  23229262.721 4    284799.13109      -825.156          34.900           0.000 0         0.00000         0.000           0.000  
G18  20703428.511 2    975511.89701      -737.307          42.200           0.000 0         0.00000         0.000           0.000  
G20  20156723.101 3  -2356316.94609       213.953          36.500           0.000 0         0.00000         0.000           0.000  
G21  21491754.103 3  -1650218.18201      1006.990          40.300           0.000 0         0.00000         0.000           0.000  
G26  23618824.104 3    534072.29709     -2298.928          37.200    23616484.518 3         0.00000     -1716.300          23.100  
G27  23189652.332 5         0.00000      2983.750          25.200           0.000 0         0.00000         0.000           0.000  
G29  23196560.175 4   3951662.76709     -3396.192          30.800           0.000 0         0.00000         0.000           0.000  
G32  25277854.904 4         0.00000      3656.041          28.200           0.000 0         0.00000         0.000           0.000  
R02  21379788.481 4   7758995.86303     -3481.638          35.700  
R18  19528584.435 3 -12772221.08302       891.751          36.800  
R17  20894036.262 4   3474216.09209     -2253.411          35.800  
R03  19215329.504 2 -17331671.00901       182.525          42.500  
R04  21390190.695 4 -15350886.30609      3734.921          33.500  
E03  25001352.086 4     16344.32509     -1285.441          29.700    24999226.929 3         0.00000      -959.274          23.800  
E07  27091900.596 5         0.00000      3107.650          27.700    27089781.022 3         0.00000      2318.850          23.500  
E08  22089727.555 3   -648863.28203      1552.062          41.200    22087598.210 2  -4367937.77809      1159.046          29.300  
E13  23784478.951 4    -40420.74906      1118.699          35.700    23782354.911 3         0.00000       835.914          23.200  
E15  23999979.019 4     47246.50608      -994.316          32.900    23997854.699 3         0.00000      -740.897          24.800  
E21  27658809.868 5         0.00000     -2050.800          26.100           0.000 0         0.00000         0.000           0.000  
E26  26682953.975 5         0.00000      2254.950          26.200           0.000 0         0.00000         0.000           0.000  
E27  28458853.770 6         0.00000     -2519.750          22.200           0.000 0         0.00000         0.000           0.000  
> 2020 06 25 00 35 58.4409533  0 24
G10  21675380.860 3   -498098.21009      1936.324          35.800    21673033.806 3         0.00000      1447.330          27.600  
G13  24135162.087 4     94783.36509     -2300.279          31.400           0.000 0         0.00000         0.000           0.000  
G15  21974204.391 4    109404.24409     -1498.955          31.400           0.000 0         0.00000         0.000           0.000  
G16  23229416.213 4         0.00000      -829.700          34.700           0.000 0         0.00000         0.000           0.000  
G18  20703570.905 3    976251.36101      -741.688          40.800           0.000 0         0.00000         0.000           0.000  
G20  20156682.896 3  -2356529.18509       209.885          36.400           0.000 0         0.00000         0.000           0.000  
G21  21491565.780 3  -1651222.47201      1001.176          39.400           0.000 0         0.00000         0.000           0.000  
G26  23619253.728 3    536371.86909     -2300.811          35.300    23616920.425 3         0.00000     -1713.800          22.100  
G27  23189062.654 5         0.00000      2982.650          23.600    23186703.594 4         0.00000      2227.150          21.300  
G29  23197217.001 4   3955057.36209     -3394.049          33.000           0.000 0         0.00000         0.000           0.000  
G32  25277171.065 5         0.00000      3659.922          27.800           0.000 0         0.00000         0.000           0.000  
R02  21380443.841 4   7762481.28903     -3489.060          35.800  
R18  19528429.756 3 -12773109.90702       886.158          36.100  
R09  24296254.400 6         0.00000     -1492.400          22.700  
R17  20894459.255 4   3476468.26003     -2252.302          35.800  
R03  19215298.373 2 -17331852.44301       179.844          42.300  
R04  21389480.750 4         0.00000      3735.350          34.700  
E03  25001597.366 4     17631.33309     -1289.391          31.600    24999472.697 3         0.00000      -963.333          23.600  
E07  27091298.284 4    -69046.15409      3131.432          29.500    27089185.342 3         0.00000      2326.850          25.400  
E08  22089431.111 3   -650416.16504      1553.045          39.400    22087304.069 3         0.00000      1159.445          28.100  
E13  23784264.872 4    -41536.54509      1112.843          33.200           0.000 0         0.00000         0.000           0.000  
E15  24000172.716 4     48241.54409      -996.300          31.800    23998044.488 3         0.00000      -743.917          24.300  
E21  27659215.202 6         0.00000     -2048.700          23.200           0.000 0         0.00000         0.000           0.000  
E26  26682543.267 5         0.00000      2242.650          25.200           0.000 0         0.00000         0.000           0.000  
> 2020 06 25 00 35 59.4409533  0 23
G10  21675007.006 3         0.00000      1940.350          38.900    21672664.140 2         0.00000      1449.600          30.200  
G15  21974487.992 4    110903.56309     -1499.274          33.700           0.000 0         0.00000         0.000           0.000  
G16  23229567.890 4    286438.67209      -830.906          32.600           0.000 0         0.00000         0.000           0.000  
G18  20703709.739 3    976992.99701      -741.329          41.100           0.000 0         0.00000         0.000           0.000  
G20  20156637.944 3  -2356739.93309       210.651          36.600           0.000 0         0.00000         0.000           0.000  
G21  21491372.711 3  -1652223.35509      1000.303          35.600           0.000 0         0.00000         0.000           0.000  
G26  23619699.546 3    538671.94109     -2297.822          39.300    23617355.773 3         0.00000     -1719.100          24.400  
G27  23188490.357 5         0.00000      2973.650          23.900           0.000 0         0.00000         0.000           0.000  
G29  23197861.263 3   3958448.67209     -3388.656          35.400           0.000 0         0.00000         0.000           0.000  
G32  25276485.760 5         0.00000      3663.950          24.300           0.000 0         0.00000         0.000           0.000  
R02  21381107.298 3   7765971.48002     -3490.731          36.300  
R18  19528269.703 3 -12773995.57402       885.816          37.200  
R17  20894890.066 4   3478718.75603     -2248.950          35.400  
R03  19215265.357 2 -17332032.83201       181.036          42.200  
R04  21388778.972 3 -15358376.41109      3739.764          35.000  
E01  28376668.340 5         0.00000      -329.350          23.800           0.000 0         0.00000         0.000           0.000  
E03  25001844.042 4     18920.95108     -1289.298          32.700    24999714.697 3         0.00000      -967.400          23.100  
E07  27090711.887 4         0.00000      3122.500          33.800    27088591.755 2         0.00000      2332.640          30.800  
E08  22089133.410 3   -651971.09004      1556.476          38.800    22087007.555 2  -4370258.53609      1162.369          30.100  
E13  23784052.677 4    -42648.63109      1112.713          29.900    23781931.289 4         0.00000       834.800          22.100  
E15  24000356.502 4     49236.43709      -993.919          31.900    23998233.090 3         0.00000      -742.297          23.900  
E21  27659592.964 5         0.00000     -2054.050          24.200           0.000 0         0.00000         0.000           0.000  
E26  26682116.644 6         0.00000      2234.400          21.600           0.000 0         0.00000         0.000           0.000  
> 2020 06 25 00 36 00.4409533  0 24
G10  21674637.341 3   -501964.02309      1930.147          38.700    21672293.288 2         0.00000      1440.805          29.800  
G15  21974775.781 4    112406.38603     -1506.108          34.900           0.000 0         0.00000         0.000           0.000  
G16  23229733.388 3    287273.82302      -839.577          36.900           0.000 0         0.00000         0.000           0.000  
G18  20703853.598 2    977737.36301      -748.185          42.100           0.000 0         0.00000         0.000           0.000  
G20  20156604.998 3  -2356946.97202       203.547          38.800           0.000 0         0.00000         0.000           0.000  
G21  21491183.551 3  -1653219.71901       992.399          39.600           0.000 0         0.00000         0.000           0.000  
G26  23620139.013 4    540972.77009     -2304.865          34.200           0.000 0         0.00000         0.000           0.000  
G27  23187930.065 5         0.00000      2960.650          26.600           0.000 0         0.00000         0.000           0.000  
G29  23198508.248 3   3961838.93602     -3392.006          37.000           0.000 0         0.00000         0.000           0.000  
G32  25275780.073 6         0.00000      3651.300          23.100           0.000 0         0.00000         0.000           0.000  
R02  21381753.654 3   7769466.15202     -3499.165          37.600  
R18  19528095.759 3 -12774877.80202       878.059          37.300  
R09  24296838.633 6         0.00000     -1506.150          21.000  
R17  20895320.249 4   3480969.47609     -2253.652          35.000  
R03  19215236.529 2 -17332211.04801       174.346          42.900  
R04  21388072.029 4 -15362114.42709      3736.410          34.900  
E01  28376737.303 5         0.00000      -336.400          23.800           0.000 0         0.00000         0.000           0.000  
E03  25002087.508 4     20213.47306     -1295.712          35.700    24999962.002 3         0.00000      -969.300          22.700  
E07  27090123.396 4    -75293.45107      3120.758          34.300    27087998.727 2   -556543.35209      2330.008          31.100  
E08  22088838.711 3   -653526.05303      1552.208          40.300    22086710.761 2  -4371419.61309      1157.248          30.600  
E13  23783840.413 4    -43756.48408      1104.400          32.300    23781715.744 3         0.00000       824.000          24.700  
E15  24000548.943 4     50232.69807      -999.077          33.800    23998424.344 3         0.00000      -747.450          23.000  
E21  27659981.475 5         0.00000     -2061.800          25.900    27657861.344 3         0.00000     -1538.100          25.600  
E26  26681685.554 5         0.00000      2226.250          24.300           0.000 0         0.00000         0.000           0.000  
> 2020 06 25 00 36 01.4409533  0 24
G10  21674273.120 2         0.00000      1930.000          42.000    21671926.066 2  -4983635.23809      1439.815          32.000  
G13  24136511.756 6         0.00000     -2302.200          22.500           0.000 0         0.00000         0.000           0.000  
G15  21975061.197 3    113914.79702     -1509.396          36.200           0.000 0         0.00000         0.000           0.000  
G16  23229897.350 4    288114.21509      -842.498          34.400           0.000 0         0.00000         0.000           0.000  
G18  20703994.526 2    978487.74401      -751.370          41.800           0.000 0         0.00000         0.000           0.000  
G20  20156561.512 3  -2357148.03002       199.716          37.900           0.000 0         0.00000         0.000           0.000  
G21  21491003.046 3  -1654209.75509       988.304          36.300           0.000 0         0.00000         0.000           0.000  
G26  23620574.012 3    543279.18609     -2308.120          38.200    23618232.053 3         0.00000     -1724.900          25.700  
G27  23187355.883 5         0.00000      2956.627          27.500           0.000 0         0.00000         0.000           0.000  
G29  23199154.534 3   3965232.09702     -3394.044          36.600           0.000 0         0.00000         0.000           0.000  
G32  25275067.755 6         0.00000      3663.250          22.000           0.000 0         0.00000         0.000           0.000  
R02  21382403.570 3   7772967.82402     -3502.800          37.100  
R18  19527953.365 4 -12775753.25103       874.180          35.100  
R09  24297084.472 5         0.00000     -1516.700          26.000  
R17  20895753.503 4   3483224.78609     -2256.090          31.300  
R03  19215204.490 2 -17332382.98201       170.470          42.400  
R04  21387384.909 3 -15365848.90409      3733.041          38.700  
E01  28376793.632 5         0.00000      -343.900          24.500           0.000 0         0.00000         0.000           0.000  
E03  25002336.627 3     21512.12905     -1299.077          36.400           0.000 0         0.00000         0.000           0.000  
E07  27089522.340 4    -78411.92209      3117.343          28.800    27087404.303 3         0.00000      2326.602          25.800  
E08  22088547.013 3   -655076.32303      1549.364          40.600    22086416.062 2  -4372577.25109      1154.703          31.100  
E13  23783632.336 4    -44857.28109      1099.215          29.700    23781505.643 3         0.00000       820.685          24.600  
E15  24000738.452 4     51234.02908     -1001.921          33.300           0.000 0         0.00000         0.000           0.000  
E21  27660381.434 5         0.00000     -2070.100          25.600    27658253.485 3         0.00000     -1542.866          27.500  
> 2020 06 25 00 36 02.4409533  0 24
G10  21673909.737 2   -505813.13809      1930.614          42.200    21671558.494 2  -4985076.27105      1441.594          32.800  
G15  21975348.358 3    115423.71602     -1507.576          38.100           0.000 0         0.00000         0.000           0.000  
G16  23230053.565 3    288959.15509      -843.982          35.700           0.000 0         0.00000         0.000           0.000  
G18  20704142.295 2    979238.74001      -749.507          42.800           0.000 0         0.00000         0.000           0.000  
G20  20156526.123 3  -2357347.57501       200.733          39.200           0.000 0         0.00000         0.000           0.000  
G21  21490804.951 3  -1655198.55309       990.144          38.300           0.000 0         0.00000         0.000           0.000  
G26  23621011.733 3    545587.78609     -2307.910          38.600    23618670.961 3         0.00000     -1723.050          26.600  
G27  23186786.029 4         0.00000      2958.089          28.800           0.000 0         0.00000         0.000           0.000  
G29  23199799.424 4   3968626.11703     -3393.398          34.800           0.000 0         0.00000         0.000           0.000  
G32  25274370.375 6         0.00000      3656.650          21.800           0.000 0         0.00000         0.000           0.000  
R02  21383076.939 3   7776469.85002     -3500.176          36.700  
R18  19527767.486 4 -12776627.64403       875.891          35.400  
R09  24297366.328 4  -2102886.31507     -1516.121          30.500  
R17  20896148.297 4   3485480.36209     -2254.446          33.700  
R03  19215167.635 2 -17332553.21501       171.211          42.800  
R04  21386679.502 3 -15369581.30309      3733.573          36.300  
E01  28376859.594 5         0.00000      -342.450          24.400           0.000 0         0.00000         0.000           0.000  
E03  25002584.909 3     22811.22705     -1297.503          35.800    25000453.051 4         0.00000      -965.300          22.100  
E07  27088931.127 4    -81528.09309      3117.898          33.600    27086812.461 2   -561198.80109      2327.926          29.200  
E08  22088245.403 3   -656625.24004      1549.974          39.400    22086122.619 2  -4373733.95409      1154.763          30.800  
E13  23783423.701 4    -45956.54209      1101.983          30.500    23781299.033 3         0.00000       817.514          25.600  
E15  24000928.520 4     52235.74706     -1000.087          34.900           0.000 0         0.00000         0.000           0.000  
E21  27660766.386 5         0.00000     -2064.300          23.900    27658645.906 3         0.00000     -1542.774          28.100  
E26  26680830.284 6         0.00000      2230.400          22.800           0.000 0         0.00000         0.000           0.000  
> 2020 06 25 00 36 03.4409533  0 25
G10  21673540.420 3   -507745.51309      1932.982          39.300    21671190.644 2         0.00000      1440.949          28.900  
G15  21975635.239 3    116929.12902     -1504.198          37.400           0.000 0         0.00000         0.000           0.000  
G16  23230213.339 3    289800.31409      -839.847          35.300           0.000 0         0.00000         0.000           0.000  
G18  20704282.595 2    979985.81001      -745.681          41.300           0.000 0         0.00000         0.000           0.000  
G20  20156488.989 3  -2357550.64801       204.286          39.600           0.000 0         0.00000         0.000           0.000  
G21  21490618.164 3  -1656191.67909       994.961          38.800           0.000 0         0.00000         0.000           0.000  
G26  23621459.017 4    547894.59509     -2303.802          34.600           0.000 0         0.00000         0.000           0.000  
G27  23186221.480 4    -19062.98409      2965.570          30.900           0.000 0         0.00000         0.000           0.000  
G29  23200447.246 3   3972018.82802     -3393.150          35.900           0.000 0         0.00000         0.000           0.000  
G32  25273682.976 5         0.00000      3662.099          27.300           0.000 0         0.00000         0.000           0.000  
R02  21383711.289 3   7779967.32002     -3495.457          36.600  
R18  19527604.431 4 -12777506.27909       880.300          32.200  
R09  24297680.432 4  -2101371.69409     -1512.047          33.700  
R19  21904574.602 6         0.00000      3220.500          22.200  
R17  20896590.834 4   3487732.26709     -2251.419          31.900  
R03  19215135.248 2 -17332726.06101       173.589          43.000  
R04  21385987.915 3         0.00000      3733.200          38.000  
E01  28376932.117 4       297.75809      -337.844          28.800           0.000 0         0.00000         0.000           0.000  
E03  25002830.399 4     24106.38109     -1293.318          33.100           0.000 0         0.00000         0.000           0.000  
E07  27088341.449 4    -84646.25809      3117.912          30.900    27086219.224 3         0.00000      2328.410          27.600  
E08  22087953.426 3   -658176.18203      1551.351          40.400    22085826.105 2  -4374892.14605      1157.484          31.500  
E13  23783219.534 4    -47061.57609      1107.349          30.600    23781089.770 3         0.00000       827.150          26.400  
E15  24001120.403 3     53234.20105      -997.203          35.800           0.000 0         0.00000         0.000           0.000  
E21  27661169.835 5         0.00000     -2053.550          24.900    27659041.956 3         0.00000     -1539.663          26.400  
E26  26680409.035 5         0.00000      2232.200          27.700    26678281.086 3         0.00000      1665.900          25.900  
> 2020 06 25 00 36 04.4409533  0 25
G10  21673171.383 3   -509677.11209      1927.865          39.500    21670822.793 2         0.00000      1439.170          29.700  
G13  24137822.128 5         0.00000     -2307.000          24.200           0.000 0         0.00000         0.000           0.000  
G15  21975921.563 3    118434.46802     -1508.359          35.800           0.000 0         0.00000         0.000           0.000  
G16  23230372.555 4    290640.27109      -842.420          34.100           0.000 0         0.00000         0.000           0.000  
G18  20704421.428 3    980732.33501      -749.505          40.400           0.000 0         0.00000         0.000           0.000  
G20  20156447.597 3  -2357753.82601       200.040          39.400           0.000 0         0.00000         0.000           0.000  
G21  21490431.097 3  -1657186.33909       992.266          38.600           0.000 0         0.00000         0.000           0.000  
G26  23621903.579 4    550196.67909     -2309.117          32.100    23619552.336 3         0.00000     -1727.650          22.500  
G27  23185660.281 4    -22029.26809      2965.190          30.300           0.000 0         0.00000         0.000           0.000  
G29  23201091.229 3   3975414.74602     -3401.384          35.900           0.000 0         0.00000         0.000           0.000  
G32  25273002.767 5         0.00000      3655.009          27.700           0.000 0         0.00000         0.000           0.000  
R02  21384377.120 3   7783462.89802     -3497.866          37.100  
R18  19527450.939 4 -12778385.18709       876.227          32.400  
R09  24297960.194 5         0.00000     -1514.444          27.400  
R17  20896982.906 4   3489988.15209     -2260.486          34.200  
R03  19215100.766 2 -17332897.83001       167.787          43.000  
R04  21385298.701 3 -15377051.94502      3725.859          36.800  
E01  28376980.699 5         0.00000      -336.250          26.800           0.000 0         0.00000         0.000           0.000  
E03  25003078.331 4     25401.21409     -1297.399          31.600    25000949.823 3         0.00000      -968.100          22.500  
E07  27087746.327 4    -87761.55109      3111.251          29.500    27085625.916 3         0.00000      2321.987          25.200  
E08  22087659.006 3   -659725.08503      1544.574          40.700    22085532.313 2  -4376048.75509      1151.505          29.800  
E13  23783004.826 4    -48167.74109      1104.888          28.800    23780878.413 3         0.00000       824.022          25.000  
E15  24001307.120 4     54233.21906     -1002.060          35.700           0.000 0         0.00000         0.000           0.000  
E21  27661558.975 5         0.00000     -2068.950          25.200    27659431.375 3         0.00000     -1543.568          26.700  
E26  26679977.038 5         0.00000      2231.350          25.500           0.000 0         0.00000         0.000           0.000  
> 2020 06 25 00 36 05.4409533  0 25
G10  21672804.161 3   -511604.67309      1927.967          39.400    21670455.850 2  -4989398.12509      1438.553          31.400  
G13  24138255.661 5         0.00000     -2298.400          24.300           0.000 0         0.00000         0.000           0.000  
G15  21976211.166 3    119941.98302     -1505.792          37.400           0.000 0         0.00000         0.000           0.000  
G16  23230534.423 4    291482.44509      -838.305          31.300           0.000 0         0.00000         0.000           0.000  
G18  20704564.101 2    981480.58801      -746.283          41.300           0.000 0         0.00000         0.000           0.000  
G20  20156411.300 3  -2357954.70401       202.276          39.300           0.000 0         0.00000         0.000           0.000  
G21  21490235.934 3  -1658180.84709       997.176          38.500           0.000 0         0.00000         0.000           0.000  
G26  23622332.016 3    552509.49609     -2312.163          38.300    23619990.337 3         0.00000     -1729.150          28.200  
G27  23185110.808 5         0.00000      2970.084          26.600           0.000 0         0.00000         0.000           0.000  
G29  23201739.958 3   3978818.10202     -3405.225          37.300           0.000 0         0.00000         0.000           0.000  
G32  25272276.628 5         0.00000      3647.756          27.400           0.000 0         0.00000         0.000           0.000  
R02  21385030.945 3   7786958.24802     -3492.211          38.700  
R18  19527291.723 4 -12779262.91103       879.912          33.100  
R09  24298251.891 4  -2098347.72409     -1507.814          30.300  
R17  20897423.000 4   3492250.22009     -2262.455          34.900  
R03  19215073.753 2 -17333065.56601       168.338          43.400  
R04  21384589.035 4 -15380777.79109      3724.823          34.800  
E01  28377054.478 4       971.19009      -332.731          29.700           0.000 0         0.00000         0.000           0.000  
E03  25003328.358 5         0.00000     -1293.150          28.200    25001198.035 3         0.00000      -965.850          25.700  
E07  27087153.648 3    -90869.64904      3106.486          37.300    27085033.237 2   -568174.65405      2319.140          34.100  
E08  22087366.122 3   -661268.12903      1542.434          41.500    22085238.801 2  -4377201.07705      1151.889          31.800  
E13  23782794.098 4    -49273.64909      1108.849          29.200    23780669.150 3         0.00000       828.233          27.500  
E15  24001503.191 4     55235.77906     -1001.931          35.400           0.000 0         0.00000         0.000           0.000  
E21  27661952.024 5         0.00000     -2061.600          25.500    27659825.889 3         0.00000     -1541.260          26.900  
E26  26679556.697 5         0.00000      2242.000          24.700           0.000 0         0.00000         0.000           0.000  
> 2020 06 25 00 36 06.4409533  0 25
G10  21672435.682 3   -513528.63409      1921.260          39.300    21670089.465 2  -4990834.90805      1434.800          32.400  
G13  24138688.217 6         0.00000     -2296.950          22.800           0.000 0         0.00000         0.000           0.000  
G15  21976495.675 4    121449.60709     -1510.125          33.200           0.000 0         0.00000         0.000           0.000  
G16  23230691.196 3    292321.52509      -840.619          37.300           0.000 0         0.00000         0.000           0.000  
G18  20704708.938 2    982229.07801      -750.098          42.900           0.000 0         0.00000         0.000           0.000  
G20  20156372.003 3  -2358154.51802       198.387          38.300           0.000 0         0.00000         0.000           0.000  
G21  21490047.332 3  -1659176.71701       996.711          40.400           0.000 0         0.00000         0.000           0.000  
G26  23622774.833 3    554825.36109     -2317.418          37.700    23620430.711 2         0.00000     -1733.450          29.500  
G27  23184549.609 5         0.00000      2976.577          27.800           0.000 0         0.00000         0.000           0.000  
G29  23202393.504 4   3982230.91504     -3419.545          32.800           0.000 0         0.00000         0.000           0.000  
G32  25271589.508 5         0.00000      3632.765          27.600           0.000 0         0.00000         0.000           0.000  
R02  21385677.580 3   7790450.66602     -3492.318          37.900  
R18  19527107.937 4 -12780141.06003       876.978          35.100  
R09  24298515.948 5         0.00000     -1503.735          26.500  
R17  20897846.901 3   3494517.26202     -2272.051          37.400  
R03  19215039.621 2 -17333229.91701       161.375          43.400  
R04  21383900.450 3 -15384493.46209      3710.780          40.100  
E01  28377117.718 5         0.00000      -332.050          24.700    28374991.932 3         0.00000      -238.500          24.500  
E03  25003570.288 5         0.00000     -1298.850          27.400    25001441.152 3         0.00000      -969.491          26.500  
E07  27086564.878 3    -93968.32204      3093.535          39.200    27084443.838 1   -570488.69003      2308.934          37.600  
E08  22087074.145 2   -662804.68303      1532.062          41.800    22084944.380 2  -4378348.52705      1143.366          31.500  
E13  23782581.833 4    -50381.53509      1107.885          34.000    23780455.699 3         0.00000       827.775          27.700  
E15  24001692.979 4     56241.23606     -1008.927          35.400           0.000 0         0.00000         0.000           0.000  
E21  27662352.262 5         0.00000     -2064.700          28.600    27660219.566 3         0.00000     -1543.857          27.800  
E26  26679130.702 4     -1289.16309      2240.180          29.200           0.000 0         0.00000         0.000           0.000  
> 2020 06 25 00 36 07.4409533  0 25
G10  21672069.925 3   -515446.48209      1918.554          36.900    21669724.965 2  -4992270.71109      1436.496          30.900  
G13  24139121.750 6         0.00000     -2291.750          22.700           0.000 0         0.00000         0.000           0.000  
G15  21976783.743 4         0.00000     -1512.950          30.900           0.000 0         0.00000         0.000           0.000  
G16  23230856.693 4    293160.60509      -837.346          32.700           0.000 0         0.00000         0.000           0.000  
G18  20704851.053 2    982980.55901      -753.038          41.600           0.000 0         0.00000         0.000           0.000  
G20  20156332.775 3  -2358352.75802       197.984          37.700           0.000 0         0.00000         0.000           0.000  
G21  21489857.614 3  -1660175.14501       999.891          40.700           0.000 0         0.00000         0.000           0.000  
G26  23623209.832 3    557142.14309     -2316.177          35.300    23620870.526 2   4320282.21405     -1729.466          31.900  
G27  23183972.146 4    -30948.92509      2981.471          30.600           0.000 0         0.00000         0.000           0.000  
G29  23203038.394 4   3985655.47709     -3430.633          34.600           0.000 0         0.00000         0.000           0.000  
G32  25270907.205 5         0.00000      3627.570          25.900           0.000 0         0.00000         0.000           0.000  
R02  21386337.757 3   7793942.97202     -3493.630          39.900  
R18  19526958.354 4 -12781018.43309       876.142          35.100  
R09  24298821.816 4         0.00000     -1499.919          29.100  
R17  20898272.058 3   3496794.60609     -2281.870          38.300  
R03  19215009.048 3 -17333389.11701       157.013          40.800  
R04  21383211.236 2 -15388200.89601      3704.702          45.300  
E01  28377178.584 5         0.00000      -318.500          25.600    28375052.799 3         0.00000      -241.300          28.100  
E03  25003814.312 4         0.00000     -1301.050          34.600    25001692.993 3         0.00000      -973.504          28.500  
E07  27085978.131 3    -97057.96004      3086.733          38.300    27083855.347 2   -572795.76705      2304.183          33.500  
E08  22086778.259 4   -664332.59009      1524.693          34.000    22084654.846 2  -4379489.52909      1137.624          31.300  
E13  23782371.104 3    -51491.49404      1110.937          37.900    23780243.155 3         0.00000       829.765          25.000  
E15  24001882.419 3     57253.28604     -1015.651          37.700           0.000 0         0.00000         0.000           0.000  
E21  27662732.677 4      3751.16207     -2061.052          34.700    27660611.359 3         0.00000     -1541.081          25.700  
E26  26678702.055 4     -3533.19009      2248.053          31.500    26676578.015 4         0.00000      1677.650          21.200  
> 2020 06 25 00 36 08.4409533  0 25
G10  21671705.076 2   -517371.42609      1930.618          44.200    21669359.837 2         0.00000      1441.577          29.700  
G13  24139560.030 6         0.00000     -2291.800          22.200           0.000 0         0.00000         0.000           0.000  
G15  21977073.975 3    124482.42109     -1519.141          38.600           0.000 0         0.00000         0.000           0.000  
G16  23231012.000 3         0.00000      -814.600          37.100           0.000 0         0.00000         0.000           0.000  
G18  20704993.726 3    983732.84309      -751.127          37.700           0.000 0         0.00000         0.000           0.000  
G20  20156299.200 3  -2358552.98202       204.971          37.900           0.000 0         0.00000         0.000           0.000  
G21  21489664.824 4  -1661179.67209      1011.089          34.800           0.000 0         0.00000         0.000           0.000  
G26  23623651.951 3    559453.91709     -2304.490          38.100    23621309.713 2   4322008.65409     -1720.862          33.000  
G27  23183419.044 4    -33936.73709      2997.049          29.500    23181051.608 3         0.00000      2247.200          25.000  
G29  23203689.497 3   3989091.48709     -3439.262          36.900           0.000 0         0.00000         0.000           0.000  
G32  25270229.997 6         0.00000      3618.350          23.000           0.000 0         0.00000         0.000           0.000  
R02  21386996.677 4   7797436.63109     -3490.323          35.700  
R18  19526784.759 3 -12781895.29401       881.007          41.900  
R09  24299083.499 4  -2093848.25009     -1478.071          34.400  
R17  20898702.241 3   3499080.33109     -2289.868          38.000  
R03  19214976.311 3 -17333545.66002       158.421          39.100  
R04  21382516.019 3 -15391905.25801      3706.264          39.300  
E01  28377241.544 4         0.00000      -295.050          31.300    28375113.316 3         0.00000      -216.250          23.800  
E03  25004065.525 4         0.00000     -1303.350          35.000    25001937.925 3         0.00000      -974.419          28.100  
E07  27085390.897 3   -100143.25104      3086.009          37.600    27083268.322 3         0.00000      2306.350          26.300  
E08  22086494.658 4   -665855.32209      1521.654          33.500           0.000 0         0.00000         0.000           0.000  
E13  23782160.376 4    -52606.69407      1121.075          34.400    23780030.611 3         0.00000       837.408          26.300  
E15  24002081.212 3     58271.73805     -1019.644          36.700    23999953.263 3         0.00000      -761.300          27.300  
E21  27663124.190 4      5808.35409     -2048.212          35.400    27661001.406 3         0.00000     -1526.700          28.000  
E26  26678275.432 4     -5788.34109      2266.045          29.600    26676150.763 3         0.00000      1691.300          25.400  
> 2020 06 25 00 36 09.4409533  0 26
G10  21671337.505 3   -519308.22609      1938.917          40.600    21668990.451 2  -4995154.62609      1447.606          34.200  
G13  24140009.757 6         0.00000     -2298.800          21.900           0.000 0         0.00000         0.000           0.000  
G15  21977366.859 3    126001.06109     -1520.250          39.400           0.000 0         0.00000         0.000           0.000  
G16  23231156.488 3         0.00000      -802.800          35.600           0.000 0         0.00000         0.000           0.000  
G18  20705137.306 3    984481.78909      -748.396          36.400           0.000 0         0.00000         0.000           0.000  
G20  20156255.994 3  -2358763.65501       212.891          40.300           0.000 0         0.00000         0.000           0.000  
G21  21489475.035 2  -1662199.56309      1025.157          41.800           0.000 0         0.00000         0.000           0.000  
G26  23624093.581 3    561751.24509     -2294.962          37.800    23621748.900 2   4323724.30305     -1714.177          33.300  
G27  23182831.461 4    -36945.63109      3019.466          33.800    23180481.405 2  -3196606.54505      2255.364          31.400  
G29  23204345.136 3   3992535.82009     -3452.590          35.600           0.000 0         0.00000         0.000           0.000  
G32  25269503.579 6         0.00000      3608.850          21.600           0.000 0         0.00000         0.000           0.000  
R02  21387659.506 4   7800919.24009     -3478.908          33.900  
R18  19526609.699 3 -12782781.63601       888.562          40.800  
R09  24299354.536 4         0.00000     -1453.000          31.800  
R19  21900961.500 5         0.00000      3276.350          25.100  
R17  20899138.147 4   3501373.51909     -2298.438          35.800  
R03  19214947.833 3 -17333706.44702       159.932          38.300  
R04  21381830.365 3 -15395612.71601      3703.974          40.400  
E01  28377292.499 4       574.17709      -278.045          30.700           0.000 0         0.00000         0.000           0.000  
E03  25004313.458 4         0.00000     -1303.400          33.500    25002186.486 2         0.00000      -973.354          29.700  
E07  27084804.220 4   -103229.99409      3087.595          29.600    27082680.180 3         0.00000      2301.730          27.600  
E08  22086200.238 3   -667375.14003      1515.594          39.900    22084078.919 3         0.00000      1132.050          22.600  
E13  23781940.642 3    -53737.28903      1135.310          39.900    23779816.602 1  -2016753.57603       847.848          35.300  
E15  24002273.374 3     59291.33509     -1022.469          37.100    24000148.426 3   1813904.44909      -764.592          28.800  
E21  27663510.049 3      7845.35404     -2032.489          37.100    27661391.383 2   1961302.19205     -1517.000          33.300  
E26  26677842.248 4     -8069.17809      2289.866          35.200    26675715.485 3         0.00000      1709.800          23.600  
