     3.03           O                   M                   RINEX VERSION / TYPE
Android_Rinex                           2024-05-27 16:24:38 PGM / RUN BY / DATE
                                                            MARKER NAME
SMARTPHONE                                                  MARKER TYPE
                                                            OBSERVER / AGENCY
                                                            REC # / TYPE / VERS
                                                            ANT # / TYPE
        0.0000        0.0000        0.0000                  APPROX POSITION XYZ
        0.0000        0.0000        0.0000                  ANTENNA: DELTA H/E/N
G    8 C1C L1C D1C S1C C5Q L5Q D5Q S5Q                      SYS / # / OBS TYPES
J    8 C1C L1C D1C S1C C5Q L5Q D5Q S5Q                      SYS / # / OBS TYPES
R    4 C1C L1C D1C S1C                                      SYS / # / OBS TYPES
C    4 C2I L2I D2I S2I                                      SYS / # / OBS TYPES
E    8 C1C L1C D1C S1C C5Q L5Q D5Q S5Q                      SYS / # / OBS TYPES
  2021    07    14    20    51    04.4352190                TIME OF FIRST OBS
  2021    07    14    21    10    50.4352190                TIME OF LAST OBS
  8 R10 -7 R18 -3 R09 -2 R05  1 R19  3 R03  5 R04  6 R20  2   8 R10 -7 R18 -3 R09 -2 R05  1 R19  3 R03  5 R04  6 R20  2 GLONASS SLOT / FRQ #
    GLONASS SLOT / FRQ #
                                                            GLONASS COD/PHS/BIS#
                                                            END OF HEADER
> 2021 07 14 20 51 04.4352186  0 26
G05  22233640.568 3    332411.82402     -2897.694          35.400           0.000 0         0.00000         0.000           0.000  
G10  24278324.670 6         0.00000      3419.000          23.000    24275918.233 3         0.00000      2554.458          24.700  
G13  23397046.654 4   -112609.85903       964.542          34.800           0.000 0         0.00000         0.000           0.000  
G15  22206382.839 3   -229014.32401      1972.544          40.100           0.000 0         0.00000         0.000           0.000  
G16  23848858.478 5         0.00000      2213.100          26.400           0.000 0         0.00000         0.000           0.000  
G18  20737647.727 5         0.00000       828.200          23.700           0.000 0         0.00000         0.000           0.000  
G23  21492901.667 4   -294447.08703      2543.858          35.300           0.000 0         0.00000         0.000           0.000  
G26  22577026.737 4    -37560.20609       312.622          31.300    22574665.583 3         0.00000       233.691          26.800  
G29  20631496.011 3    117554.51802     -1048.716          38.400           0.000 0         0.00000         0.000           0.000  
J02  43310204.564 4    -19759.19107       192.597          29.800    43307843.706 3         0.00000       143.790          28.400  
R10  22512196.038 5         0.00000     -1165.200          26.800  
R18  22496834.070 3    264113.49302     -2301.320          37.500  
R09  23008660.142 5         0.00000     -3381.250          26.300  
R05  21595865.996 6         0.00000      4054.800          21.900  
R19  20192491.338 5         0.00000      -360.900          28.200  
R03  22032135.365 4    340025.17003     -2986.792          35.900  
R04  19799150.727 4    -87088.58004       724.483          32.900  
C32  24891026.402 4    280530.59403     -2450.215          35.000  
C29  21599615.193 4     -7056.29504       412.375          33.900  
E01  25749367.276 5         0.00000     -1150.400          25.800    25747446.810 3     96664.49509      -858.863          25.700  
E07  25647240.575 5         0.00000      2378.950          29.000    25645336.599 2   -201103.57209      1776.162          33.000  
E08  23761941.439 3     -9649.53703        84.994          42.100    23760046.153 4         0.00000        62.750          22.300  
E13  24542740.106 3    130108.41603     -1136.266          42.300    24540826.533 3     97148.72909      -848.756          28.000  
E21  26611268.204 5         0.00000     -2842.450          26.700    26609345.033 3         0.00000     -2122.678          24.300  
E26  23531263.137 4    -51028.13208       760.556          34.200    23529349.267 2    -63461.55709       567.980          32.000  
G25         0.000 0         0.00000         0.000           0.000    24264261.400 3         0.00000     -2703.850          22.600  
> 2021 07 14 20 51 05.4352186  0 25
G05  22234190.389 3    335307.30702     -2897.437          37.300           0.000 0         0.00000         0.000           0.000  
G10  24277661.823 5         0.00000      3419.900          24.100    24275267.374 3         0.00000      2554.767          24.900  
G13  23396869.185 4   -113576.64103       964.743          34.300           0.000 0         0.00000         0.000           0.000  
G15  22206009.893 3   -230989.03001      1972.591          41.200           0.000 0         0.00000         0.000           0.000  
G16  23848444.768 5         0.00000      2211.050          25.800           0.000 0         0.00000         0.000           0.000  
G18  20737491.827 5         0.00000       823.400          26.700           0.000 0         0.00000         0.000           0.000  
G23  21492415.102 3   -296993.07402      2543.959          37.000           0.000 0         0.00000         0.000           0.000  
G26  22576972.188 4    -37874.91009       312.636          31.300    22574606.514 4         0.00000       233.650          20.400  
G29  20631690.878 3    118601.01101     -1048.648          41.100           0.000 0         0.00000         0.000           0.000  
J02  43310179.383 4    -19954.28409       192.970          29.600    43307802.925 3         0.00000       145.250          23.100  
R10  22512434.373 4         0.00000     -1163.537          29.400  
R18  22497268.162 3    266412.45502     -2300.979          37.100  
R09  23009288.507 5         0.00000     -3382.700          27.100  
R05  21595147.099 6         0.00000      4055.650          23.200  
R19  20192583.964 5         0.00000      -359.450          28.500  
R03  22032691.486 3    343009.84902     -2986.956          36.700  
R04  19798994.844 4    -87815.17703       724.331          35.600  
C32  24891494.679 4    282978.46903     -2449.913          35.300  
C29  21599532.758 4     -7470.93303       412.676          34.900  
E01  25749571.147 4       734.50009     -1149.738          30.500    25747662.669 3     97521.42909      -858.740          27.700  
E07  25646790.289 5         0.00000      2379.550          26.900    25644882.108 2   -202881.37609      1776.353          32.400  
E08  23761924.652 2     -9736.88503        85.247          42.800    23760024.567 3         0.00000        63.200          22.900  
E13  24542956.262 2    131242.15802     -1135.593          44.000    24541043.282 3     97995.29409      -847.978          27.500  
E21  26611807.817 5         0.00000     -2842.700          24.900    26609882.866 3         0.00000     -2122.411          25.700  
E26  23531122.244 4    -51791.19308       761.061          34.000    23529204.761 2    -64031.31109       568.378          30.600  
> 2021 07 14 20 51 06.4352186  0 26
G05  22234742.008 3    338205.55502     -2897.295          36.300           0.000 0         0.00000         0.000           0.000  
G13  23396682.416 3   -114540.31702       964.467          35.700           0.000 0         0.00000         0.000           0.000  
G15  22205636.353 2   -232960.63801      1972.571          41.500           0.000 0         0.00000         0.000           0.000  
G16  23848039.138 5         0.00000      2215.650          27.100           0.000 0         0.00000         0.000           0.000  
G18  20737296.664 5         0.00000       828.450          23.400           0.000 0         0.00000         0.000           0.000  
G20  24921746.725 6         0.00000     -3385.500          20.800           0.000 0         0.00000         0.000           0.000  
G23  21491926.444 3   -299536.18902      2544.032          37.600           0.000 0         0.00000         0.000           0.000  
G26  22576906.226 4    -38186.06304       312.556          31.300    22574547.463 4         0.00000       234.950          20.700  
G29  20631891.433 3    119650.57401     -1048.645          41.300           0.000 0         0.00000         0.000           0.000  
J02  43310135.914 5         0.00000       193.750          28.200    43307770.555 3         0.00000       144.597          23.600  
R10  22512656.217 5         0.00000     -1163.750          28.200  
R18  22497707.366 3    268714.26302     -2300.776          37.600  
R09  23009932.455 5         0.00000     -3382.850          27.700  
R05  21594352.033 6         0.00000      4054.400          23.900  
R19  20192663.415 5         0.00000      -361.950          28.100  
R03  22033256.594 3    345997.86302     -2987.012          36.800  
R04  19798874.926 4    -88538.29203       723.889          34.100  
C32  24891965.049 4    285429.22403     -2449.761          34.600  
C29  21599453.010 3     -7882.83302       412.836          36.400  
E01  25749794.492 4      1884.82809     -1149.711          30.800    25747881.809 3     98380.82309      -858.695          29.100  
E07  25646345.396 5         0.00000      2379.400          29.100    25644430.025 2   -204657.14709      1776.502          32.200  
E08  23761906.975 2     -9821.08702        85.148          43.800    23760009.281 3         0.00000        63.700          25.000  
E13  24543172.715 2    132378.53402     -1135.324          44.000    24541260.642 3     98843.90709      -847.686          29.300  
E21  26612348.355 6         0.00000     -2842.150          24.600    26610423.980 3         0.00000     -2122.190          24.900  
E26  23530970.845 4    -52551.48307       761.354          35.100    23529060.867 3    -64599.11009       568.599          28.800  
G10         0.000 0         0.00000         0.000           0.000    24274615.923 3         0.00000      2554.935          24.700  
> 2021 07 14 20 51 07.4352186  0 26
G05  22235292.126 3    341101.78702     -2896.857          38.000           0.000 0         0.00000         0.000           0.000  
G10  24276347.525 6         0.00000      3423.600          22.100    24273967.473 3         0.00000      2555.827          24.200  
G13  23396499.834 3   -115505.81302       964.838          35.600           0.000 0         0.00000         0.000           0.000  
G15  22205258.312 2   -234934.09601      1972.731          42.400           0.000 0         0.00000         0.000           0.000  
G16  23847612.829 5         0.00000      2213.050          27.600           0.000 0         0.00000         0.000           0.000  
G18  20737188.438 6         0.00000       828.050          21.600           0.000 0         0.00000         0.000           0.000  
G20  24922378.999 6         0.00000     -3378.450          21.200           0.000 0         0.00000         0.000           0.000  
G23  21491444.382 3   -302081.24502      2544.402          38.200           0.000 0         0.00000         0.000           0.000  
G26  22576850.176 4    -38499.40904       312.561          33.200    22574482.705 4         0.00000       234.100          21.500  
G29  20632091.395 3    120698.23101     -1048.360          41.300           0.000 0         0.00000         0.000           0.000  
J02  43310084.052 4    -20341.30907       194.348          29.600    43307731.274 3         0.00000       145.185          24.500  
R10  22512880.749 5         0.00000     -1163.450          28.400  
R18  22498135.176 3    271013.78602     -2300.166          37.000  
R09  23010569.510 5         0.00000     -3380.500          28.300  
R19  20192708.977 5         0.00000      -360.850          28.800  
R03  22033810.917 3    348983.88902     -2986.820          37.200  
R04  19798725.918 4    -89262.98403       723.681          34.400  
C32  24892433.326 4    287877.96003     -2449.318          35.000  
C29  21599372.059 3     -8296.76902       413.301          37.700  
E01  25750007.629 4      3033.58909     -1149.335          31.000    25748100.652 3     99238.69709      -858.055          29.300  
E07  25645888.515 4     -3682.32209      2379.654          29.800    25643977.035 2   -206434.45409      1776.865          32.000  
E08  23761891.688 2     -9907.24903        85.593          43.700    23759995.792 3         0.00000        64.169          25.100  
E13  24543388.260 2    133512.62502     -1134.462          44.300    24541478.892 3     99690.81809      -847.067          28.700  
E21  26612888.282 6         0.00000     -2841.900          23.300    26610963.314 3         0.00000     -2121.252          24.100  
E26  23530828.434 4    -53314.12806       762.290          35.900    23528915.472 3    -65168.65709       569.475          28.400  
E33  27310493.927 6         0.00000      1886.550          20.700           0.000 0         0.00000         0.000           0.000  
> 2021 07 14 20 51 08.4352186  0 26
G05  22235840.150 3    344002.63102     -2903.261          37.500           0.000 0         0.00000         0.000           0.000  
G10  24275696.388 5         0.00000      3419.150          24.500    24273312.723 3         0.00000      2551.150          23.200  
G13  23396320.865 3   -116466.48502       958.120          35.400           0.000 0         0.00000         0.000           0.000  
G15  22204883.272 3   -236902.89301      1966.193          41.300           0.000 0         0.00000         0.000           0.000  
G16  23847174.846 5         0.00000      2203.050          28.000           0.000 0         0.00000         0.000           0.000  
G18  20736966.000 6         0.00000       824.950          22.100           0.000 0         0.00000         0.000           0.000  
G23  21490955.723 3   -304621.61002      2537.813          37.700           0.000 0         0.00000         0.000           0.000  
G26  22576797.703 4    -38807.88404       305.788          32.300           0.000 0         0.00000         0.000           0.000  
G29  20632294.952 2    121750.66101     -1054.925          41.700           0.000 0         0.00000         0.000           0.000  
J02  43310072.064 4         0.00000       188.169          28.600    43307696.199 3         0.00000       140.491          24.800  
R10  22513100.500 5         0.00000     -1171.300          27.400  
R18  22498555.482 3    273317.91702     -2306.560          37.100  
R09  23011202.377 5         0.00000     -3386.900          27.800  
R05  21592871.661 6         0.00000      4050.700          21.500  
R19  20192794.117 5         0.00000      -364.000          28.700  
R03  22034390.718 3    351974.92402     -2993.669          37.400  
R04  19798589.528 4    -89982.35903       716.707          33.800  
C32  24892905.197 4    290331.26603     -2455.751          35.200  
C29  21599295.313 3     -8706.24802       407.037          37.700  
E01  25750231.289 4      4186.52309     -1156.045          31.900    25748319.513 3    100100.02509      -863.324          27.200  
E07  25645440.620 4     -6057.87809      2373.176          31.400    25643526.156 2   -208208.40809      1772.153          32.800  
E08  23761876.384 2     -9988.71103        79.010          43.700    23759972.409 3         0.00000        58.877          26.800  
E13  24543605.009 2    134651.00702     -1140.686          44.700    24541692.029 2    100540.90309      -851.960          30.600  
E21  26613419.816 6         0.00000     -2847.950          22.300    26611505.038 3         0.00000     -2126.315          25.800  
E26  23530684.243 4    -54072.43207       755.996          35.000    23528770.373 2    -65734.81309       564.363          30.300  
E33  27310144.085 6         0.00000      1878.750          21.100           0.000 0         0.00000         0.000           0.000  
> 2021 07 14 20 51 09.4352186  0 25
G05  22236394.160 3    346905.48202     -2902.051          37.000           0.000 0         0.00000         0.000           0.000  
G10  24275084.514 5         0.00000      3417.900          24.800    24272663.680 3         0.00000      2551.897          25.400  
G13  23396133.798 4   -117424.92503       958.995          35.300           0.000 0         0.00000         0.000           0.000  
G15  22204506.731 3   -238869.38301      1967.196          40.000           0.000 0         0.00000         0.000           0.000  
G16  23846768.326 5         0.00000      2207.250          27.000           0.000 0         0.00000         0.000           0.000  
G18  20736856.569 4         0.00000       821.800          28.700           0.000 0         0.00000         0.000           0.000  
G23  21490474.551 3   -307159.83602      2538.889          38.000           0.000 0         0.00000         0.000           0.000  
G26  22576738.652 4    -39114.07904       306.850          31.800           0.000 0         0.00000         0.000           0.000  
G29  20632493.710 2    122805.27301     -1053.951          42.200           0.000 0         0.00000         0.000           0.000  
J02  43310040.287 4         0.00000       189.479          28.500    43307661.421 3         0.00000       142.150          22.800  
R10  22513286.379 5         0.00000     -1167.300          27.800  
R18  22498988.072 4    275624.01703     -2305.238          35.600  
R09  23011828.334 5         0.00000     -3383.500          25.900  
R20  21601581.832 6         0.00000      2360.350          21.800  
R19  20192843.588 5         0.00000      -362.900          28.800  
R03  22034945.932 3    354968.25902     -2992.718          38.000  
R04  19798457.325 4    -90699.10803       717.228          34.300  
C32  24893374.678 4    292786.63203     -2454.623          35.500  
C29  21599211.971 3     -9113.73002       408.221          37.000  
E01  25750452.523 4      5342.60909     -1154.890          31.800    25748541.357 3    100962.95509      -862.278          29.400  
E07  25644990.334 4     -8431.31909      2374.371          32.500    25643072.870 2   -209980.79309      1773.006          32.300  
E08  23761860.801 2    -10067.92803        79.886          42.900    23759962.514 3         0.00000        59.661          27.800  
E13  24543821.758 2    135791.22302     -1139.388          44.100    24541906.387 3    101392.25409      -850.852          27.000  
E26  23530538.551 4    -54828.92508       757.448          33.200    23528625.274 2    -66299.80109       565.528          31.800  
E21         0.000 0         0.00000         0.000           0.000    26612047.653 3         0.00000     -2126.000          23.100  
> 2021 07 14 20 51 10.4352186  0 25
G05  22236949.670 3    349807.21402     -2902.332          37.800           0.000 0         0.00000         0.000           0.000  
G10  24274385.388 5         0.00000      3422.000          24.100    24272014.026 3         0.00000      2551.774          25.000  
G13  23395956.609 4   -118384.14203       958.548          35.000           0.000 0         0.00000         0.000           0.000  
G15  22204134.989 3   -240836.79001      1966.752          41.200           0.000 0         0.00000         0.000           0.000  
G16  23846336.328 4         0.00000      2206.982          28.400           0.000 0         0.00000         0.000           0.000  
G18  20736696.184 4    -98370.38109       821.614          29.400           0.000 0         0.00000         0.000           0.000  
G23  21489996.973 3   -309698.98202      2538.543          37.700           0.000 0         0.00000         0.000           0.000  
G26  22576676.285 4    -39421.02704       306.262          32.600    22574309.721 4         0.00000       228.100          20.400  
G29  20632696.970 3    123859.01801     -1054.355          41.300           0.000 0         0.00000         0.000           0.000  
J02  43309984.516 4         0.00000       189.654          28.500    43307622.752 3         0.00000       141.845          23.600  
R10  22513508.224 5         0.00000     -1172.050          27.000  
R18  22499420.681 4    277928.96403     -2305.384          35.300  
R09  23012445.914 5         0.00000     -3387.100          24.900  
R19  20192896.654 4     42623.29104      -363.984          31.200  
R03  22035500.831 3    357960.83502     -2993.315          38.100  
R04  19798337.703 4    -91416.37903       716.477          33.700  
C32  24893850.144 3    295240.91502     -2454.862          36.500  
C29  21599136.725 3     -9522.32002       408.036          39.000  
E01  25750668.382 4      6497.28809     -1155.180          29.900    25748758.996 3    101825.06809      -862.522          29.000  
E07  25644541.550 4    -10806.11909      2374.292          30.900    25642621.677 2   -211754.13209      1772.953          33.400  
E08  23761844.922 2    -10148.05503        79.570          43.300    23759946.931 3         0.00000        59.372          24.500  
E13  24544038.804 2    136930.13903     -1139.268          43.500    24542122.543 3    102242.72309      -850.794          27.900  
E21  26614508.360 6         0.00000     -2846.000          21.400    26612588.487 3         0.00000     -2125.009          24.000  
E26  23530390.748 4    -55586.65407       757.343          34.800    23528481.659 2    -66865.66009       565.627          30.500  
E33  27309407.790 6         0.00000      1881.600          20.700           0.000 0         0.00000         0.000           0.000  
> 2021 07 14 20 51 11.4352186  0 26
G05  22237500.102 3    352710.55202     -2904.198          37.500           0.000 0         0.00000         0.000           0.000  
G10  24273756.133 5         0.00000      3416.950          24.900    24271361.387 3         0.00000      2550.540          23.600  
G13  23395771.636 3   -119341.56802       956.491          35.800           0.000 0         0.00000         0.000           0.000  
G15  22203760.246 2   -242802.43001      1964.660          41.600           0.000 0         0.00000         0.000           0.000  
G16  23845922.915 5         0.00000      2205.300          27.600           0.000 0         0.00000         0.000           0.000  
G18  20736540.895 5         0.00000       817.900          27.000           0.000 0         0.00000         0.000           0.000  
G23  21489508.612 3   -312236.52502      2536.623          37.400           0.000 0         0.00000         0.000           0.000  
G26  22576619.031 4    -39726.15004       304.081          31.400    22574249.466 3         0.00000       227.250          22.800  
G29  20632893.634 3    124914.45201     -1056.402          40.000           0.000 0         0.00000         0.000           0.000  
J02  43309947.941 5         0.00000       187.450          27.700    43307587.973 3         0.00000       140.483          24.300  
R10  22513739.370 5         0.00000     -1172.000          26.300  
R18  22499857.181 3    280235.31202     -2307.145          36.800  
R09  23013064.088 5         0.00000     -3388.350          27.100  
R05  21590567.761 6         0.00000      4049.400          20.100  
R20  21600749.003 6         0.00000      2360.350          21.200  
R19  20192971.603 4     42988.23004      -365.874          32.100  
R03  22036049.763 3    360955.26302     -2995.508          37.000  
R04  19798185.695 4    -92131.43303       713.887          34.800  
C32  24894319.921 3    297696.80602     -2456.711          36.800  
C29  21599055.180 3     -9929.41202       406.199          39.300  
E01  25750891.431 4      7653.53709     -1157.086          31.400    25748979.951 3    102688.60509      -864.050          28.500  
E07  25644092.154 4    -13179.34809      2372.438          31.300    25642169.891 2   -213526.36209      1771.663          33.400  
E08  23761830.525 2    -10226.53103        77.512          43.300    23759936.130 3         0.00000        57.250          23.300  
E13  24544255.571 2    138070.36903     -1140.925          43.600    24542341.683 3    103094.17909      -851.971          29.300  
E21  26615033.594 6         0.00000     -2846.900          22.200    26613128.118 3         0.00000     -2126.182          25.600  
E26  23530252.245 4    -56343.19107       755.696          35.100    23528337.468 2    -67430.59109       564.328          32.200  
> 2021 07 14 20 51 12.4352186  0 25
G05  22238057.410 3    355614.49002     -2902.646          38.800           0.000 0         0.00000         0.000           0.000  
G10  24273116.059 5         0.00000      3419.950          24.400    24270711.437 3         0.00000      2551.924          23.800  
G13  23395588.165 3   -120298.13102       957.655          36.000           0.000 0         0.00000         0.000           0.000  
G15  22203386.706 2   -244767.28201      1966.038          41.600           0.000 0         0.00000         0.000           0.000  
G16  23845493.308 5         0.00000      2208.250          26.600           0.000 0         0.00000         0.000           0.000  
G18  20736389.497 5         0.00000       821.200          23.500           0.000 0         0.00000         0.000           0.000  
G23  21489028.957 3   -314773.29002      2538.034          37.200           0.000 0         0.00000         0.000           0.000  
G26  22576553.976 4    -40030.31404       305.317          32.100    22574192.508 3         0.00000       228.160          24.000  
G29  20633098.098 3    125970.66301     -1055.040          39.400           0.000 0         0.00000         0.000           0.000  
J02  43309898.783 4         0.00000       189.760          28.900    43307553.509 3         0.00000       141.971          25.500  
R10  22513957.323 5         0.00000     -1170.500          27.300  
R18  22500284.083 3    282542.16602     -2305.514          37.300  
R09  23013682.559 5         0.00000     -3387.100          24.500  
R05  21589766.709 6         0.00000      4051.900          22.000  
R19  20193053.131 4     43353.83804      -364.193          32.200  
R03  22036612.166 3    363950.54202     -2994.092          37.800  
R04  19798051.694 4    -92845.32103       714.876          34.100  
C32  24894789.699 3    300153.31702     -2455.274          36.700  
C29  21598978.434 3    -10335.91902       407.784          38.800  
E01  25751107.569 4      8810.53609     -1155.762          32.500    25749198.794 2    103552.56809      -862.910          30.200  
E07  25643637.681 4    -15551.94909      2374.184          31.900    25641718.401 2   -215298.14609      1772.749          33.200  
E08  23761817.333 2    -10304.19103        78.938          43.400    23759897.163 4         0.00000        60.350          22.200  
E13  24544473.803 2    139210.96102     -1139.153          44.100    24542557.839 3    103945.90209      -850.514          27.500  
E21  26615578.617 6         0.00000     -2846.750          21.200    26613671.640 3         0.00000     -2124.840          24.400  
E26  23530104.442 4    -57099.26307       757.436          35.600    23528193.870 2    -67995.13509       565.672          31.600  
> 2021 07 14 20 51 13.4352186  0 25
G05  22238610.529 3    358518.29601     -2905.005          40.900           0.000 0         0.00000         0.000           0.000  
G10  24272453.527 5         0.00000      3415.100          24.500    24270063.283 3         0.00000      2549.942          25.100  
G13  23395409.789 3   -121254.59602       955.135          35.400           0.000 0         0.00000         0.000           0.000  
G15  22203015.872 2   -246732.05101      1963.491          42.200           0.000 0         0.00000         0.000           0.000  
G16  23845084.694 5         0.00000      2205.150          28.100           0.000 0         0.00000         0.000           0.000  
G18  20736310.343 6         0.00000       820.950          22.300           0.000 0         0.00000         0.000           0.000  
G23  21488541.782 3   -317310.07302      2535.573          37.300           0.000 0         0.00000         0.000           0.000  
G26  22576504.801 4    -40334.35304       302.629          33.200    22574135.847 3         0.00000       225.785          25.300  
G29  20633297.764 3    127026.92602     -1057.558          38.800           0.000 0         0.00000         0.000           0.000  
J02  43309874.493 4         0.00000       187.673          28.400    43307517.230 3         0.00000       140.041          28.300  
R10  22514142.889 5         0.00000     -1171.750          25.700  
R18  22500710.688 3    284848.82502     -2307.776          37.400  
R09  23014335.511 5         0.00000     -3393.200          25.200  
R19  20193120.890 4     43719.25104      -366.603          31.500  
R03  22037175.773 3    366946.05102     -2996.848          38.300  
R04  19797938.373 4    -93558.65904       711.988          32.500  
C32  24895263.961 3    302609.68102     -2457.588          36.600  
C29  21598898.094 3    -10742.57002       405.546          39.800  
E01  25751328.524 4      9967.56908     -1158.125          34.300    25749420.639 2    104416.52209      -864.956          31.200  
E07  25643186.488 4    -17924.88406      2371.723          35.900    25641267.208 2   -217070.12509      1771.190          33.400  
E08  23761802.343 2    -10381.82903        76.445          43.500    23759882.767 3         0.00000        57.100          24.400  
E13  24544689.662 2    140351.16902     -1141.260          44.600    24542778.776 3    104797.37909      -852.291          28.500  
E21  26616120.935 6         0.00000     -2847.850          24.200    26614211.864 3         0.00000     -2125.350          23.100  
E26  23529961.141 4    -57855.65407       755.305          35.400    23528049.068 2    -68559.99909       564.008          33.000  
E31  27599251.631 6         0.00000      1344.800          20.200           0.000 0         0.00000         0.000           0.000  
> 2021 07 14 20 51 14.4352186  0 27
G05  22239162.148 3    361423.36601     -2905.772          41.000           0.000 0         0.00000         0.000           0.000  
G10  24271811.673 6         0.00000      3410.500          23.200    24269415.723 3         0.00000      2549.671          25.700  
G13  23395226.317 3   -122209.54502       954.181          36.200           0.000 0         0.00000         0.000           0.000  
G15  22202640.535 2   -248695.37101      1962.558          41.900           0.000 0         0.00000         0.000           0.000  
G16  23844668.873 4         0.00000      2202.676          29.100           0.000 0         0.00000         0.000           0.000  
G18  20736183.532 6         0.00000       815.500          22.000           0.000 0         0.00000         0.000           0.000  
G23  21488061.221 3   -319845.48702      2534.688          36.700           0.000 0         0.00000         0.000           0.000  
G26  22576452.049 4    -40636.77704       301.608          32.200    22574078.593 3         0.00000       225.203          25.200  
G29  20633500.413 3    128084.63702     -1058.501          39.000           0.000 0         0.00000         0.000           0.000  
J02  43309836.120 4    -21664.27707       187.464          29.500    43307481.248 3         0.00000       139.824          27.700  
R10  22514358.730 6         0.00000     -1177.150          23.200  
R18  22501161.270 3    287156.57702     -2308.432          37.600  
R09  23014940.493 5         0.00000     -3390.750          25.400  
R19  20193207.530 4     44085.91304      -367.325          31.500  
R03  22037738.193 3    369943.04902     -2997.822          38.600  
R04  19797800.464 4    -94270.21304       710.658          32.100  
C35  24155061.096 3         0.00000      2384.050          39.000  
C32  24895734.645 3    305067.34302     -2458.319          36.700  
C29  21598820.440 3    -11148.03901       404.802          40.000  
C19  23408587.460 4         0.00000      2988.200          31.600  
E01  25751549.164 4     11125.85108     -1159.141          33.800    25749641.890 2    105281.56109      -865.523          31.400  
E07  25642732.608 4    -20296.63006      2371.059          35.900    25640816.330 2   -218841.19009      1770.553          33.300  
E08  23761787.353 2    -10458.11802        75.502          43.900    23759866.887 3         0.00000        56.309          25.200  
E13  24544907.912 2    141492.38502     -1141.786          44.600    24542994.042 3    105649.65009      -852.681          27.900  
E21  26616668.366 6         0.00000     -2848.400          23.000    26614752.088 3         0.00000     -2126.200          23.300  
E26  23529816.339 4    -58611.11307       754.987          35.500    23527904.860 2    -69124.12209       563.665          33.000  
E33  27307992.473 6         0.00000      1880.750          22.000           0.000 0         0.00000         0.000           0.000  
> 2021 07 14 20 51 15.4352186  0 27
G05  22239710.469 3    364329.69401     -2906.673          41.200           0.000 0         0.00000         0.000           0.000  
G10  24271150.920 6         0.00000      3407.350          21.900    24268764.289 3         0.00000      2549.088          25.200  
G13  23395044.346 3   -123162.99202       953.017          36.600           0.000 0         0.00000         0.000           0.000  
G15  22202263.697 2   -250657.25601      1961.418          41.900           0.000 0         0.00000         0.000           0.000  
G16  23844256.367 4         0.00000      2201.479          28.900           0.000 0         0.00000         0.000           0.000  
G18  20735942.195 6         0.00000       816.650          21.600           0.000 0         0.00000         0.000           0.000  
G23  21487575.860 3   -322379.55102      2533.661          36.900           0.000 0         0.00000         0.000           0.000  
G26  22576385.791 4    -40937.70103       300.431          33.600    22574018.634 3         0.00000       224.273          24.800  
G29  20633700.375 3    129143.73702     -1059.547          38.900           0.000 0         0.00000         0.000           0.000  
J02  43309784.258 5         0.00000       187.100          27.700    43307445.283 3         0.00000       139.271          28.300  
R10  22514582.686 6         0.00000     -1181.850          23.700  
R18  22501591.767 3    289465.49602     -2309.260          37.700  
R09  23015631.504 5         0.00000     -3390.900          26.800  
R19  20193250.405 4     44453.77004      -368.176          31.700  
R03  22038291.906 3    372941.66502     -2999.135          38.600  
R04  19797649.676 4    -94979.87004       708.982          32.800  
C35  24154604.808 3     -1041.10009      2384.243          39.100  
C32  24896206.813 3    307526.24102     -2459.310          36.900  
C30  23674334.296 2         0.00000     -1990.150          42.200  
C29  21598741.600 3    -11552.33001       403.947          40.300  
C19  23408008.863 4     -1322.65309      2986.823          31.500  
E01  25751771.619 4     12285.63508     -1160.120          33.400    25749860.437 2    106147.57009      -866.206          31.000  
E07  25642279.321 4    -22667.15507      2370.250          35.700    25640365.433 2   -220611.41609      1769.981          33.500  
E08  23761773.864 2    -10532.97003        74.421          43.600    23759852.787 3         0.00000        55.557          25.100  
E13  24545123.754 2    142634.62502     -1142.492          44.300    24543211.384 3    106502.58609      -853.182          28.000  
E21  26617211.591 5         0.00000     -2849.700          25.100    26615295.609 3         0.00000     -2127.420          23.800  
E26  23529674.539 4    -59365.52208       754.106          34.700    23527763.373 2    -69687.48709       563.165          33.300  
> 2021 07 14 20 51 16.4352186  0 27
G05  22240263.274 3    367236.26801     -2906.604          41.100           0.000 0         0.00000         0.000           0.000  
G13  23394868.972 3   -124115.97102       952.805          36.300           0.000 0         0.00000         0.000           0.000  
G15  22201891.938 2   -252618.69701      1961.322          41.600           0.000 0         0.00000         0.000           0.000  
G16  23843820.164 4         0.00000      2201.328          28.900           0.000 0         0.00000         0.000           0.000  
G18  20735789.611 6         0.00000       816.650          22.400           0.000 0         0.00000         0.000           0.000  
G23  21487093.187 3   -324913.24502      2533.585          36.900           0.000 0         0.00000         0.000           0.000  
G26  22576338.728 4    -41238.07203       300.190          33.600    22573964.957 3         0.00000       224.087          25.100  
G29  20633903.338 3    130203.26802     -1059.626          38.500           0.000 0         0.00000         0.000           0.000  
J02  43309762.375 5         0.00000       186.800          28.300    43307410.505 3         0.00000       139.640          28.100  
R10  22514844.108 5         0.00000     -1178.200          24.100  
R18  22502020.467 3    291774.60802     -2309.106          37.800  
R09  23016264.667 5         0.00000     -3390.950          27.000  
R19  20193319.351 4     44821.89707      -368.078          30.500  
R03  22038856.421 3    375940.83502     -2999.298          38.500  
R04  19797532.463 4    -95688.68203       708.521          33.500  
C35  24154147.333 3     -3425.56509      2384.535          39.000  
C32  24896681.390 3    309985.42302     -2459.237          36.900  
C30  23674718.026 2       950.26109     -1989.580          42.000  
C29  21598665.447 3    -11956.43301       404.099          40.100  
C19  23407435.362 4     -4309.58209      2986.969          32.200  
E01  25751991.963 4     13445.65008     -1160.145          34.400    25750081.688 2    107013.81309      -866.453          32.400  
E07  25641831.129 4    -25037.53706      2370.278          36.200    25639914.258 2   -222381.48009      1770.004          33.600  
E08  23761758.875 2    -10607.41403        74.331          43.700    23759839.298 4         0.00000        56.050          22.600  
E13  24545342.004 2    143776.88402     -1142.220          44.500    24543430.228 3    107355.60409      -853.004          28.700  
E21  26617741.921 5         0.00000     -2848.650          25.000    26615835.537 3         0.00000     -2127.700          22.800  
E26  23529529.143 4    -60119.91107       754.493          34.900    23527619.165 2    -70250.81909       563.357          33.000  
G10         0.000 0         0.00000         0.000           0.000    24268115.228 3         0.00000      2549.088          25.600  
> 2021 07 14 20 51 17.4352186  0 26
G05  22240813.706 3    370142.48101     -2905.722          40.700           0.000 0         0.00000         0.000           0.000  
G10  24269839.030 5         0.00000      3413.450          23.400    24267465.888 3         0.00000      2550.007          25.300  
G13  23394678.904 3   -125069.04502       953.438          36.100           0.000 0         0.00000         0.000           0.000  
G15  22201514.804 3   -254580.33601      1961.982          40.400           0.000 0         0.00000         0.000           0.000  
G16  23843406.454 4   -145055.83809      2202.027          30.100           0.000 0         0.00000         0.000           0.000  
G23  21486604.232 3   -327447.19802      2534.388          35.900           0.000 0         0.00000         0.000           0.000  
G26  22576280.566 4    -41538.53604       300.696          33.200    22573908.907 3         0.00000       224.794          25.600  
G29  20634102.096 3    131262.58502     -1058.973          38.800           0.000 0         0.00000         0.000           0.000  
J02  43309730.302 5         0.00000       190.400          28.100    43307375.726 3         0.00000       140.605          27.300  
R10  22515095.025 6         0.00000     -1175.950          22.600  
R18  22502449.480 3    294083.26102     -2308.194          37.500  
R09  23016891.828 5         0.00000     -3389.050          28.800  
R19  20193388.314 4     45189.57004      -367.277          31.000  
R03  22039415.229 3    378939.84602     -2998.780          38.500  
R04  19797387.051 4    -96397.32903       708.784          33.400  
C35  24153690.137 3     -5810.63809      2385.685          38.800  
C32  24897149.963 3    312444.25902     -2458.308          36.600  
C30  23675099.366 3      2939.41709     -1988.625          41.700  
C29  21598587.497 3    -12360.89502       404.986          39.000  
C19  23406868.753 4     -7296.91009      2987.878          32.900  
E01  25752214.401 4     14605.42808     -1159.300          34.200    25750302.939 2    107879.93209      -865.756          31.800  
E07  25641378.436 4    -27408.31307      2371.351          35.300    25639462.472 2   -224151.85209      1770.840          33.700  
E08  23761745.089 2    -10682.06903        75.089          43.300    23759824.309 3         0.00000        56.400          24.300  
E13  24545558.456 2    144918.54902     -1141.040          44.000    24543646.977 3    108208.15109      -851.951          28.900  
E21  26618286.036 5         0.00000     -2847.600          25.500    26616380.263 3         0.00000     -2126.050          23.400  
E26  23529386.435 4    -60874.87707       755.658          35.300    23527475.270 2    -70814.56209       564.235          33.500  
> 2021 07 14 20 51 18.4352186  0 29
G05  22241369.217 3    373049.28001     -2907.343          40.600           0.000 0         0.00000         0.000           0.000  
G10  24269190.877 5         0.00000      3413.650          25.100    24266813.826 3         0.00000      2548.942          25.100  
G13  23394505.309 3   -126021.26102       951.616          36.500           0.000 0         0.00000         0.000           0.000  
G15  22201145.156 3   -256541.13701      1960.207          40.700           0.000 0         0.00000         0.000           0.000  
G16  23842987.631 4   -147256.14809      2200.175          29.900           0.000 0         0.00000         0.000           0.000  
G18  20735452.036 6         0.00000       817.550          21.600           0.000 0         0.00000         0.000           0.000  
G23  21486123.060 3   -329980.45502      2532.733          35.700           0.000 0         0.00000         0.000           0.000  
G26  22576230.501 4    -41838.05304       298.816          32.200    22573851.653 3         0.00000       223.197          25.500  
G29  20634302.966 3    132322.72902     -1060.720          38.900           0.000 0         0.00000         0.000           0.000  
J02  43309692.819 5         0.00000       185.850          27.900    43307337.947 3         0.00000       139.723          29.200  
R10  22515215.833 6         0.00000     -1174.950          23.700  
R18  22502878.476 3    296392.41402     -2309.578          37.400  
R09  23017549.283 4         0.00000     -3390.640          29.000  
R05  21585267.728 6         0.00000      4046.050          22.600  
R19  20193455.166 4     45557.87004      -368.913          31.100  
R03  22039971.054 3    381939.78702     -3000.551          38.400  
R04  19797263.835 4    -97104.66304       706.469          32.300  
C35  24153233.866 3     -8195.36309      2384.303          39.200  
C32  24897623.335 3    314903.70502     -2459.932          36.700  
C30  23675481.002 2      4929.07209     -1990.131          42.500  
C29  21598509.564 3    -12764.86602       403.449          39.400  
C19  23406288.359 4    -10283.67209      2986.327          31.900  
E01  25752436.560 4     15765.99607     -1161.002          35.200    25750523.877 2    108746.53509      -866.844          32.700  
E07  25640928.151 4    -29778.55507      2369.934          35.100    25639011.576 2   -225921.83709      1769.761          33.600  
E08  23761731.897 2    -10755.95303        73.419          43.500    23759812.024 3         0.00000        54.524          24.300  
E13  24545776.706 2    146060.58902     -1142.323          44.000    24543862.836 3    109060.92309      -853.003          27.800  
E21  26618838.562 5         0.00000     -2849.550          27.300    26616921.987 3         0.00000     -2127.470          23.900  
E26  23529238.946 4    -61629.42107       754.146          35.200    23527332.859 2    -71378.05509       563.168          32.900  
E31  27597938.241 6         0.00000      1342.500          20.000           0.000 0         0.00000         0.000           0.000  
> 2021 07 14 20 51 19.4352186  0 30
G05  22241918.445 3    375957.71501     -2910.061          40.000           0.000 0         0.00000         0.000           0.000  
G10  24268543.928 4   -438285.08009      3411.235          30.000    24266167.470 3         0.00000      2546.720          24.900  
G13  23394317.056 3   -126971.65602       948.615          36.300           0.000 0         0.00000         0.000           0.000  
G15  22200769.523 3   -258500.15501      1957.277          40.500           0.000 0         0.00000         0.000           0.000  
G16  23842573.625 4         0.00000      2197.189          28.600           0.000 0         0.00000         0.000           0.000  
G18  20735303.046 5         0.00000       814.000          24.700           0.000 0         0.00000         0.000           0.000  
G23  21485641.888 4   -332511.93003      2529.688          33.700           0.000 0         0.00000         0.000           0.000  
G26  22576158.851 4    -42135.70307       295.751          30.300    22573796.179 3         0.00000       221.023          25.200  
G29  20634509.821 3    133384.63202     -1063.646          39.100           0.000 0         0.00000         0.000           0.000  
J02  43309668.231 4         0.00000       184.437          28.600    43307304.076 3         0.00000       137.533          28.800  
R10  22515457.780 6         0.00000     -1180.050          23.800  
R18  22503309.584 3    298703.04602     -2312.272          36.400  
R09  23018179.445 5         0.00000     -3393.000          28.300  
R05  21584497.860 5         0.00000      4042.800          25.700  
R20  21597159.598 6         0.00000      2363.900          22.200  
R19  20193517.516 4     45927.76007      -371.580          30.200  
R03  22040539.459 3    384941.60502     -3003.707          38.900  
R04  19797114.548 4    -97809.85504       703.141          31.500  
C35  24152773.372 3    -10578.72609      2381.903          38.200  
C32  24898094.613 3    317364.78002     -2462.669          37.300  
C30  23675864.436 2      6920.21909     -1992.724          42.400  
C29  21598430.707 3    -13167.24202       400.760          39.500  
C19  23405721.454 4    -13268.86209      2983.706          33.900  
E01  25752658.405 4     16928.08206     -1163.905          36.500    25750743.924 2    109614.33809      -869.170          31.600  
E07  25640482.053 4    -32147.33808      2367.058          33.900    25638558.900 2   -227690.75009      1767.616          33.400  
E08  23761718.408 2    -10828.10303        70.453          43.300    23759797.924 3         0.00000        52.750          23.400  
E13  24545993.752 2    147203.95703     -1144.918          43.500    24544079.585 3    109914.71109      -854.981          27.400  
E21  26619384.475 5         0.00000     -2852.200          25.600           0.000 0         0.00000         0.000           0.000  
E26  23529095.034 4    -62382.64106       751.612          36.600    23527187.760 2    -71940.53509       561.356          34.300  
E31  27597732.590 6         0.00000      1339.050          21.800           0.000 0         0.00000         0.000           0.000  
> 2021 07 14 20 51 20.4352186  0 28
G05  22242473.955 3    378868.71601     -2910.148          39.900           0.000 0         0.00000         0.000           0.000  
G10  24267897.589 4         0.00000      3410.978          29.300    24265516.332 3         0.00000      2546.870          25.900  
G13  23394141.664 4   -127919.21303       948.168          35.200           0.000 0         0.00000         0.000           0.000  
G15  22200398.985 3   -260456.40601      1956.968          41.000           0.000 0         0.00000         0.000           0.000  
G16  23842152.726 4         0.00000      2196.906          29.000           0.000 0         0.00000         0.000           0.000  
G18  20735153.446 5         0.00000       813.800          26.400           0.000 0         0.00000         0.000           0.000  
G23  21485159.529 4   -335040.75903      2529.525          34.700           0.000 0         0.00000         0.000           0.000  
G26  22576110.287 4    -42430.39104       295.470          31.000    22573740.129 3         0.00000       220.482          25.300  
G29  20634710.690 3    134449.25901     -1063.923          39.700           0.000 0         0.00000         0.000           0.000  
J02  43309629.265 5         0.00000       184.650          28.300    43307269.297 2         0.00000       137.810          29.400  
R10  22515757.557 6         0.00000     -1179.900          22.800  
R18  22503743.676 3    301016.20202     -2312.281          37.000  
R09  23018840.791 5         0.00000     -3392.700          28.700  
R05  21583761.565 5         0.00000      4042.800          25.100  
R19  20193593.075 4     46300.18207      -371.630          30.100  
R03  22041097.971 3    387946.34702     -3004.043          39.000  
R04  19796996.724 4    -98511.79704       702.411          31.700  
C35  24152316.491 3    -12959.83609      2381.963          38.400  
C32  24898570.079 3    319828.44902     -2462.854          36.900  
C30  23676247.573 2      8913.83109     -1992.804          42.900  
C29  21598356.962 3    -13567.08402       400.707          39.100  
C19  23405146.452 4    -16251.62609      2983.575          34.300  
E01  25752878.749 4     18093.01206     -1164.171          36.400    25750965.768 2    110484.25509      -869.368          31.100  
E07  25640028.470 4    -34513.58509      2366.977          32.600    25638109.207 2   -229457.72909      1767.508          33.300  
E08  23761704.919 2    -10897.52403        70.075          43.400    23759784.435 3         0.00000        51.100          23.900  
E13  24546211.112 2    148349.68203     -1144.933          43.300    24544298.428 3    110770.32409      -855.000          27.700  
E21  26619923.809 5         0.00000     -2851.800          25.600           0.000 0         0.00000         0.000           0.000  
E26  23528954.141 4    -63133.50306       751.746          36.500    23527046.257 2    -72501.24309       561.261          34.200  
> 2021 07 14 20 51 21.4352186  0 29
G05  22243027.965 3    381777.54201     -2908.973          39.900           0.000 0         0.00000         0.000           0.000  
G10  24267236.837 5         0.00000      3412.950          25.200    24264867.271 3         0.00000      2548.135          24.800  
G13  23393958.192 4   -128868.67203       949.230          35.000           0.000 0         0.00000         0.000           0.000  
G15  22200028.133 2   -262414.60501      1957.996          41.600           0.000 0         0.00000         0.000           0.000  
G16  23841758.490 4   -153849.50304      2197.859          30.400           0.000 0         0.00000         0.000           0.000  
G18  20734990.059 5         0.00000       815.250          26.500           0.000 0         0.00000         0.000           0.000  
G23  21484678.060 4   -337571.62503      2530.701          33.700           0.000 0         0.00000         0.000           0.000  
G26  22576049.717 4    -42726.97804       296.288          31.200    22573680.763 3         0.00000       221.321          24.400  
G29  20634909.448 3    135511.92201     -1062.871          40.000           0.000 0         0.00000         0.000           0.000  
J02  43309582.498 4         0.00000       186.042          28.700    43307234.816 3         0.00000       138.928          29.300  
R10  22515882.274 5         0.00000     -1183.700          24.700  
R18  22504185.882 3    303327.07802     -2310.904          37.900  
R09  23019474.548 5         0.00000     -3392.400          28.700  
R05  21583003.388 5         0.00000      4045.900          25.600  
R19  20193669.821 4     46670.43507      -370.272          30.700  
R03  22041666.377 3    390949.21102     -3003.081          39.300  
R04  19796864.818 4    -99215.23504       703.180          32.200  
C35  24151861.110 3    -15342.84402      2383.525          38.200  
C32  24899041.357 3    322289.98102     -2461.669          36.900  
C30  23676628.912 2     10905.22201     -1991.469          42.800  
C29  21598276.918 3    -13969.13302       401.919          39.700  
C19  23404572.950 4    -19236.08003      2984.802          34.100  
E01  25753100.890 4     19255.85106     -1163.049          36.500    25751186.426 2    111352.65209      -868.538          31.200  
E07  25639582.076 4    -36882.00608      2368.414          33.700    25637658.311 2   -231226.35009      1768.623          32.600  
E08  23761689.615 2    -10968.90603        71.223          43.100    23759769.445 3         0.00000        52.650          23.300  
E13  24546429.955 2    149493.02503     -1143.297          43.400    24544517.289 3    111624.08209      -853.722          28.200  
E21  26620457.733 5         0.00000     -2849.950          26.200           0.000 0         0.00000         0.000           0.000  
E26  23528812.637 3    -63886.78505       753.331          37.500    23526902.659 2    -73063.74609       562.496          34.500  
E33  27305458.317 6         0.00000      1879.050          21.700           0.000 0         0.00000         0.000           0.000  
> 2021 07 14 20 51 22.4352186  0 28
G05  22243580.491 3    384687.12101     -2908.914          40.400           0.000 0         0.00000         0.000           0.000  
G10  24266582.994 5         0.00000      3409.950          24.200    24264214.337 3         0.00000      2547.967          24.800  
G13  23393778.316 4   -129817.12903       949.050          35.000           0.000 0         0.00000         0.000           0.000  
G15  22199654.297 2   -264371.87901      1957.892          41.700           0.000 0         0.00000         0.000           0.000  
G16  23841318.989 4   -156046.72604      2197.835          30.500           0.000 0         0.00000         0.000           0.000  
G18  20734847.665 5         0.00000       816.650          25.200           0.000 0         0.00000         0.000           0.000  
G23  21484204.094 4   -340101.60103      2530.614          34.200           0.000 0         0.00000         0.000           0.000  
G26  22575987.368 4    -43022.64904       296.202          30.700    22573623.805 3         0.00000       220.958          24.700  
G29  20635110.614 3    136575.48301     -1063.040          39.800           0.000 0         0.00000         0.000           0.000  
J02  43309539.030 5         0.00000       187.150          28.000    43307197.053 3         0.00000       139.112          28.700  
R18  22504613.377 3    305638.54402     -2310.743          37.700  
R09  23020105.321 4         0.00000     -3391.470          29.900  
R05  21582269.205 5         0.00000      4043.400          27.300  
R19  20193739.064 4     47041.36507      -370.258          30.500  
R03  22042230.578 3    393953.05302     -3003.367          39.300  
R04  19796710.732 4    -99917.49104       702.650          32.400  
C35  24151403.321 3    -17725.88402      2383.780          38.400  
C32  24899515.619 3    324752.25002     -2461.706          37.200  
C30  23677013.236 2     12897.23101     -1991.376          43.000  
C29  21598201.673 3    -14370.46902       401.995          39.500  
C19  23404001.840 4    -22220.31703      2984.909          35.000  
E01  25753324.549 4     20419.62106     -1163.260          36.300    25751407.660 2    112221.65209      -868.712          31.000  
E07  25639128.492 4    -39249.80708      2368.283          33.700    25637208.619 2   -232994.49009      1768.584          33.700  
E08  23761678.237 2    -11039.41803        70.972          42.800    23759756.864 3         0.00000        52.748          24.200  
E13  24546646.111 2    150636.88603     -1143.186          43.400    24544733.131 3    112478.28309      -853.704          28.100  
E21  26621004.867 5         0.00000     -2850.300          25.400           0.000 0         0.00000         0.000           0.000  
E26  23528669.633 3    -64639.54405       753.498          37.200    23526759.358 2    -73625.88109       562.610          34.400  
E33  27305096.173 6         0.00000      1878.400          20.300    27303215.266 4         0.00000      1404.250          22.500  
> 2021 07 14 20 51 23.4352186  0 30
G05  22244138.095 2    387594.67801     -2907.878          41.500           0.000 0         0.00000         0.000           0.000  
G10  24265959.725 5         0.00000      3414.350          26.600    24263567.684 3         0.00000      2549.092          24.100  
G13  23393590.359 3   -130767.36702       949.788          35.400           0.000 0         0.00000         0.000           0.000  
G15  22199284.352 2   -266330.97501      1958.692          42.000           0.000 0         0.00000         0.000           0.000  
G16  23840907.688 4   -158245.69807      2198.566          30.300           0.000 0         0.00000         0.000           0.000  
G18  20734689.671 5         0.00000       815.600          27.300           0.000 0         0.00000         0.000           0.000  
G20  24932715.531 6         0.00000     -3388.600          20.400           0.000 0         0.00000         0.000           0.000  
G23  21483717.530 3   -342633.50702      2531.514          35.400           0.000 0         0.00000         0.000           0.000  
G26  22575935.802 4    -43319.84304       296.844          32.700    22573570.146 3         0.00000       221.653          26.000  
G29  20635309.669 3    137637.22802     -1062.113          38.400           0.000 0         0.00000         0.000           0.000  
J02  43309518.945 5         0.00000       187.000          27.700    43307161.071 3         0.00000       140.279          28.100  
R10  22516231.837 6         0.00000     -1187.100          20.500  
R18  22505046.875 3    307947.90502     -2309.616          37.800  
R09  23020728.887 5         0.00000     -3390.800          28.000  
R05  21581475.657 5         0.00000      4043.700          24.300  
R19  20193787.924 4     47410.30004      -369.226          31.000  
R03  22042789.403 3    396955.20702     -3002.623          39.600  
R04  19796600.395 4   -100621.18604       703.098          31.900  
C35  24150944.345 3    -20111.17102      2385.161          38.600  
C32  24899986.600 3    327212.57702     -2460.637          37.200  
C30  23677390.981 2     14887.18201     -1990.167          42.000  
C29  21598124.333 3    -14773.83801       403.099          40.000  
C19  23403428.635 4    -25206.55703      2985.968          35.600  
E01  25753546.394 4     21581.45906     -1162.045          36.200    25751627.708 2    113089.26809      -867.879          30.800  
E07  25638676.113 4    -41619.60608      2369.663          34.700    25636758.037 2   -234764.18209      1769.478          33.500  
E08  23761666.231 2    -11111.76503        72.031          42.800    23759743.375 3         0.00000        53.786          24.300  
E13  24546864.361 2    151778.48002     -1141.755          44.200    24544950.473 3    113330.71609      -852.630          28.600  
E21  26621537.587 6         0.00000     -2847.400          23.500    26619631.517 4         0.00000     -2127.750          21.800  
E26  23528523.941 4    -65394.50107       754.907          35.600    23526614.852 2    -74189.67109       563.638          33.200  
E33  27304757.115 6         0.00000      1881.700          22.600    27302861.515 4         0.00000      1405.450          21.900  
> 2021 07 14 20 51 24.4352186  0 29
G05  22244690.011 2    390503.96701     -2910.494          41.600           0.000 0         0.00000         0.000           0.000  
G10  24265314.276 4   -455345.12207      3411.178          29.600    24262918.326 3         0.00000      2547.346          25.200  
G13  23393414.077 4   -131715.65103       946.948          34.700           0.000 0         0.00000         0.000           0.000  
G15  22198909.609 2   -268288.15001      1955.852          42.200           0.000 0         0.00000         0.000           0.000  
G16  23840475.673 4   -160442.84004      2195.811          30.400           0.000 0         0.00000         0.000           0.000  
G18  20734539.180 5         0.00000       814.100          27.400           0.000 0         0.00000         0.000           0.000  
G20  24933365.185 6         0.00000     -3384.100          21.900           0.000 0         0.00000         0.000           0.000  
G23  21483241.453 3   -345163.55802      2528.814          35.500           0.000 0         0.00000         0.000           0.000  
G26  22575867.153 4    -43615.10204       293.955          30.500    22573514.078 3         0.00000       219.262          27.600  
G29  20635517.431 3    138700.84802     -1064.934          38.500           0.000 0         0.00000         0.000           0.000  
J02  43309488.965 5         0.00000       184.800          27.600    43307127.497 3         0.00000       138.344          29.100  
R18  22505480.077 3    310258.85202     -2312.140          37.300  
R09  23021332.664 5         0.00000     -3390.600          28.900  
R05  21580784.628 5         0.00000      4042.700          24.600  
R19  20193859.575 4     47780.88807      -371.833          30.800  
R03  22043345.507 3    399959.29902     -3005.479          39.600  
R04  19796443.011 4   -101322.52904       699.803          32.500  
C35  24150485.055 3    -22494.99602      2382.763          38.500  
C32  24900459.065 3    329674.65302     -2463.229          36.900  
C30  23677772.914 2     16878.72201     -1992.705          42.000  
C29  21598049.681 3    -15175.54901       400.528          40.600  
C19  23402855.134 4    -28191.11403      2983.443          35.100  
E01  25753765.237 4     22745.05206     -1164.848          36.100    25751850.756 2    113958.24109      -869.941          31.300  
E07  25638223.122 4    -43987.86608      2367.050          34.100    25636307.752 2   -236532.66709      1767.561          33.600  
E08  23761650.352 2    -11182.25803        69.270          43.400    23759730.182 3         0.00000        51.654          24.400  
E13  24547079.906 2    152921.53002     -1144.116          43.800    24545169.630 3    114184.37309      -854.336          29.600  
E21  26622083.203 5         0.00000     -2850.250          24.900    26620175.336 4         0.00000     -2129.350          22.300  
E26  23528381.233 4    -66148.00806       752.366          36.000    23526472.162 2    -74752.34109       561.910          33.100  
E33  27304403.050 6         0.00000      1878.250          23.800           0.000 0         0.00000         0.000           0.000  
> 2021 07 14 20 51 25.4352186  0 29
G05  22245244.334 3    393414.74001     -2910.253          40.900           0.000 0         0.00000         0.000           0.000  
G10  24264644.834 4         0.00000      3411.467          28.700    24262271.970 3         0.00000      2547.543          25.700  
G13  23393235.998 4   -132662.14703       946.954          34.900           0.000 0         0.00000         0.000           0.000  
G15  22198536.977 3   -270243.67601      1955.968          41.300           0.000 0         0.00000         0.000           0.000  
G16  23840063.760 4   -162638.23907      2195.861          30.200           0.000 0         0.00000         0.000           0.000  
G18  20734393.174 5         0.00000       816.600          27.800           0.000 0         0.00000         0.000           0.000  
G20  24933997.755 6         0.00000     -3381.600          22.200           0.000 0         0.00000         0.000           0.000  
G23  21482755.796 3   -347692.08202      2529.016          35.500           0.000 0         0.00000         0.000           0.000  
G26  22575821.573 5         0.00000       292.100          28.300    22573458.622 3         0.00000       219.523          26.700  
G29  20635721.285 3    139766.14102     -1064.803          38.900           0.000 0         0.00000         0.000           0.000  
J02  43309441.902 4         0.00000       185.907          28.700    43307091.829 3         0.00000       139.080          28.400  
R18  22505911.185 3    312571.21102     -2311.752          37.200  
R09  23022006.906 5         0.00000     -3393.850          26.900  
R05  21580011.164 5         0.00000      4043.900          27.100  
R19  20193944.732 4     48152.96407      -371.650          30.700  
R03  22043907.317 3    402965.20701     -3005.528          40.000  
R04  19796351.275 4   -102021.70603       699.439          33.400  
C35  24150029.675 3    -24877.59902      2383.219          38.400  
C32  24900931.844 3    332138.20702     -2463.005          36.400  
C30  23678158.441 2     18871.67701     -1992.319          42.300  
C29  21597972.028 3    -15575.81401       400.916          40.200  
C19  23402279.538 4    -31174.27503      2983.793          34.600  
E01  25753989.786 4     23910.32607     -1164.748          35.400    25752073.805 2    114828.37709      -869.922          30.300  
E07  25637780.637 4    -46354.57809      2367.379          32.600    25635857.170 2   -238300.07009      1767.832          33.500  
E08  23761639.253 2    -11251.09103        69.308          43.500    23759715.489 3         0.00000        51.839          24.100  
E13  24547298.749 2    154065.89702     -1143.708          43.900    24545388.474 2    115038.93709      -854.076          31.200  
E21  26622611.142 6         0.00000     -2851.750          22.500           0.000 0         0.00000         0.000           0.000  
E26  23528231.947 4    -66900.20607       752.928          35.100    23526329.157 2    -75314.04009       562.234          33.400  
E33  27304046.595 6         0.00000      1878.350          22.700    27302142.025 4         0.00000      1402.550          22.300  
> 2021 07 14 20 51 26.4352186  0 29
G05  22245796.546 3    396325.32902     -2911.520          38.500           0.000 0         0.00000         0.000           0.000  
G10  24263992.492 4         0.00000      3410.386          29.100    24261621.723 3         0.00000      2546.704          26.000  
G13  23393048.635 4   -133608.67203       945.462          35.200           0.000 0         0.00000         0.000           0.000  
G15  22198168.533 2   -272199.21901      1954.503          41.700           0.000 0         0.00000         0.000           0.000  
G16  23839648.550 4   -164833.74407      2194.383          30.000           0.000 0         0.00000         0.000           0.000  
G18  20734239.979 5         0.00000       815.150          27.400           0.000 0         0.00000         0.000           0.000  
G20  24934654.302 5         0.00000     -3391.200          23.500           0.000 0         0.00000         0.000           0.000  
G23  21482281.831 3   -350220.58102      2527.616          36.200           0.000 0         0.00000         0.000           0.000  
G26  22575751.737 4    -44202.49509       292.283          30.300    22573405.556 3         0.00000       218.091          27.300  
G29  20635925.435 3    140831.36101     -1066.248          40.400           0.000 0         0.00000         0.000           0.000  
J02  43309424.801 4         0.00000       185.058          28.500    43307054.346 3         0.00000       138.157          24.200  
R18  22506347.074 3    314883.25802     -2312.913          36.300  
R09  23022628.378 4         0.00000     -3393.604          29.300  
R05  21579228.417 5         0.00000      4041.950          27.400  
R19  20194006.785 4     48524.78609      -372.839          31.100  
R03  22044462.844 3    405971.24602     -3007.092          38.900  
R04  19796210.679 4   -102720.57903       697.614          35.100  
C35  24149573.700 3    -27260.70902      2382.297          39.100  
C32  24901405.513 3    334601.53602     -2464.307          36.400  
C30  23678539.188 3     20864.25001     -1993.418          41.400  
C29  21597898.283 3    -15976.42001       399.651          40.600  
C19  23401710.225 4    -34157.72103      2982.517          34.600  
E01  25754211.334 4     25075.34307     -1166.020          35.200    25752293.852 3         0.00000      -870.450          27.200  
E07  25637333.947 4    -48721.68409      2366.199          30.200    25635407.774 2   -240067.74209      1767.052          33.100  
E08  23761624.264 2    -11320.02803        67.941          43.100    23759730.182 3         0.00000        50.991          24.400  
E13  24547516.999 2    155209.74103     -1144.693          43.600    24545605.223 2    115893.07509      -854.839          31.300  
E21  26623169.654 6         0.00000     -2851.350          22.500    26621259.082 4         0.00000     -2131.000          22.500  
E26  23528089.535 4    -67652.86507       751.894          35.200    23526185.560 2    -75876.17409       561.549          33.000  
E33         0.000 0         0.00000         0.000           0.000    27301781.958 3         0.00000      1401.650          22.700  
> 2021 07 14 20 51 27.4352186  0 30
G05  22246344.274 3    399236.58102     -2910.080          37.400           0.000 0         0.00000         0.000           0.000  
G10  24263333.537 4         0.00000      3410.982          29.100    24260974.180 3         0.00000      2546.507          24.300  
G13  23392867.257 4   -134553.88609       946.511          33.100           0.000 0         0.00000         0.000           0.000  
G15  22197791.992 2   -274153.90001      1955.895          41.500           0.000 0         0.00000         0.000           0.000  
G16  23839235.730 4         0.00000      2193.398          28.800           0.000 0         0.00000         0.000           0.000  
G18  20734077.500 4   -112259.44609       813.443          31.400           0.000 0         0.00000         0.000           0.000  
G23  21481801.548 3   -352747.99302      2527.008          37.800           0.000 0         0.00000         0.000           0.000  
G26  22575703.470 4         0.00000       290.727          28.700    22573352.193 3         0.00000       217.394          24.900  
G29  20636128.398 3    141897.58301     -1065.485          40.400           0.000 0         0.00000         0.000           0.000  
J02  43309378.034 4    -24085.18709       184.803          30.200    43307019.864 3         0.00000       137.400          22.900  
R10  22517190.272 6         0.00000     -1183.850          20.400  
R18  22506775.790 3    317195.74702     -2310.750          37.900  
R09  23023237.844 5         0.00000     -3395.500          25.400  
R05  21578496.625 4   -558413.39609      4042.726          30.000  
R20  21593618.146 5         0.00000      2360.950          25.600  
R19  20194089.813 4     48897.43604      -371.583          31.700  
R03  22045030.343 3    408978.19402     -3005.952          38.000  
R04  19796088.056 4   -103418.02103       698.294          34.400  
C35  24149113.207 3    -29642.88002      2381.926          36.600  
C32  24901880.089 4    337065.53303     -2462.727          35.800  
C30  23678925.326 2     22857.38801     -1991.717          43.000  
C29  21597818.536 3    -16376.11901       400.152          40.200  
C19  23401137.020 3    -37140.26202      2982.579          37.100  
E01  25754433.476 4     26241.85907     -1167.298          34.900    25752515.993 3         0.00000      -871.494          29.100  
E07  25636874.954 6         0.00000      2366.600          24.500    25634957.192 2   -241834.85209      1767.834          34.400  
E08  23761609.885 2    -11388.08403        69.459          42.900    23759712.488 3         0.00000        50.016          26.600  
E13  24547734.655 2    156354.11003     -1143.060          43.200    24545823.769 2    116747.60809      -853.401          32.900  
E21  26623725.478 6         0.00000     -2851.450          24.000    26621803.808 3         0.00000     -2130.150          24.200  
E26  23527947.735 4    -68404.75306       751.889          36.400    23526041.962 2    -76437.57609       561.430          33.700  
E33  27303340.280 6         0.00000      1877.100          21.200           0.000 0         0.00000         0.000           0.000  
> 2021 07 14 20 51 28.4352186  0 32
G05  22246901.895 4    402145.54503     -2907.459          34.300           0.000 0         0.00000         0.000           0.000  
G10  24262680.899 6         0.00000      3414.450          21.900           0.000 0         0.00000         0.000           0.000  
G13  23392692.179 4   -135502.45109       950.293          31.600           0.000 0         0.00000         0.000           0.000  
G15  22197421.140 2   -276110.94001      1959.205          41.400           0.000 0         0.00000         0.000           0.000  
G16  23838799.841 5         0.00000      2188.700          25.800           0.000 0         0.00000         0.000           0.000  
G18  20733925.491 4   -113071.29109       810.805          32.700           0.000 0         0.00000         0.000           0.000  
G23  21481322.784 3   -355273.32602      2524.597          35.400           0.000 0         0.00000         0.000           0.000  
G25  24283159.410 5         0.00000     -3622.450          25.700    24280797.052 3         0.00000     -2706.000          25.100  
G26  22575650.701 4    -44782.87309       286.946          30.300    22573295.532 3         0.00000       213.241          26.900  
G29  20636333.159 3    142962.85702     -1064.324          38.000           0.000 0         0.00000         0.000           0.000  
J02  43309335.770 5         0.00000       180.000          27.400    43306988.384 3         0.00000       133.702          24.800  
R10  22517492.458 5         0.00000     -1195.750          27.000  
R18  22507207.491 3    319504.52202     -2306.294          36.700  
R09  23023877.901 5         0.00000     -3396.350          24.100  
R05  21577719.253 5         0.00000      4040.600          25.100  
R20  21593175.364 5         0.00000      2354.700          24.000  
R19  20194147.678 4     49268.41704      -370.033          31.100  
R03  22045594.857 4    411983.35803     -3003.992          35.800  
R04  19795965.748 4   -104116.55509       699.592          32.600  
C35  24148653.934 4    -32022.91609      2377.983          35.700  
C32  24902356.462 5         0.00000     -2462.000          27.300  
C30  23679306.352 2     24847.55501     -1987.991          42.600  
C29  21597741.493 3    -16775.85902       400.014          39.300  
C19  23400562.925 3    -40121.88502      2981.527          36.800  
E01  25754652.930 4     27411.92707     -1172.087          35.300    25752740.246 2    117438.14109      -875.130          32.100  
E07  25636418.665 4     -1281.92009      2366.339          30.500    25634506.296 2   -243603.34409      1769.719          34.300  
E08  23761598.490 2    -11459.10102        72.867          44.000    23759685.510 2     -9451.46509        53.231          30.800  
E13  24547951.701 2    157495.88203     -1140.229          42.900    24546039.925 2    117600.20909      -851.589          30.800  
E21  26624271.705 6         0.00000     -2852.950          23.600    26622348.534 3         0.00000     -2131.665          27.200  
E26  23527805.934 4    -69155.23307       749.799          35.000    23525899.550 2    -76998.03109       559.849          33.600  
E31  27595416.091 6         0.00000      1332.950          20.700           0.000 0         0.00000         0.000           0.000  
E33  27302968.538 5         0.00000      1871.750          26.600           0.000 0         0.00000         0.000           0.000  
> 2021 07 14 20 51 29.4352186  0 32
G05  22247455.312 3    405051.32202     -2905.202          38.900           0.000 0         0.00000         0.000           0.000  
G10  24262063.318 5         0.00000      3409.250          25.300    24259677.577 3         0.00000      2543.500          24.800  
G13  23392502.408 4   -136456.17709       955.784          33.500           0.000 0         0.00000         0.000           0.000  
G15  22197052.103 3   -278072.91802      1964.079          39.000           0.000 0         0.00000         0.000           0.000  
G16  23838394.525 5         0.00000      2186.200          26.200           0.000 0         0.00000         0.000           0.000  
G18  20733765.717 4   -113881.64509       809.057          32.000           0.000 0         0.00000         0.000           0.000  
G20  24936586.460 5         0.00000     -3380.450          23.700           0.000 0         0.00000         0.000           0.000  
G23  21480845.521 4   -357797.89809      2523.772          35.100           0.000 0         0.00000         0.000           0.000  
G25  24283829.149 4    507858.70409     -3622.338          32.900    24281487.470 3         0.00000     -2703.933          27.100  
G26  22575597.931 4    -45068.33209       283.526          30.800    22573239.168 2    -33660.04909       210.204          31.300  
G29  20636531.027 3    144025.63402     -1061.930          37.100           0.000 0         0.00000         0.000           0.000  
J02  43309283.611 6         0.00000       175.650          22.700           0.000 0         0.00000         0.000           0.000  
R10  22517743.689 5         0.00000     -1202.100          28.200  
R18  22507650.273 3    321807.62302     -2300.794          39.300  
R05  21576973.082 4         0.00000      4045.017          29.700  
R20  21592738.254 5         0.00000      2355.450          24.300  
R19  20194209.452 4     49637.18007      -368.481          30.300  
R03  22046144.679 4    414985.85009     -3003.083          32.600  
R04  19795805.049 4   -104818.20803       702.532          34.900  
C35  24148198.239 3    -34399.21409      2373.803          36.100  
C32  24902831.317 4    341987.18509     -2457.752          35.000  
C30  23679689.489 2     26832.55601     -1982.981          44.900  
C29  21597664.747 3    -17176.33301       400.143          40.400  
C19  23399998.114 4    -43105.58509      2983.870          32.000  
E01  25754875.664 4     28585.18009     -1175.377          34.100    25752964.185 2    118314.61109      -877.899          30.500  
E07  25635963.895 3     -3654.17504      2374.536          37.800    25634054.806 2   -245375.01609      1773.097          33.500  
E08  23761583.500 3    -11534.48203        76.627          42.000    23759672.614 2     -9507.93009        57.531          32.800  
E13  24548167.560 3    158633.92003     -1136.958          41.100    24546256.081 2    118449.91609      -848.794          29.900  
E21  26624799.330 5         0.00000     -2854.050          27.700           0.000 0         0.00000         0.000           0.000  
E26  23527666.525 4    -69904.15008       747.783          33.300    23525753.248 2    -77557.54609       558.644          31.200  
E31  27595160.061 6         0.00000      1328.350          24.400    27593241.689 3         0.00000       991.455          27.200  
E33  27302620.179 5         0.00000      1867.400          28.900           0.000 0         0.00000         0.000           0.000  
> 2021 07 14 20 51 30.4352186  0 33
G05  22248007.524 3    407957.31202     -2907.348          38.000           0.000 0         0.00000         0.000           0.000  
G10  24261384.295 5         0.00000      3400.150          24.800    24259030.924 4         0.00000      2542.150          21.700  
G13  23392329.424 4   -137412.82409       957.158          33.200           0.000 0         0.00000         0.000           0.000  
G15  22196675.859 2   -280038.16101      1966.288          43.200           0.000 0         0.00000         0.000           0.000  
G16  23837987.394 5         0.00000      2178.400          25.300           0.000 0         0.00000         0.000           0.000  
G18  20733609.223 4   -114687.90604       804.586          32.100           0.000 0         0.00000         0.000           0.000  
G20  24937240.599 5         0.00000     -3375.850          24.100           0.000 0         0.00000         0.000           0.000  
G23  21480374.539 5         0.00000      2523.850          27.300           0.000 0         0.00000         0.000           0.000  
G25  24284518.677 4    511479.86209     -3619.862          31.600    24282170.105 2    378033.10309     -2703.826          32.500  
G26  22575538.269 4    -45347.56803       275.608          34.500    22573186.102 2    -33867.82205       205.875          32.200  
G29  20636734.287 3    145087.52201     -1061.820          39.900           0.000 0         0.00000         0.000           0.000  
J02  43309265.620 5         0.00000       169.500          25.500    43306923.329 4         0.00000       129.150          20.600  
R10  22517935.554 5         0.00000     -1200.850          25.100  
R18  22508077.193 3    324107.54802     -2299.008          37.700  
R09  23025162.813 6         0.00000     -3397.400          22.900  
R05  21576206.493 4   -570541.88409      4047.550          30.400  
R20  21592298.770 6         0.00000      2346.000          22.100  
R19  20194290.089 5         0.00000      -369.500          27.600  
R03  22046717.866 4    417990.60309     -3004.977          30.900  
R04  19795684.537 3   -105520.47401       702.209          41.700  
C35  24147747.361 4    -36770.81109      2369.761          31.700  
C32  24903302.002 3    344445.51609     -2459.626          36.000  
C30  23680070.217 2     28814.44001     -1980.935          44.800  
C29  21597588.298 3    -17575.27502       397.658          37.900  
C19  23399421.315 4    -46089.01909      2985.148          32.500  
E01  25755099.010 4     29763.47909     -1180.057          33.000           0.000 0         0.00000         0.000           0.000  
E07  25635512.702 3     -6030.17904      2377.399          39.800    25633602.724 1   -247149.35907      1775.380          37.100  
E08  23761570.011 3    -11611.17305        76.709          36.900    23759656.734 2     -9565.49309        57.299          30.000  
E13  24548386.107 3    159771.00904     -1137.575          40.300    24546473.720 3    119299.03109      -849.701          28.700  
E21  26625344.649 5         0.00000     -2854.250          27.100           0.000 0         0.00000         0.000           0.000  
E26  23527525.928 5         0.00000       745.350          26.700    23525615.949 3    -78114.35209       551.598          27.600  
E31  27594898.343 5         0.00000      1320.400          25.700           0.000 0         0.00000         0.000           0.000  
E33  27302263.741 5         0.00000      1861.700          28.000           0.000 0         0.00000         0.000           0.000  
> 2021 07 14 20 51 31.4352186  0 31
G05  22248563.034 3    410865.58201     -2909.271          39.600           0.000 0         0.00000         0.000           0.000  
G10  24260734.344 5         0.00000      3411.400          27.800    24258381.863 4         0.00000      2543.100          22.100  
G13  23392146.546 3   -138370.06609       957.120          40.200           0.000 0         0.00000         0.000           0.000  
G15  22196302.616 2   -282006.02401      1969.307          41.500           0.000 0         0.00000         0.000           0.000  
G16  23837557.490 5         0.00000      2176.850          23.700           0.000 0         0.00000         0.000           0.000  
G18  20733462.328 4   -115491.94209       801.685          34.000           0.000 0         0.00000         0.000           0.000  
G20  24937867.167 6         0.00000     -3382.450          22.900           0.000 0         0.00000         0.000           0.000  
G23  21479890.976 4         0.00000      2523.731          28.800           0.000 0         0.00000         0.000           0.000  
G25  24285206.094 3    515096.91509     -3615.090          36.800    24282859.929 2    380734.24509     -2701.164          32.200  
G26  22575486.721 4    -45620.91309       270.812          31.900    22573133.646 2    -34072.13909       201.880          30.700  
G29  20636935.750 2    146148.81801     -1061.014          41.700           0.000 0         0.00000         0.000           0.000  
J02  43309231.435 6         0.00000       169.250          22.100    43306891.256 3         0.00000       122.048          23.400  
R10  22518181.078 5         0.00000     -1212.350          26.000  
R18  22508515.787 3    326405.45502     -2297.180          36.900  
R05  21575436.346 3   -574592.37809      4052.497          36.500  
R19  20194365.038 5         0.00000      -375.850          24.800  
R03  22047285.382 4    420996.56209     -3008.957          31.200  
R04  19795551.724 3   -106223.14402       702.925          38.600  
C35  24147293.166 4    -39137.41409      2363.174          34.200  
C32  24903776.578 4    346905.37509     -2460.998          34.100  
C30  23680449.166 2     30793.75401     -1978.162          45.200  
C29  21597513.052 4    -17972.00103       395.594          34.900  
C19  23398845.405 3    -49076.00809      2988.143          37.500  
E01  25755325.653 4     30944.45209     -1182.532          31.200    25753415.378 2    120071.90609      -880.237          29.900  
E07  25635058.508 3     -8409.89704      2381.709          39.900    25633149.733 2   -248926.55009      1778.457          34.700  
E08  23761553.224 3    -11688.28504        76.916          38.800    23759642.338 2     -9622.95509        57.385          31.700  
E13  24548601.355 3    160908.93004     -1138.076          39.100    24546691.080 2    120148.76409      -849.817          30.600  
E21  26625884.873 4      1742.38309     -2852.282          33.300    26623979.396 2    298908.48509     -2129.039          32.900  
E26  23527385.332 5         0.00000       740.050          27.600    23525470.851 2         0.00000       552.000          33.600  
E31  27594650.114 5         0.00000      1312.100          26.200           0.000 0         0.00000         0.000           0.000  
E33  27301911.473 5         0.00000      1856.800          29.200    27299997.900 3         0.00000      1387.450          26.900  
> 2021 07 14 20 51 32.4352186  0 31
G05  22249117.358 3    413776.41409     -2912.771          37.800           0.000 0         0.00000         0.000           0.000  
G10  24260081.986 3   -482626.15709      3410.433          36.000    24257726.224 3         0.00000      2546.781          25.200  
G13  23391958.572 3   -139327.46609       956.560          36.100           0.000 0         0.00000         0.000           0.000  
G15  22195926.982 2   -283976.47801      1970.991          43.700           0.000 0         0.00000         0.000           0.000  
G16  23837181.857 6         0.00000      2170.400          21.500           0.000 0         0.00000         0.000           0.000  
G18  20733310.929 4   -116291.02009       797.159          31.800           0.000 0         0.00000         0.000           0.000  
G23  21479418.512 5         0.00000      2524.800          26.400           0.000 0         0.00000         0.000           0.000  
G25  24285891.416 3    518709.43609     -3610.293          37.400    24283547.049 2         0.00000     -2696.570          29.900  
G26  22575435.155 4    -45888.97709       266.248          32.400    22573085.972 2         0.00000       199.066          29.600  
G29  20637136.899 2    147209.72001     -1061.135          42.800           0.000 0         0.00000         0.000           0.000  
J02  43309218.242 5         0.00000       159.700          26.300           0.000 0         0.00000         0.000           0.000  
R10  22518400.846 4    163296.13207     -1215.990          30.800  
R18  22508942.985 3    328701.96902     -2296.989          39.700  
R09  23026419.246 6         0.00000     -3395.250          23.100  
R05  21574682.653 3   -578646.95101      4056.445          41.500  
R19  20194422.589 5         0.00000      -376.800          27.600  
R03  22047843.300 5         0.00000     -3017.100          24.800  
R04  19795426.117 4   -106925.85903       702.070          34.100  
C35  24146835.988 4    -41497.16709      2357.479          34.400  
C32  24904251.137 5         0.00000     -2461.700          28.300  
C30  23680829.895 3     32771.00301     -1977.160          41.800  
C29  21597433.008 4    -18366.33204       392.894          33.500  
C19  23398267.105 3    -52065.91209      2992.051          36.900  
E01  25755549.609 4     32128.55609     -1184.585          30.000    25753640.817 2    120954.57109      -885.084          30.800  
E07  25634605.535 3    -10793.63103      2385.007          42.500    25632701.245 3   -250707.10709      1781.685          29.000  
E08  23761539.421 3    -11764.52304        75.296          39.100    23759626.755 2     -9679.92009        55.996          31.200  
E13  24548813.306 4    162047.11609     -1140.090          30.900    24546905.421 2    120999.23209      -851.434          35.400  
E21  26626436.492 5         0.00000     -2848.650          28.600    26624519.620 1    301036.35806     -2126.900          38.000  
E26  23527242.624 4      -400.65608       735.708          34.300    23525331.441 2    -79192.68109       549.351          34.400  
E31  27594404.589 5         0.00000      1307.000          27.600           0.000 0         0.00000         0.000           0.000  
E33  27301554.721 5         0.00000      1854.550          28.200    27299646.243 3         0.00000      1384.000          27.300  
> 2021 07 14 20 51 33.4352186  0 25
G05  22249671.367 3    416691.09009     -2916.602          38.200           0.000 0         0.00000         0.000           0.000  
G10  24259430.534 4   -486038.16009      3413.103          33.400    24257079.868 2   -362886.70204      2548.749          34.900  
G13  23391777.508 3   -140282.40609       954.181          39.700           0.000 0         0.00000         0.000           0.000  
G15  22195547.144 3   -285947.63502      1971.556          39.200           0.000 0         0.00000         0.000           0.000  
G16  23836742.670 4   -180102.48909      2159.677          30.300           0.000 0         0.00000         0.000           0.000  
G18  20733155.326 4   -117086.92509       795.142          32.400           0.000 0         0.00000         0.000           0.000  
G23  21478920.552 3   -367891.29009      2527.863          36.700           0.000 0         0.00000         0.000           0.000  
G25  24286580.054 3    522317.69109     -3606.070          38.100    24284233.279 1    386128.44503     -2692.892          36.800  
G26  22575388.389 4    -46154.02309       264.582          32.600    22573032.016 2    -34469.94009       197.297          31.100  
G29  20637339.269 2    148271.13101     -1061.274          43.100           0.000 0         0.00000         0.000           0.000  
J02  43309182.871 4    -25107.12509       154.918          29.700    43306828.610 3         0.00000       114.990          26.900  
R10  22518629.270 5         0.00000     -1216.400          27.000  
R18  22509365.996 3    330999.56302     -2297.741          38.200  
R09  23027059.896 4    479210.84809     -3403.814          30.200  
R05  21573921.492 3   -582705.10302      4059.936          39.200  
R19  20194501.743 5         0.00000      -381.150          26.700  
R03  22048390.120 5         0.00000     -3013.100          28.200  
R04  19795288.208 3   -107627.23102       701.312          36.800  
E01  25755775.642 4     33314.51509     -1185.551          33.100    25753863.569 2    121839.88209      -885.109          30.300  
E07  25634148.636 3    -13179.62704      2387.201          38.700    25632246.458 3   -252489.11409      1782.835          26.300  
E08  23761524.134 3    -11838.26504        72.905          38.400    23759613.562 1     -9734.82308        54.578          35.700  
E13  24549032.149 5         0.00000     -1142.450          28.800    24547124.282 1    121851.62106      -852.936          39.200  
E21  26626966.524 4      7439.55908     -2844.867          33.000    26625062.549 1    303161.98207     -2124.205          37.100  
E26  23527101.731 4     -1134.67706       733.073          36.200    23525191.438 2    -79740.80409       547.705          34.500  
E33  27301209.660 5         0.00000      1851.700          25.600    27299293.382 3         0.00000      1382.576          27.100  
> 2021 07 14 20 51 34.4352186  0 29
G05  22250227.785 3    419609.74009     -2921.824          37.800           0.000 0         0.00000         0.000           0.000  
G10  24258779.693 3   -489453.85309      3417.609          38.300    24256431.714 2   -365437.55605      2551.957          33.900  
G13  23391599.429 3   -141234.75209       949.135          40.000           0.000 0         0.00000         0.000           0.000  
G15  22195172.993 3   -287918.72402      1969.171          38.600           0.000 0         0.00000         0.000           0.000  
G16  23836340.041 5         0.00000      2164.150          25.000           0.000 0         0.00000         0.000           0.000  
G18  20733007.226 4   -117881.91009       794.395          34.300           0.000 0         0.00000         0.000           0.000  
G23  21478440.881 3   -370420.94009      2530.680          35.400           0.000 0         0.00000         0.000           0.000  
G25  24287260.874 3    525921.28509     -3602.430          37.800    24284919.195 2    388819.25905     -2690.029          32.900  
G26  22575333.211 4    -46420.43709       267.213          31.000    22572982.545 3         0.00000       197.867          29.100  
G29  20637543.122 3    149332.76201     -1063.272          40.200           0.000 0         0.00000         0.000           0.000  
J02  43309161.582 4    -25260.92209       154.276          30.200    43306800.724 2    -18731.74305       115.200          32.200  
R10  22518866.104 4    165732.36607     -1217.838          30.900  
R18  22509793.492 3    333298.55102     -2302.025          38.800  
R09  23027698.748 4    482611.56009     -3398.126          30.900  
R05  21573154.014 4   -586766.73309      4061.761          34.000  
R19  20194588.680 5         0.00000      -381.450          24.500  
R03  22048952.820 4    430055.42704     -3028.836          32.600  
R04  19795164.085 3   -108327.47502       698.138          38.900  
C32  24905196.380 4    354303.55609     -2476.099          35.500  
C30  23681590.777 3     36724.49009     -1976.342          41.900  
C29  21597287.299 3    -19148.21302       389.078          38.600  
E01  25756005.880 5         0.00000     -1184.450          26.900    25754089.619 2    122724.20309      -883.647          33.300  
E07  25633696.850 3    -15567.63903      2386.991          42.600    25631789.280 3   -254272.18009      1782.789          29.200  
E08  23761513.647 3    -11909.50804        68.403          39.200    23759599.463 2     -9788.09509        51.007          35.400  
E13  24549252.510 4    164339.77406     -1145.967          36.100    24547341.921 1    122705.63906      -855.833          39.400  
E21  26627507.062 3     10281.71404     -2840.602          39.100    26625602.772 3    305284.41109     -2120.898          29.400  
E26  23526963.525 3     -1867.59604       732.452          37.800    23525049.952 3         0.00000       547.800          23.400  
E31  27593910.225 6         0.00000      1299.700          22.200           0.000 0         0.00000         0.000           0.000  
E33  27300842.421 5         0.00000      1854.650          26.800    27298942.929 2   -200210.74209      1384.699          31.700  
> 2021 07 14 20 51 35.4352186  0 30
G05  22250783.592 3    422535.24609     -2927.556          37.800           0.000 0         0.00000         0.000           0.000  
G10  24258132.133 3   -492872.21609      3419.766          40.900    24255784.468 3         0.00000      2553.250          26.300  
G13  23391421.349 4   -142179.42009       941.755          33.200           0.000 0         0.00000         0.000           0.000  
G15  22194798.250 3   -289884.49302      1963.507          38.700           0.000 0         0.00000         0.000           0.000  
G16  23835910.434 4   -184418.08409      2158.913          29.500           0.000 0         0.00000         0.000           0.000  
G18  20732854.938 3   -118675.24809       793.632          36.200           0.000 0         0.00000         0.000           0.000  
G20  24940457.372 6         0.00000     -3399.100          23.200           0.000 0         0.00000         0.000           0.000  
G23  21477962.413 3   -372951.20709      2530.875          39.400           0.000 0         0.00000         0.000           0.000  
G25  24287956.702 4    529524.01609     -3602.478          33.700    24285605.128 3         0.00000     -2691.156          26.200  
G26  22575286.445 4    -46685.99209       266.371          32.900    22572931.276 2         0.00000       198.824          30.200  
G29  20637742.491 2    150398.69201     -1067.271          41.700           0.000 0         0.00000         0.000           0.000  
J02  43309124.413 5         0.00000       159.900          25.200    43306771.949 2    -18847.27905       116.515          33.700  
R10  22519090.357 5         0.00000     -1216.500          26.800  
R18  22510240.776 5         0.00000     -2309.800          28.200  
R09  23028320.831 4    486008.95509     -3395.609          33.700  
R05  21572396.134 3   -590827.14202      4060.057          38.700  
R19  20194639.635 6         0.00000      -391.550          22.900  
R03  22049521.540 4    433084.84609     -3032.820          33.600  
R04  19795025.600 3   -109022.29402       692.857          37.000  
C32  24905673.958 4         0.00000     -2480.000          31.200  
C30  23681967.911 3     38705.11509     -1985.458          40.200  
C29  21597210.553 4    -19535.19703       386.062          34.900  
E01  25756224.130 4       786.08109     -1181.739          30.400    25754314.762 2    123607.49609      -882.327          34.400  
E07  25633241.766 3    -17952.04103      2383.028          42.500    25631333.602 2   -256052.93909      1779.691          32.600  
E08  23761499.547 3    -11973.74604        61.671          38.700    23759588.678 1     -9835.98006        46.070          39.100  
E13  24549471.650 3    165489.41604     -1151.684          39.100    24547560.781 1    123564.26706      -860.115          38.500  
E21  26628051.474 3     13121.83904     -2839.095          38.300    26626143.904 1    307405.21207     -2120.272          36.800  
E26  23526824.115 4     -2598.87009       731.340          31.300    23524916.527 3         0.00000       546.087          28.100  
E31  27593659.011 5         0.00000      1300.600          27.900    27591748.125 3         0.00000       970.900          24.600  
E33  27300506.643 5         0.00000      1856.100          27.800    27298588.585 2   -201596.04209      1386.540          32.200  
> 2021 07 14 20 51 36.4352186  0 30
G05  22251337.008 4    425464.07209     -2929.065          32.900           0.000 0         0.00000         0.000           0.000  
G10  24257481.886 4   -496293.14109      3420.385          34.100    24255126.420 3         0.00000      2554.250          24.300  
G13  23391245.975 4         0.00000       941.929          28.800           0.000 0         0.00000         0.000           0.000  
G15  22194429.509 2   -291846.63501      1961.943          41.600           0.000 0         0.00000         0.000           0.000  
G16  23835497.021 4         0.00000      2160.335          28.400           0.000 0         0.00000         0.000           0.000  
G18  20732703.243 3   -119469.30502       795.786          38.800           0.000 0         0.00000         0.000           0.000  
G20  24941076.157 5         0.00000     -3404.700          25.900           0.000 0         0.00000         0.000           0.000  
G23  21477479.740 3   -375482.40001      2532.320          41.100           0.000 0         0.00000         0.000           0.000  
G25  24288634.817 4    533126.06009     -3601.738          30.900    24286292.247 3         0.00000     -2690.515          23.900  
G26  22575228.597 4    -46953.44309       268.492          30.600    22572874.912 3         0.00000       200.667          25.100  
G29  20637947.845 2    151466.60101     -1067.521          43.400           0.000 0         0.00000         0.000           0.000  
J02  43309106.718 5         0.00000       157.850          25.400    43306740.469 2         0.00000       118.551          29.500  
R10  22519287.317 5         0.00000     -1210.550          25.400  
R18  22510661.692 5         0.00000     -2309.750          28.200  
R09  23028975.266 4    489402.86909     -3392.881          32.600  
R05  21571648.462 3   -594887.09001      4059.991          41.600  
R20  21589713.957 6         0.00000      2334.450          22.600  
R03  22050093.838 3    436119.03302     -3032.435          38.500  
R04  19794897.271 3   -109713.97302       691.868          36.500  
C32  24906148.831 4    359268.41109     -2483.063          34.600  
C30  23682351.641 3     40691.92909     -1986.811          40.300  
C29  21597136.511 4    -19921.68609       386.795          33.400  
E01  25756449.273 4      1966.54609     -1179.198          32.500    25754538.997 3    124488.57509      -880.381          29.000  
E07  25632788.479 4    -20334.03907      2381.880          35.100    25630880.315 2   -257831.92809      1778.759          32.000  
E08  23761486.965 3    -12033.91804        60.067          37.900    23759576.690 1     -9880.83807        44.812          37.600  
E13  24549691.104 3    166642.02305     -1152.267          37.500    24547781.719 1    124425.04007      -860.443          37.500  
E21  26628589.011 3     15959.74204     -2837.501          37.900    26626683.534 1    309524.59108     -2118.894          36.200  
E26  23526686.817 3     -3331.18405       733.573          37.700    23524775.338 3         0.00000       547.566          28.800  
E31  27593407.170 5         0.00000      1303.050          24.900    27591497.802 3         0.00000       972.800          26.900  
E33         0.000 0         0.00000         0.000           0.000    27298236.021 3   -202983.85609      1388.937          25.800  
> 2021 07 14 20 51 37.4352186  0 31
G05  22251894.926 4    428390.00609     -2922.609          33.900           0.000 0         0.00000         0.000           0.000  
G10  24256828.340 4   -499713.19709      3419.576          29.600           0.000 0         0.00000         0.000           0.000  
G13  23391051.405 4   -144063.86809       944.990          31.200           0.000 0         0.00000         0.000           0.000  
G15  22194053.265 4   -293810.50709      1963.994          34.900           0.000 0         0.00000         0.000           0.000  
G16  23835092.612 4   -188740.77009      2164.266          30.800           0.000 0         0.00000         0.000           0.000  
G18  20732555.440 4   -120267.85309       799.306          35.000           0.000 0         0.00000         0.000           0.000  
G20  24941738.393 5         0.00000     -3401.550          24.900           0.000 0         0.00000         0.000           0.000  
G23  21476994.677 3   -378015.76601      2532.783          39.600           0.000 0         0.00000         0.000           0.000  
G25  24289319.250 4    536727.18903     -3601.692          34.400    24286976.977 2    396890.23209     -2689.958          30.500  
G26  22575188.723 4    -47223.52009       271.087          32.600    22572827.849 3         0.00000       201.906          26.300  
G29  20638146.900 2    152532.18701     -1064.475          41.600           0.000 0         0.00000         0.000           0.000  
J02  43309073.440 5         0.00000       166.900          24.400    43306710.489 3         0.00000       121.387          28.300  
R10  22519511.867 5         0.00000     -1210.350          28.700  
R18  22511096.988 4         0.00000     -2307.550          35.000  
R09  23029600.944 4    492793.80909     -3392.707          31.400  
R05  21570889.691 3   -598947.90201      4060.285          41.100  
R20  21589266.062 5         0.00000      2335.650          25.200  
R19  20194756.272 6         0.00000      -386.300          21.600  
R03  22050661.650 4    439148.54209     -3026.815          35.400  
R04  19794773.758 3   -110407.58402       694.634          36.800  
C32  24906630.300 4         0.00000     -2476.466          29.500  
C30  23682731.480 3     42676.62309     -1983.459          40.200  
C29  21597062.767 4    -20310.50809       390.839          35.100  
E01  25756673.525 5         0.00000     -1178.000          29.700    25754760.545 3    125367.78409      -879.163          27.300  
E07  25632338.804 5         0.00000      2384.100          27.000    25630426.714 3   -259611.34209      1779.556          25.900  
E08  23761475.867 3    -12096.31605        64.555          37.300    23759564.684 1     -9927.52106        48.346          38.600  
E13  24549909.947 3    167791.63604     -1147.337          38.000    24547998.764 1    125283.44006      -856.663          38.000  
E21  26629128.327 4     18796.51706     -2837.485          36.100    26627222.851 2    311642.94109     -2118.836          33.400  
E26  23526543.812 4     -4067.30008       737.637          34.600           0.000 0         0.00000         0.000           0.000  
E31  27593160.755 4      -712.71609      1306.280          32.200    27591253.167 3         0.00000       976.088          25.000  
E33  27299803.033 6         0.00000      1860.650          22.700    27297881.363 3   -204374.11009      1390.717          26.800  
> 2021 07 14 20 51 38.4352186  0 30
G05  22252449.546 3    431311.18209     -2921.445          39.600           0.000 0         0.00000         0.000           0.000  
G10  24256179.593 3   -503131.28009      3414.329          40.200    24253828.316 3         0.00000      2550.984          27.400  
G13  23390879.625 3   -145009.22409       944.020          37.400           0.000 0         0.00000         0.000           0.000  
G15  22193673.741 4   -295775.13709      1962.038          30.200           0.000 0         0.00000         0.000           0.000  
G16  23834688.779 4   -190905.68109      2165.145          31.200           0.000 0         0.00000         0.000           0.000  
G18  20732404.356 4         0.00000       803.050          29.000           0.000 0         0.00000         0.000           0.000  
G20  24942394.643 6         0.00000     -3400.750          21.100           0.000 0         0.00000         0.000           0.000  
G23  21476516.209 4   -380546.90609      2527.216          35.300           0.000 0         0.00000         0.000           0.000  
G25  24290004.869 3    540331.51902     -3609.161          36.200    24287663.800 3         0.00000     -2693.980          28.500  
G26  22575128.468 4    -47494.13209       268.791          31.000    22572778.691 2    -35468.71805       200.737          31.600  
G29  20638349.567 3    153596.93502     -1066.898          37.100           0.000 0         0.00000         0.000           0.000  
J02  43309005.402 5         0.00000       174.250          23.800    43306677.508 3         0.00000       121.233          26.500  
R10  22519780.181 4    170589.54607     -1214.165          30.200  
R18  22511528.689 3    342551.16402     -2307.221          38.500  
R09  23030233.200 5         0.00000     -3395.350          26.300  
R05  21570121.009 4   -603005.82303      4053.242          35.700  
R19  20194846.489 6         0.00000      -380.700          23.200  
R03  22051234.855 4    442175.05309     -3026.052          31.800  
R04  19794648.152 4   -111102.22409       692.105          34.600  
C32  24907098.576 4    364222.44809     -2475.179          33.800  
C30  23683113.710 4     44660.87309     -1986.337          33.200  
C29  21596990.506 4    -20701.83909       390.205          34.600  
E01  25756905.264 5         0.00000     -1181.150          26.200    25754988.393 2    126248.06109      -881.938          32.900  
E07  25631883.720 4     -1304.69909      2379.622          31.100           0.000 0         0.00000         0.000           0.000  
E08  23761465.379 3    -12162.07104        64.489          37.900    23759552.696 1     -9976.65907        48.142          37.500  
E13  24550129.104 3    168937.40304     -1146.643          37.800    24548217.014 1    126138.94006      -856.133          38.500  
E21  26629669.755 3     21636.75804     -2844.226          38.500    26627764.575 2    313763.66309     -2123.957          32.900  
E26  23526406.497 4     -4805.46408       737.402          33.200    23524499.519 3         0.00000       550.850          24.800  
E31  27592913.416 5         0.00000      1307.850          26.600    27591001.936 2         0.00000       976.711          29.800  
E33  27299440.592 5         0.00000      1861.250          28.000    27297527.019 2   -205764.59209      1389.228          30.800  
> 2021 07 14 20 51 39.4352186  0 30
G05  22253008.355 4    434233.66809     -2921.664          34.700           0.000 0         0.00000         0.000           0.000  
G10  24255526.938 3   -506540.77409      3408.406          38.600    24253180.773 2   -378168.02009      2545.242          33.400  
G13  23390701.249 3   -145950.28309       941.237          37.500           0.000 0         0.00000         0.000           0.000  
G15  22193309.781 4   -297732.64809      1955.863          30.400           0.000 0         0.00000         0.000           0.000  
G16  23834282.573 5         0.00000      2179.150          26.900           0.000 0         0.00000         0.000           0.000  
G18  20732251.457 4   -121870.61609       796.088          31.800           0.000 0         0.00000         0.000           0.000  
G20  24943046.688 6         0.00000     -3401.050          23.300           0.000 0         0.00000         0.000           0.000  
G23  21476035.054 3   -383070.18409      2521.828          37.100           0.000 0         0.00000         0.000           0.000  
G25  24290698.288 3    543946.09409     -3616.536          36.200    24288350.030 3         0.00000     -2700.629          27.200  
G26  22575092.782 4    -47761.43309       268.039          32.500    22572729.220 2    -35668.25205       200.309          33.700  
G29  20638552.530 4    154667.08009     -1070.095          33.100           0.000 0         0.00000         0.000           0.000  
J02  43309007.199 4         0.00000       163.757          28.700    43306649.029 3         0.00000       122.323          26.900  
R10  22519978.049 4    171804.41309     -1214.095          31.000  
R18  22511961.594 4    344861.42809     -2313.158          30.100  
R09  23030852.282 5         0.00000     -3400.850          28.800  
R05  21569362.553 4   -607053.61409      4043.429          30.300  
R03  22051827.238 5         0.00000     -3018.450          28.300  
R04  19794518.950 4         0.00000       688.050          30.400  
C32  24907578.841 4    366697.45309     -2473.317          34.200  
C30  23683494.160 4     46648.86909     -1989.607          34.100  
C29  21596914.370 4    -21090.94709       390.333          34.800  
E01  25757126.515 5         0.00000     -1184.250          28.600    25755211.738 2    127132.08109      -883.668          31.200  
E03  28689836.336 6         0.00000     -2057.400          23.900    28687938.346 3         0.00000     -1535.650          23.700  
E07  25631427.728 4     -3680.02609      2371.544          33.300    25629524.049 3         0.00000      1772.400          24.600  
E08  23761452.780 4    -12224.69709        62.348          35.100    23759541.301 3    -10023.13009        45.371          29.500  
E13  24550349.448 4    170085.11809     -1146.109          32.100    24548435.264 1    126996.60608      -857.378          35.900  
E21  26630213.277 3     24485.95504     -2850.595          38.300    26628309.598 3    315891.23809     -2128.310          27.900  
E26  23526265.307 4     -5541.88009       737.432          35.900           0.000 0         0.00000         0.000           0.000  
E31  27592661.888 5         0.00000      1310.650          27.200    27590753.410 3         0.00000       978.161          25.500  
E33  27299085.027 4     -2790.84609      1860.455          35.600    27297174.158 2   -207152.93609      1389.299          33.000  
> 2021 07 14 20 51 40.4352186  0 33
G05  22253564.772 4    437154.09709     -2918.085          34.300           0.000 0         0.00000         0.000           0.000  
G10  24254879.395 4   -509949.43109      3408.960          33.800    24252532.027 2   -380713.47709      2545.858          30.700  
G13  23390520.779 3   -146891.79309       941.013          36.500           0.000 0         0.00000         0.000           0.000  
G15  22192937.149 4   -299685.29909      1952.905          32.400           0.000 0         0.00000         0.000           0.000  
G16  23833857.765 5         0.00000      2181.350          24.200           0.000 0         0.00000         0.000           0.000  
G18  20732100.059 4   -122670.06909       801.640          32.100           0.000 0         0.00000         0.000           0.000  
G20  24943661.564 5         0.00000     -3393.250          26.200           0.000 0         0.00000         0.000           0.000  
G23  21475555.679 4   -385592.24509      2521.848          30.700           0.000 0         0.00000         0.000           0.000  
G25  24291380.016 5         0.00000     -3618.100          27.000    24289039.243 3         0.00000     -2701.366          26.300  
G26  22575025.634 4    -48031.60809       270.952          32.000    22572676.765 2    -35870.15909       202.607          32.400  
G29  20638771.967 4    155736.73509     -1071.351          31.100           0.000 0         0.00000         0.000           0.000  
J02  43308966.715 4         0.00000       180.563          28.400    43306618.457 3         0.00000       125.898          27.900  
R10  22520206.787 5         0.00000     -1198.650          25.500  
R18  22512398.687 3    347173.77509     -2310.081          37.200  
R09  23031523.504 5         0.00000     -3399.550          26.500  
R05  21568615.753 4   -611096.37209      4044.643          35.200  
R20  21587960.157 6         0.00000      2342.850          20.200  
R19  20195056.049 6         0.00000      -377.600          20.400  
R03  22052355.770 4         0.00000     -3019.237          29.300  
R04  19794390.935 4   -112485.13304       686.543          32.400  
C32  24908053.103 4    369170.91309     -2472.532          35.400  
C30  23683878.780 4     48638.72109     -1989.996          34.600  
C29  21596839.422 4    -21484.62509       392.859          32.500  
E01  25757345.359 4      1961.96709     -1180.922          31.500    25755435.380 2    128014.43509      -882.307          29.800  
E03  28690231.165 6         0.00000     -2053.600          22.300    28688329.580 4         0.00000     -1535.400          22.400  
E07  25630980.444 4     -6051.17009      2371.404          34.500    25629071.652 3         0.00000      1770.450          24.800  
E08  23761441.996 4    -12286.74109        61.402          31.700    23759529.609 3    -10069.47809        47.085          28.300  
E13  24550564.400 5         0.00000     -1146.650          28.700    24548652.624 2    127853.17309      -856.120          33.600  
E21  26630753.501 3     27336.48104     -2850.484          39.000    26628848.932 3         0.00000     -2129.750          27.800  
E26  23526124.693 4     -6281.70009       740.553          31.900    23524216.215 3         0.00000       558.150          23.600  
E31  27592413.066 4      -668.93409      1314.463          30.300    27590503.087 3         0.00000       981.595          26.600  
E33  27298727.681 4     -4653.47807      1864.516          35.300    27296819.203 3   -208544.33709      1392.440          28.100  
E15         0.000 0         0.00000         0.000           0.000    28495795.970 3         0.00000     -1453.310          27.400  
> 2021 07 14 20 51 41.4352186  0 29
G05  22254126.879 4    440072.78509     -2922.076          33.200           0.000 0         0.00000         0.000           0.000  
G10  24254227.944 3   -513358.22709      3409.606          35.600    24251882.966 2   -383259.72604      2546.054          35.000  
G13  23390343.607 3   -147831.16009       937.169          39.400           0.000 0         0.00000         0.000           0.000  
G15  22192570.206 4   -301636.97309      1948.568          32.200           0.000 0         0.00000         0.000           0.000  
G16  23833454.246 4         0.00000      2175.517          28.500           0.000 0         0.00000         0.000           0.000  
G18  20731939.674 4   -123470.11509       800.016          34.500           0.000 0         0.00000         0.000           0.000  
G23  21475080.806 3   -388112.86009      2521.566          35.900           0.000 0         0.00000         0.000           0.000  
G25  24292075.546 4    551181.28609     -3618.347          31.300    24289727.270 3         0.00000     -2700.876          28.400  
G26  22574988.151 4    -48302.86309       272.005          30.700    22572623.699 3         0.00000       202.758          28.900  
G29  20638966.240 4    156808.65809     -1072.378          29.700           0.000 0         0.00000         0.000           0.000  
J02  43308946.036 5         0.00000       174.900          25.100    43306584.568 3         0.00000       126.568          27.600  
R10  22520441.824 4    174225.80209     -1209.765          30.300  
R18  22512835.483 3    349485.71702     -2313.906          39.500  
R09  23032148.274 5         0.00000     -3401.550          27.500  
R05  21567857.891 4   -615139.98109      4043.411          34.300  
R03  22052940.666 4         0.00000     -3018.345          29.600  
R04  19794261.420 4   -113171.22109       683.688          30.800  
C32  24908526.475 4    371644.87909     -2476.394          31.800  
C30  23684259.823 3     50631.13109     -1993.576          37.800  
C29  21596766.270 4    -21876.25109       393.245          31.700  
E01  25757577.394 4      3143.14409     -1180.444          29.800    25755662.617 2    128896.73409      -881.456          30.900  
E07  25630527.751 3     -8422.09509      2369.221          41.000    25628619.866 3         0.00000      1769.262          29.000  
E08  23761430.008 4    -12346.79109        59.258          35.200    23759517.028 2    -10114.80609        44.386          32.600  
E13  24550783.837 5         0.00000     -1150.200          29.600    24548874.172 2    128710.42409      -858.780          29.700  
E15  28498074.986 5         0.00000     -1949.000          28.900    28496165.915 3     37044.51709     -1454.848          28.700  
E21  26631298.227 3     30187.45305     -2849.976          37.400    26629390.656 2         0.00000     -2128.800          31.900  
E26  23525982.003 4     -7021.72709       739.893          35.400    23524076.509 3    -84134.62109       553.089          29.500  
E31  27592164.836 4     -1983.14909      1314.697          31.200    27590252.764 3         0.00000       982.514          25.700  
E33  27298376.932 4     -6518.72609      1865.778          30.300    27296463.951 3   -209936.64609      1393.197          28.600  
> 2021 07 14 20 51 42.4352186  0 29
G05  22254681.796 4         0.00000     -2925.650          29.000           0.000 0         0.00000         0.000           0.000  
G10  24253583.088 3   -516770.32401      3413.591          40.400    24251234.219 2   -385805.55209      2546.989          30.800  
G13  23390166.714 3   -148765.94209       930.974          36.400           0.000 0         0.00000         0.000           0.000  
G15  22192195.759 3   -303585.23509      1946.101          37.800           0.000 0         0.00000         0.000           0.000  
G16  23833044.131 5         0.00000      2177.950          27.200           0.000 0         0.00000         0.000           0.000  
G18  20731789.776 3   -124270.97209       801.326          37.600           0.000 0         0.00000         0.000           0.000  
G23  21474593.945 3   -390636.22101      2523.996          40.300           0.000 0         0.00000         0.000           0.000  
G25  24292762.073 4    554798.07809     -3615.211          30.000    24290415.298 3         0.00000     -2699.864          24.800  
G26  22574930.897 4    -48576.65009       274.547          31.800    22572573.634 2    -36276.57409       205.672          31.800  
G29  20639165.905 3    157883.18102     -1076.242          38.900           0.000 0         0.00000         0.000           0.000  
J02  43308899.863 5         0.00000       171.650          28.200    43306551.587 2    -19706.35709       129.601          31.700  
R10  22520670.875 5         0.00000     -1208.000          28.700  
R18  22513252.195 3    351802.26802     -2320.572          36.200  
R09  23032777.843 4    509794.42909     -3394.948          31.300  
R05  21567087.114 3   -619184.09102      4043.365          39.600  
R03  22053486.893 4    454265.75309     -3029.465          32.200  
R04  19794125.308 4   -113853.15309       680.528          32.800  
C32  24909009.445 5         0.00000     -2479.450          28.800  
C30  23684645.350 3     52625.91609     -1998.313          37.500  
C29  21596692.211 5         0.00000       388.200          28.500  
E01  25757795.941 5         0.00000     -1177.100          29.200    25755887.166 2    129776.32109      -877.978          32.700  
E07  25630078.966 3    -10790.56809      2366.109          38.000    25628168.691 2   -268469.85209      1767.339          32.100  
E08  23761417.705 4    -12403.74609        53.810          32.400    23759505.929 2    -10157.17709        39.796          34.300  
E13  24551008.683 5         0.00000     -1153.850          28.100    24549091.218 3    129569.59309      -859.963          29.000  
E15  28498434.740 6         0.00000     -1953.750          23.800    28496539.454 3     38501.44009     -1460.191          25.300  
E21  26631839.655 3     33035.23604     -2846.514          40.200    26629932.084 1    322230.63108     -2125.562          36.200  
E26  23525841.389 4     -7762.65309       741.918          36.000    23523931.410 2    -84687.92009       553.545          32.800  
E31  27591917.514 5         0.00000      1317.400          27.300    27590005.128 3         0.00000       982.833          27.700  
E33  27298030.667 6         0.00000      1865.850          23.400    27296112.295 3   -211331.63709      1396.812          24.600  
> 2021 07 14 20 51 43.4352186  0 30
G05  22255231.914 4         0.00000     -2927.139          29.100           0.000 0         0.00000         0.000           0.000  
G10  24252928.949 3   -520187.13202      3420.955          37.600    24250584.268 2   -388357.14209      2554.831          31.200  
G13  23389989.245 3   -149693.01509       927.380          36.600           0.000 0         0.00000         0.000           0.000  
G15  22191826.408 3   -305529.51609      1945.194          39.800           0.000 0         0.00000         0.000           0.000  
G16  23832608.818 4         0.00000      2179.226          28.500           0.000 0         0.00000         0.000           0.000  
G18  20731651.274 4         0.00000       807.642          28.800           0.000 0         0.00000         0.000           0.000  
G23  21474112.773 2   -393162.15701      2529.590          42.000           0.000 0         0.00000         0.000           0.000  
G25  24293451.583 5         0.00000     -3614.500          27.800    24291102.714 3         0.00000     -2697.850          22.600  
G26  22574871.234 4         0.00000       281.880          29.300    22572519.974 1    -36484.77503       211.586          37.200  
G29  20639371.853 3    158960.35801     -1075.539          39.900           0.000 0         0.00000         0.000           0.000  
J02  43308867.493 5         0.00000       182.500          26.900    43306519.514 2    -19838.87605       136.199          31.700  
R10  22520890.312 5         0.00000     -1194.750          26.400  
R18  22513679.707 4    354125.33009     -2322.059          31.500  
R09  23033419.697 3    513185.59109     -3386.438          36.700  
R05  21566337.942 3   -623227.41502      4045.619          38.300  
R03  22054078.682 5         0.00000     -3023.200          27.900  
R04  19794003.890 3   -114532.01209       679.567          37.300  
C32  24909488.209 5         0.00000     -2474.800          28.800  
C30  23685028.191 2     54626.75209     -1999.957          42.300  
C29  21596613.965 4    -22663.49909       393.258          35.700  
E01  25758013.894 5         0.00000     -1165.100          28.400    25756109.621 1    130651.65404      -871.886          41.000  
E03  28691416.838 5         0.00000     -2064.300          27.400           0.000 0         0.00000         0.000           0.000  
E07  25629622.678 4    -13155.23109      2364.775          32.600    25627719.592 3   -270235.58009      1766.395          27.800  
E08  23761410.516 4    -12453.48709        51.702          33.200    23759496.035 2    -10194.97009        38.287          34.200  
E13  24551231.138 4    174684.06209     -1152.219          31.200    24549312.469 3         0.00000      -860.650          22.700  
E15  28498800.479 6         0.00000     -1958.100          24.000    28496914.791 3     39964.32309     -1462.521          24.300  
E21  26632377.488 4     35879.27109     -2840.346          34.800    26630475.310 2    324354.31309     -2121.144          30.700  
E26  23525698.402 4     -8505.00409       746.736          32.700    23523790.220 3         0.00000       557.400          28.200  
E31  27591662.689 6         0.00000      1321.150          24.400    27589753.007 2         0.00000       988.395          30.600  
E33         0.000 0         0.00000         0.000           0.000    27295751.337 3   -212731.52709      1403.685          25.500  
> 2021 07 14 20 51 44.4352186  0 28
G05  22255794.631 5         0.00000     -2923.050          27.300           0.000 0         0.00000         0.000           0.000  
G10  24252278.388 3   -523612.84702      3428.952          38.400    24249932.520 3         0.00000      2558.450          25.100  
G13  23389818.966 4   -150622.47409       929.000          33.400           0.000 0         0.00000         0.000           0.000  
G15  22191453.165 4   -307476.65809      1946.894          34.800           0.000 0         0.00000         0.000           0.000  
G16  23832207.410 5         0.00000      2188.150          27.500           0.000 0         0.00000         0.000           0.000  
G18  20731485.794 3   -125886.79209       815.180          37.200           0.000 0         0.00000         0.000           0.000  
G23  21473627.709 2   -395695.77601      2536.165          42.700           0.000 0         0.00000         0.000           0.000  
G25  24294141.111 4         0.00000     -3608.379          28.500           0.000 0         0.00000         0.000           0.000  
G26  22574825.968 4    -49140.04309       291.444          30.900    22572465.111 1    -36700.51702       218.788          42.800  
G29  20639585.007 4    160034.14109     -1074.547          29.500           0.000 0         0.00000         0.000           0.000  
J02  43308841.405 5         0.00000       192.700          25.200    43306486.533 3         0.00000       145.158          24.300  
R10  22521112.750 4         0.00000     -1188.742          29.100  
R18  22514145.576 4    356446.08709     -2321.532          32.000  
R09  23034061.551 4    516566.09309     -3376.813          34.900  
R05  21565590.252 4   -627275.83003      4049.722          34.200  
R03  22054625.205 6         0.00000     -3013.350          23.700  
R04  19793887.584 4   -115213.31709       681.764          33.700  
C32  24909966.083 5         0.00000     -2477.150          28.300  
C30  23685410.124 3     56625.44209     -1999.211          36.400  
C29  21596543.518 3    -23057.67409       395.820          36.800  
E01  25758242.038 4      6686.05909     -1160.397          30.800    25756330.855 2    131519.29509      -864.900          33.900  
E07  25629177.191 3    -15521.48704      2368.155          38.300    25627267.806 1   -272003.90009      1768.482          36.200  
E08  23761400.028 4    -12505.48406        52.098          36.700    23759487.938 3    -10234.12509        40.187          25.700  
E13  24551443.978 4    175836.03509     -1151.456          34.400    24549531.609 2    131292.70509      -860.386          32.700  
E21  26632919.806 3     38715.87905     -2832.751          37.500    26631014.923 3    326471.93809     -2115.393          29.000  
E26  23525558.085 4     -9257.25709       754.070          34.500    23523646.919 1         0.00000       563.900          38.800  
E31  27591413.866 5         0.00000      1332.550          25.100    27589502.387 3         0.00000       996.083          24.700  
E33  27297301.562 4         0.00000      1893.300          31.500    27295393.381 2   -214141.07209      1412.892          30.000  
> 2021 07 14 20 51 45.4352186  0 28
G05  22256348.344 4    451764.08409     -2928.262          34.900           0.000 0         0.00000         0.000           0.000  
G10  24251630.845 3   -527045.23802      3433.556          38.500    24249279.568 2         0.00000      2563.480          29.500  
G13  23389636.995 4   -151548.87309       922.512          30.900           0.000 0         0.00000         0.000           0.000  
G15  22191088.630 4   -309421.16409      1941.412          32.200           0.000 0         0.00000         0.000           0.000  
G16  23831785.290 5         0.00000      2185.950          23.700           0.000 0         0.00000         0.000           0.000  
G18  20731327.799 3   -126704.02509       816.552          40.400           0.000 0         0.00000         0.000           0.000  
G23  21473145.054 2   -398234.39001      2538.982          44.700           0.000 0         0.00000         0.000           0.000  
G25  24294829.435 5         0.00000     -3605.850          27.000           0.000 0         0.00000         0.000           0.000  
G26  22574760.914 4         0.00000       296.782          28.600    22572409.043 1    -36921.93403       221.470          38.100  
G29  20639782.579 4    161107.40309     -1074.605          33.400           0.000 0         0.00000         0.000           0.000  
J02  43308812.036 5         0.00000       194.700          25.200           0.000 0         0.00000         0.000           0.000  
R10  22521351.696 3    179013.54709     -1183.578          36.200  
R18  22514588.078 4    358768.99909     -2326.544          32.000  
R09  23034691.417 4    519938.82809     -3370.771          35.400  
R05  21564835.373 5         0.00000      4049.750          28.400  
R03  22055205.006 6         0.00000     -3020.750          22.300  
R04  19793748.471 4   -115894.08603       678.494          34.500  
C32  24910436.454 5         0.00000     -2476.000          26.700  
C30  23685798.653 4     58626.11903     -2002.708          34.900  
C29  21596477.574 5         0.00000       398.100          24.800  
E01  25758459.381 3      7841.47204     -1153.605          38.800    25756549.716 1    132381.36307      -861.490          36.700  
E07  25628725.999 4    -17890.24509      2365.854          34.700    25626817.521 1   -273772.08807      1766.749          37.000  
E08  23761394.933 5         0.00000        49.700          26.000    23759477.154 3         0.00000        35.950          23.500  
E13  24551663.136 4    176987.54209     -1155.423          34.100    24549752.250 3    132153.53209      -862.635          27.300  
E21  26633458.529 3     41545.57505     -2829.011          37.700    26631556.054 3         0.00000     -2112.650          23.100  
E26  23525412.986 3    -10013.43804       756.351          40.700    23523503.321 1    -86427.52305       564.740          40.400  
E31  27591156.929 5         0.00000      1335.600          25.400           0.000 0         0.00000         0.000           0.000  
E33  27296941.512 3     -2841.63004      1896.604          39.000    27295031.847 3   -215556.81209      1415.973          27.900  
> 2021 07 14 20 51 46.4352186  0 29
G05  22256908.967 3    454697.49109     -2934.472          38.900           0.000 0         0.00000         0.000           0.000  
G10  24250975.188 3   -530479.75502      3437.801          37.600    24248626.930 3         0.00000      2567.176          27.600  
G13  23389458.915 4         0.00000       917.469          28.500           0.000 0         0.00000         0.000           0.000  
G15  22190724.985 4   -311360.36909      1939.885          33.600           0.000 0         0.00000         0.000           0.000  
G16  23831370.079 5         0.00000      2196.900          24.100           0.000 0         0.00000         0.000           0.000  
G18  20731176.401 2   -127518.78609       815.874          42.700           0.000 0         0.00000         0.000           0.000  
G23  21472664.475 2   -400773.23701      2541.298          44.500           0.000 0         0.00000         0.000           0.000  
G25  24295514.164 4    569230.70909     -3600.234          30.800    24293162.294 3         0.00000     -2688.273          26.800  
G26  22574707.848 4    -49731.95009       296.416          29.500    22572352.976 1    -37142.70903       222.387          37.700  
G29  20639984.041 4    162184.28609     -1076.597          34.900           0.000 0         0.00000         0.000           0.000  
J02  43308758.673 4    -27344.15609       197.963          30.600    43306408.897 3         0.00000       148.600          24.900  
R10  22521561.849 3    180198.43902     -1182.241          36.500  
R18  22514978.998 5         0.00000     -2328.900          28.200  
R09  23035314.983 3    523308.83309     -3366.732          37.900  
R05  21564065.819 3   -635374.17202      4052.118          38.300  
R19  20195432.293 5         0.00000      -390.350          26.400  
R03  22055750.029 4    466376.09007     -3037.084          30.800  
R04  19793626.162 4   -116569.43409       676.180          31.400  
C32  24910913.438 4         0.00000     -2488.200          31.100  
C30  23686180.603 3     60631.52402     -2006.386          36.600  
C29  21596394.232 5         0.00000       390.550          25.500  
E01  25758678.241 3      8995.22304     -1151.258          38.500    25756769.763 1    133243.00806      -859.721          38.000  
E07  25628276.306 5         0.00000      2367.450          26.900    25626366.328 2   -275537.60709      1766.277          30.500  
E08  23761379.332 4        53.57109        43.178          31.300    23759467.556 3         0.00000        32.279          26.000  
E13  24551887.685 3    178146.80905     -1159.256          37.100    24549972.611 3    133018.67509      -865.511          27.400  
E21  26633996.659 3     44373.71804     -2824.966          38.200    26632091.182 3         0.00000     -2107.950          22.700  
E26  23525270.889 3    -10767.83903       755.386          40.900    23523359.113 1    -86990.90105       564.098          39.800  
E31  27590905.105 6         0.00000      1333.750          23.500           0.000 0         0.00000         0.000           0.000  
E33  27296579.961 3     -4738.00005      1898.965          37.200    27294669.685 2   -216972.88709      1418.060          30.900  
> 2021 07 14 20 51 47.4352186  0 29
G05  22257466.571 3    457632.61209     -2934.784          38.500           0.000 0         0.00000         0.000           0.000  
G10  24250319.548 3   -533921.66402      3445.500          36.700    24247969.179 3         0.00000      2573.132          27.600  
G13  23389294.028 4   -153383.96409       916.873          31.000           0.000 0         0.00000         0.000           0.000  
G15  22190348.444 4         0.00000      1942.000          30.700           0.000 0         0.00000         0.000           0.000  
G16  23830948.273 4         0.00000      2196.600          29.100           0.000 0         0.00000         0.000           0.000  
G18  20731013.608 2   -128336.41409       819.523          42.000           0.000 0         0.00000         0.000           0.000  
G23  21472180.912 2   -403317.55201      2547.221          44.100           0.000 0         0.00000         0.000           0.000  
G25  24296192.594 4    572827.60009     -3593.800          30.800    24293847.616 2         0.00000     -2683.687          30.100  
G26  22574648.796 4    -50031.33309       303.098          30.000    22572294.814 1    -37367.08103       226.192          37.100  
G29  20640195.084 3    163260.09109     -1074.540          37.800           0.000 0         0.00000         0.000           0.000  
J02  43308721.784 4    -27544.76309       203.143          32.700    43306371.117 2         0.00000       151.730          30.300  
R10  22521789.085 3    181377.96902     -1176.829          37.200  
R18  22515411.903 4    363430.43109     -2331.600          30.300  
R09  23035939.456 3    526671.11309     -3358.612          37.300  
R05  21563309.142 3   -639428.49701      4056.935          41.200  
R19  20195483.265 5         0.00000      -390.300          28.700  
R03  22056317.231 4    469414.28003     -3037.964          34.700  
R04  19793494.553 6         0.00000       684.000          23.200  
C32  24911382.901 4    386498.20709     -2490.366          30.300  
C30  23686564.927 4     62637.57109     -2004.790          34.500  
C29  21596317.486 5         0.00000       397.950          27.100  
E01  25758898.288 3     10143.07504     -1144.996          39.700    25756988.310 1    134100.13208      -855.029          35.700  
E07  25627826.318 4     -1377.13109      2371.834          32.500    25625916.950 2   -277306.27909      1769.680          33.500  
E08  23761374.237 4        11.01008        42.856          33.100    23759459.756 3         0.00000        32.023          29.000  
E13  24552102.934 3    179306.34705     -1158.965          36.900    24550191.454 3    133884.51209      -865.271          27.400  
E21  26634532.398 3     47194.84805     -2817.715          37.200    26632631.406 4         0.00000     -2102.550          21.800  
E26  23525126.384 3    -11524.93103       759.029          41.000    23523215.812 1    -87556.30506       566.666          39.500  
E31  27590649.093 4      -737.80909      1338.811          30.600           0.000 0         0.00000         0.000           0.000  
E33  27296218.113 3     -6640.41804      1905.328          38.900    27294308.134 2   -218393.56309      1422.916          32.200  
> 2021 07 14 20 51 48.4352186  0 29
G05  22258030.789 3    460568.32502     -2937.326          37.600           0.000 0         0.00000         0.000           0.000  
G10  24249663.001 3   -537368.65602      3445.743          38.200    24247314.429 3         0.00000      2573.254          28.400  
G13  23389112.057 4   -154300.28404       914.870          30.900           0.000 0         0.00000         0.000           0.000  
G15  22189977.592 3   -315230.24602      1939.262          36.900           0.000 0         0.00000         0.000           0.000  
G16  23830522.278 4         0.00000      2193.450          28.800           0.000 0         0.00000         0.000           0.000  
G18  20730861.024 2   -129156.27001       818.074          41.400           0.000 0         0.00000         0.000           0.000  
G23  21471694.958 2   -405865.67801      2546.531          44.300           0.000 0         0.00000         0.000           0.000  
G25  24296871.023 4    576420.53909     -3593.377          31.300    24294528.139 3         0.00000     -2683.587          25.900  
G26  22574590.931 4    -50334.28804       301.486          32.700    22572237.560 1    -37593.63003       225.144          37.300  
G29  20640397.140 3    164335.02602     -1076.275          38.900           0.000 0         0.00000         0.000           0.000  
J02  43308675.925 4    -27747.89307       201.892          30.300    43306333.652 2         0.00000       150.771          29.400  
R10  22521998.348 3    182554.41702     -1178.396          37.100  
R18  22515862.503 4    365762.43609     -2333.884          30.800  
R09  23036580.106 3    530028.32609     -3358.625          36.500  
R05  21562551.262 3   -643486.29001      4056.090          40.700  
R19  20195565.107 5         0.00000      -391.600          28.700  
R03  22056878.744 4    472452.97103     -3041.003          35.100  
R04  19793405.208 6         0.00000       671.800          22.300  
C32  24911864.964 4    388988.95709     -2492.392          31.000  
C30  23686953.159 4     64642.35709     -2006.289          33.400  
C29  21596254.228 5         0.00000       393.700          25.200  
E01  25759115.334 3     11287.05104     -1145.598          40.200    25757205.356 2    134954.50509      -855.399          34.900  
E07  25627376.329 4     -3746.09006      2367.427          35.900    25625466.350 2   -279075.38509      1767.913          35.300  
E08  23761365.250 4       -31.88509        40.441          32.500    23759453.474 3         0.00000        30.044          26.300  
E13  24552324.185 3    180465.41705     -1160.912          37.000    24550415.393 3    134750.02009      -866.841          29.400  
E21  26635072.325 3     50011.00204     -2817.434          37.800           0.000 0         0.00000         0.000           0.000  
E26  23524982.489 3    -12284.26803       757.581          40.900    23523070.416 1    -88123.32305       565.815          39.700  
E31  27590396.065 5         0.00000      1336.550          27.100           0.000 0         0.00000         0.000           0.000  
E33  27295855.061 3     -8546.94004      1905.062          39.000    27293945.396 2   -219817.13609      1422.557          32.000  
> 2021 07 14 20 51 49.4352186  0 28
G05  22258585.706 3    463506.66002     -2937.360          37.700           0.000 0         0.00000         0.000           0.000  
G10  24249002.563 3   -540813.08702      3444.066          38.000    24246660.290 2         0.00000      2572.210          29.400  
G13  23388942.668 4         0.00000       913.620          29.200           0.000 0         0.00000         0.000           0.000  
G15  22189610.353 3   -317168.23802      1938.506          38.800           0.000 0         0.00000         0.000           0.000  
G16  23830110.051 4   -214963.38309      2191.805          29.400           0.000 0         0.00000         0.000           0.000  
G18  20730709.329 3   -129973.11901       816.980          41.000           0.000 0         0.00000         0.000           0.000  
G23  21471208.394 2   -408410.93601      2544.989          44.000           0.000 0         0.00000         0.000           0.000  
G25  24297559.940 4    580014.40209     -3594.390          33.600    24295211.071 2    429215.46409     -2684.189          31.700  
G26  22574527.971 4    -50634.87809       300.354          31.000    22572181.493 1    -37817.68003       223.765          36.800  
G29  20640603.995 3    165412.40702     -1077.006          38.100           0.000 0         0.00000         0.000           0.000  
J02  43308633.660 4    -27948.59107       200.912          29.600    43306294.075 2         0.00000       150.130          29.500  
R10  22522220.786 3    183734.40202     -1180.617          36.400  
R18  22516305.285 5         0.00000     -2332.350          27.400  
R09  23037204.266 3    533388.44609     -3360.595          38.800  
R05  21561790.694 3   -647541.30901      4054.996          41.700  
R19  20195632.866 5         0.00000      -393.000          28.700  
R03  22057474.739 4    475495.10203     -3041.461          34.800  
C32  24912346.136 4    391482.55909     -2493.122          32.900  
C30  23687332.405 3     66649.77609     -2006.810          36.100  
C29  21596167.274 5         0.00000       397.850          28.600  
E01  25759333.584 3     12434.18704     -1147.483          38.100    25757423.605 2    135811.10309      -856.997          32.300  
E07  25626927.841 4     -6112.41909      2366.884          36.000    25625015.471 1   -280842.46108      1767.426          35.800  
E08  23761359.544 4       -70.63008        40.167          34.200    23759444.784 3         0.00000        29.961          26.200  
E13  24552548.123 3    181627.30604     -1160.891          37.900    24550632.753 3    135617.63009      -866.831          29.100  
E21  26635610.455 3     52829.72104     -2818.958          37.900           0.000 0         0.00000         0.000           0.000  
E26  23524838.891 3    -13040.77403       756.844          41.400    23522926.819 1    -88688.23005       565.103          40.200  
E31  27590136.440 5         0.00000      1335.450          27.400           0.000 0         0.00000         0.000           0.000  
E33  27295492.323 3    -10450.53705      1903.384          37.300    27293581.751 3   -221238.69409      1421.251          27.900  
> 2021 07 14 20 51 50.4352186  0 29
G05  22259137.011 3    466442.54802     -2934.087          37.400           0.000 0         0.00000         0.000           0.000  
G10  24248350.518 3   -544255.88602      3440.429          39.000    24246004.040 3         0.00000      2569.339          28.600  
G13  23388763.699 5         0.00000       919.200          27.900           0.000 0         0.00000         0.000           0.000  
G15  22189244.003 3   -319107.46902      1939.962          37.500           0.000 0         0.00000         0.000           0.000  
G16  23829690.042 5         0.00000      2193.300          28.200           0.000 0         0.00000         0.000           0.000  
G18  20730548.333 3   -130790.26801       816.792          40.400           0.000 0         0.00000         0.000           0.000  
G23  21470724.517 2   -410955.06301      2542.328          44.000           0.000 0         0.00000         0.000           0.000  
G25  24298241.371 3    583609.63109     -3596.882          36.200    24295897.598 2    431900.15705     -2685.879          34.000  
G26  22574461.730 5         0.00000       297.150          25.900    22572124.832 2         0.00000       222.270          30.000  
G29  20640806.365 3    166488.91902     -1076.090          38.100           0.000 0         0.00000         0.000           0.000  
J02  43308604.571 5         0.00000       198.650          26.300    43306254.201 3         0.00000       148.985          27.300  
R10  22522470.516 4         0.00000     -1186.401          29.400  
R18  22516729.499 4    370429.15103     -2330.299          33.700  
R09  23037831.147 3    536750.38509     -3364.471          38.300  
R05  21561029.516 3   -651595.83201      4053.256          41.800  
R19  20195700.014 5         0.00000      -388.650          28.700  
R03  22058020.651 4    478534.99403     -3038.155          34.400  
R04  19793165.686 6         0.00000       677.900          22.700  
C32  24912825.808 4    393973.92509     -2489.487          33.100  
C30  23687720.026 4     68655.27909     -2004.434          33.200  
C29  21596101.626 5         0.00000       404.200          26.400  
E01  25759551.223 4     13582.73009     -1150.129          35.100    25757642.449 3    136668.76809      -860.206          28.900  
E07  25626475.461 4     -8480.22209      2367.411          35.000    25624564.872 1   -282610.24308      1767.795          36.100  
E08  23761350.854 4      -112.62209        43.115          32.500    23759437.874 3         0.00000        32.284          26.000  
E13  24552765.466 3    182786.69904     -1157.734          38.000    24550853.690 3    136483.51709      -864.434          28.300  
E21  26636142.582 4     55649.71406     -2821.948          36.400           0.000 0         0.00000         0.000           0.000  
E26  23524694.089 3    -13797.83703       756.953          41.400    23522782.313 1    -89253.59605       565.380          39.900  
E31  27589887.914 5         0.00000      1335.050          25.100           0.000 0         0.00000         0.000           0.000  
E33  27295134.367 5         0.00000      1900.700          28.600           0.000 0         0.00000         0.000           0.000  
> 2021 07 14 20 51 51.4352186  0 29
G05  22259700.618 3    469375.15302     -2929.404          37.200           0.000 0         0.00000         0.000           0.000  
G10  24247693.971 3   -547690.80602      3430.424          37.900    24245351.384 2   -408893.83209      2561.749          31.200  
G13  23388593.105 4   -157047.43709       921.695          31.000           0.000 0         0.00000         0.000           0.000  
G15  22188866.572 3   -321047.07502      1940.556          38.500           0.000 0         0.00000         0.000           0.000  
G16  23829295.510 5         0.00000      2190.800          24.500           0.000 0         0.00000         0.000           0.000  
G18  20730392.450 3   -131605.21301       814.306          40.100           0.000 0         0.00000         0.000           0.000  
G23  21470246.346 2   -413493.17401      2534.878          43.700           0.000 0         0.00000         0.000           0.000  
G25  24298926.100 3    587210.86809     -3604.550          35.900    24296582.623 2    434589.38204     -2691.662          34.800  
G26  22574454.523 5         0.00000       284.650          23.700           0.000 0         0.00000         0.000           0.000  
G29  20641007.828 3    167566.01402     -1076.721          36.800           0.000 0         0.00000         0.000           0.000  
J02  43308556.914 5         0.00000       200.700          23.800    43306217.625 3         0.00000       145.953          25.700  
R10  22522702.569 5         0.00000     -1190.150          25.300  
R18  22517160.590 4    372757.72909     -2326.387          30.800  
R09  23038458.308 3    540120.32609     -3374.656          37.900  
R05  21560271.635 3   -655645.64401      4047.395          41.300  
R19  20195790.546 5         0.00000      -387.650          28.700  
R03  22058589.354 4    481571.48903     -3033.147          34.200  
R04  19793010.379 6         0.00000       685.950          23.100  
C32  24913301.274 4    396462.06804     -2484.305          33.400  
C30  23688107.666 3     70659.54502     -2002.540          36.000  
C29  21596027.882 5         0.00000       398.600          27.400  
E01  25759775.179 4     14736.94709     -1156.403          32.500    25757857.400 3         0.00000      -865.700          25.500  
E07  25626024.565 4    -10845.84609      2365.194          32.400    25624114.883 1   -284376.78008      1766.320          36.000  
E08  23761339.162 4      -156.48909        46.988          31.800    23759428.590 3         0.00000        35.056          26.800  
E13  24552988.218 3    183943.47904     -1154.217          37.900    24551076.442 3    137347.38309      -861.738          28.900  
E21  26636681.305 3     58476.81805     -2831.046          36.900    26634777.626 3         0.00000     -2114.250          22.900  
E26  23524548.991 3    -14553.30303       755.271          41.500    23522639.012 1    -89817.69906       563.955          39.600  
E31  27589629.197 5         0.00000      1331.750          24.800           0.000 0         0.00000         0.000           0.000  
E33  27294769.815 5         0.00000      1895.400          26.900           0.000 0         0.00000         0.000           0.000  
> 2021 07 14 20 51 52.4352186  0 29
G05  22260253.441 3    472299.61502     -2920.810          35.600           0.000 0         0.00000         0.000           0.000  
G10  24247047.022 3   -551117.72402      3422.852          39.000    24244699.933 2         0.00000      2556.251          29.900  
G13  23388412.042 4   -157974.07509       929.974          31.600           0.000 0         0.00000         0.000           0.000  
G15  22188503.224 3   -322990.19002      1944.634          38.600           0.000 0         0.00000         0.000           0.000  
G16  23828856.026 6         0.00000      2182.600          22.500           0.000 0         0.00000         0.000           0.000  
G18  20730234.159 3   -132420.31301       814.924          40.700           0.000 0         0.00000         0.000           0.000  
G23  21469760.392 2   -416025.88001      2529.815          43.600           0.000 0         0.00000         0.000           0.000  
G25  24299613.517 3    590817.71309     -3609.625          35.900    24297268.853 2    437282.83004     -2695.435          35.000  
G26  22574358.896 6         0.00000       285.700          23.100           0.000 0         0.00000         0.000           0.000  
G29  20641214.386 3    168640.72202     -1073.878          35.500           0.000 0         0.00000         0.000           0.000  
J02  43308532.920 4    -28549.11509       194.397          30.700    43306179.845 3         0.00000       145.306          25.400  
R10  22522910.925 5         0.00000     -1197.150          26.800  
R18  22517621.066 4    375079.63009     -2317.237          30.100  
R09  23039101.663 3    543498.86209     -3382.589          37.400  
R05  21559521.258 3   -659691.81501      4044.167          41.300  
R19  20195869.700 5         0.00000      -378.000          28.400  
R03  22059148.476 4    484599.55203     -3024.328          33.800  
R04  19792926.147 5         0.00000       681.200          28.400  
C32  24913779.444 4    398940.45809     -2475.106          33.700  
C30  23688491.099 3     72658.66309     -1997.120          37.300  
C29  21595944.539 5         0.00000       396.350          28.100  
E01  25759994.022 3     15897.81304     -1163.019          38.700    25758082.246 2    138412.44809      -868.620          30.800  
E07  25625577.281 4    -13211.83108      2366.670          34.300    25623664.301 2   -286144.00109      1767.368          35.400  
E08  23761333.770 4      -208.87409        55.168          31.000    23759417.788 3         0.00000        41.219          26.900  
E13  24553206.171 3    185093.07104     -1146.607          38.900    24551294.988 2    138205.72009      -855.915          30.000  
E21  26637219.731 3     61311.11405     -2837.795          37.300           0.000 0         0.00000         0.000           0.000  
E26  23524405.986 3    -15309.67704       756.517          39.600    23522494.507 1    -90382.54406       564.970          38.700  
E31  27589386.360 6         0.00000      1335.300          23.200           0.000 0         0.00000         0.000           0.000  
E33  27294410.968 5         0.00000      1889.150          26.800           0.000 0         0.00000         0.000           0.000  
> 2021 07 14 20 51 53.4352186  0 29
G05  22260817.345 3    475218.38302     -2917.055          36.500           0.000 0         0.00000         0.000           0.000  
G10  24246397.664 3   -554536.44602      3419.234          39.200    24244046.998 2         0.00000      2553.280          29.700  
G13  23388224.958 4   -158905.84009       933.227          30.500           0.000 0         0.00000         0.000           0.000  
G15  22188129.073 3   -324935.17402      1946.332          38.300           0.000 0         0.00000         0.000           0.000  
G16  23828481.283 6         0.00000      2189.850          22.600           0.000 0         0.00000         0.000           0.000  
G18  20730081.854 3   -133234.29501       815.100          40.100           0.000 0         0.00000         0.000           0.000  
G23  21469277.422 2   -418552.68001      2527.412          44.900           0.000 0         0.00000         0.000           0.000  
G25  24300294.651 4    594430.48609     -3612.015          35.100    24297956.863 1    439980.67903     -2697.366          35.400  
G26  22574312.426 5         0.00000       283.600          24.100           0.000 0         0.00000         0.000           0.000  
G29  20641416.739 4    169714.66603     -1072.801          34.100           0.000 0         0.00000         0.000           0.000  
J02  43308494.547 4    -28741.54109       193.537          34.800    43306144.177 2    -21301.16005       144.540          32.000  
R10  22523142.943 5         0.00000     -1193.050          24.500  
R18  22518065.977 4         0.00000     -2314.511          29.600  
R09  23039730.028 3    546885.70809     -3386.390          36.000  
R05  21558764.582 3   -663733.62101      4042.598          41.800  
R19  20195950.931 5         0.00000      -375.800          27.600  
R03  22059712.083 4    487621.77803     -3020.442          34.000  
R04  19792752.866 4         0.00000       678.615          29.900  
C32  24914254.911 3    401413.11309     -2470.864          36.200  
C30  23688871.828 3     74654.73609     -1994.638          36.800  
C29  21595868.387 5         0.00000       401.400          28.800  
E01  25760215.570 3     17064.18603     -1165.935          41.000    25758305.888 2    139283.56309      -870.663          35.200  
E07  25625121.900 4    -15578.37409      2367.853          32.700    25623215.220 1   -287910.76307      1767.738          37.300  
E08  23761326.580 4      -265.54009        58.198          30.000    23759407.004 3         0.00000        43.992          27.300  
E13  24553422.624 3    186237.86704     -1142.987          37.800    24551512.942 2    139060.72609      -853.424          30.400  
E21  26637758.751 4     64152.78506     -2841.118          36.500    26635858.667 4         0.00000     -2121.450          22.600  
E26  23524260.888 3    -16065.64504       757.344          39.500    23522351.206 1    -90947.03906       565.471          38.800  
E31  27589134.536 6         0.00000      1334.300          22.700           0.000 0         0.00000         0.000           0.000  
E33  27294051.215 4     -1055.65209      1888.979          33.500           0.000 0         0.00000         0.000           0.000  
> 2021 07 14 20 51 54.4352186  0 28
G05  22261363.275 3    478137.54102     -2923.652          36.600           0.000 0         0.00000         0.000           0.000  
G10  24245746.213 3   -557957.79402      3422.736          38.600    24243395.546 3         0.00000      2555.667          27.800  
G13  23388063.369 4   -159837.63909       927.209          30.100           0.000 0         0.00000         0.000           0.000  
G15  22187762.427 3   -326880.39902      1942.049          38.100           0.000 0         0.00000         0.000           0.000  
G16  23828029.793 6         0.00000      2188.550          22.800           0.000 0         0.00000         0.000           0.000  
G18  20729926.861 3   -134049.23802       813.539          37.900           0.000 0         0.00000         0.000           0.000  
G23  21468799.548 2   -421081.32401      2528.990          45.100           0.000 0         0.00000         0.000           0.000  
G25  24300986.273 3    598041.33902     -3609.697          35.700    24298643.704 2    442676.76105     -2695.651          33.500  
G26  22574269.254 5         0.00000       289.150          26.200    22571903.301 3         0.00000       213.544          27.700  
G29  20641623.891 4    170788.20403     -1076.069          34.800           0.000 0         0.00000         0.000           0.000  
J02  43308464.567 4    -28934.45909       193.478          29.900    43306110.306 3         0.00000       145.900          22.900  
R10  22523345.610 4    189695.82903     -1195.262          34.300  
R18  22518491.064 4    379710.83903     -2320.750          35.300  
R09  23040366.193 4    550270.03109     -3382.898          34.800  
R05  21558001.013 3   -667776.97701      4043.074          41.900  
R19  20195964.123 5         0.00000      -382.150          25.600  
R03  22060285.288 4    490644.72903     -3027.942          34.600  
R04  19792615.550 4   -121995.63003       674.283          33.100  
C32  24914731.284 3    403886.25609     -2477.789          36.900  
C30  23689255.262 3     76650.52609     -1998.915          36.400  
C29  21595791.937 5         0.00000       393.450          27.400  
E01  25760436.822 3     18228.82804     -1164.328          39.500    25758526.843 2    140153.26209      -869.480          34.600  
E07  25624675.210 4    -17945.36509      2365.189          33.400    25622765.231 1   -289678.36807      1766.175          36.900  
E08  23761316.372 5         0.00000        52.700          29.600    23759397.703 3         0.00000        38.994          29.100  
E13  24553642.060 3    187382.53205     -1148.348          37.100    24551731.488 3    139915.45709      -857.544          27.100  
E21  26638300.179 3     66991.98404     -2838.227          38.000    26636399.501 3         0.00000     -2120.300          22.700  
E26  23524116.382 3    -16822.63305       755.478          37.200    23522207.311 1    -91512.40907       564.052          36.700  
E33  27293691.461 4     -2945.23308      1890.465          33.300           0.000 0         0.00000         0.000           0.000  
> 2021 07 14 20 51 55.4352186  0 31
G05  22261929.290 3    481065.53602     -2932.509          36.400           0.000 0         0.00000         0.000           0.000  
G10  24245089.963 3   -561383.04402      3427.043          37.000    24242745.299 3         0.00000      2559.051          26.300  
G13  23387884.400 4   -160759.69209       917.312          34.600           0.000 0         0.00000         0.000           0.000  
G15  22187393.076 3   -328819.60502      1936.355          37.200           0.000 0         0.00000         0.000           0.000  
G16  23827610.988 5         0.00000      2185.400          26.900           0.000 0         0.00000         0.000           0.000  
G18  20729772.182 2   -134861.89501       811.395          42.500           0.000 0         0.00000         0.000           0.000  
G23  21468319.580 2   -423611.40101      2530.719          44.900           0.000 0         0.00000         0.000           0.000  
G25  24301674.894 3    601649.57302     -3607.185          37.700    24299331.120 2    445371.14005     -2693.588          33.000  
G26  22574213.187 4         0.00000       287.148          29.000    22571848.124 2    -39137.15009       214.277          34.000  
G29  20641825.353 4    171866.43903     -1080.717          34.200           0.000 0         0.00000         0.000           0.000  
J02  43308418.394 4    -29128.71309       193.319          33.100    43306071.619 2    -21591.68909       144.133          30.700  
R10  22523573.754 3    190890.43802     -1194.719          36.400  
R18  22518922.172 3    382035.83202     -2329.246          37.000  
R09  23040993.354 4    553650.39909     -3378.600          32.700  
R05  21557251.526 2   -671820.42701      4043.259          42.200  
R19  20196073.850 6         0.00000      -387.600          22.800  
R03  22060859.086 4    493677.37503     -3037.571          33.000  
R04  19792496.243 4   -122666.94403       668.231          33.900  
C35  24136356.138 6         0.00000      2388.400          23.500  
C32  24915207.064 3    406368.91509     -2487.372          36.400  
C30  23689641.103 3     78652.77109     -2005.601          36.800  
C29  21595711.300 5         0.00000       391.300          26.000  
C19  23385050.764 2         0.00000      2988.550          42.400  
E01  25760658.666 3     19391.71904     -1161.986          40.300    25758748.094 1    141021.60607      -867.744          37.400  
E07  25624226.408 4    -20308.56408      2362.003          32.800    25622314.038 1   -291443.43907      1763.771          36.800  
E08  23761299.899 5         0.00000        44.350          26.900    23759387.809 3         0.00000        32.269          27.500  
E13  24553859.106 4    188534.77708     -1156.034          34.700    24551955.427 3         0.00000      -862.000          23.200  
E21  26638839.810 3     69827.79104     -2834.269          38.000    26636939.725 3         0.00000     -2116.900          23.700  
E26  23523974.285 3    -17577.10003       752.882          41.200    23522063.103 1    -92075.70506       562.312          39.500  
E31  27588618.900 6         0.00000      1330.300          23.400           0.000 0         0.00000         0.000           0.000  
E33  27293328.427 4     -4837.39509      1892.271          35.400           0.000 0         0.00000         0.000           0.000  
> 2021 07 14 20 51 56.4352186  0 31
G05  22262490.489 3    484000.61802     -2934.530          37.500           0.000 0         0.00000         0.000           0.000  
G10  24244439.715 3   -564812.54302      3431.564          36.500    24242089.642 4         0.00000      2562.050          22.100  
G13  23387712.027 4   -161674.01709       914.896          33.300           0.000 0         0.00000         0.000           0.000  
G15  22187025.836 3   -330754.47302      1935.645          37.500           0.000 0         0.00000         0.000           0.000  
G16  23827215.566 6         0.00000      2184.400          23.300           0.000 0         0.00000         0.000           0.000  
G18  20729621.378 2   -135673.32601       812.877          42.600           0.000 0         0.00000         0.000           0.000  
G23  21467834.220 2   -426143.60201      2534.078          45.300           0.000 0         0.00000         0.000           0.000  
G25  24302363.514 3    605255.04602     -3603.624          37.400    24300016.442 2    448063.50805     -2691.047          33.000  
G26  22574147.539 4    -52666.12309       289.283          33.100    22571794.464 1    -39352.04503       216.087          36.600  
G29  20642038.508 3    172948.03602     -1080.398          36.100           0.000 0         0.00000         0.000           0.000  
J02  43308379.725 4    -29322.81909       195.620          32.900    43306035.951 3         0.00000       145.853          23.900  
R10  22523794.395 3    192084.37802     -1192.517          37.800  
R18  22519361.969 4    384367.39503     -2330.795          35.700  
R09  23041620.514 4    557026.32709     -3373.880          34.200  
R05  21556484.955 3   -675864.56501      4045.790          41.300  
R19  20196169.478 6         0.00000      -386.700          23.100  
R03  22061415.801 3    496717.80802     -3040.053          36.200  
R04  19792371.823 4         0.00000       667.392          29.700  
C35  24135879.782 4     -3430.13609      2389.524          35.000  
C32  24915686.422 4    408859.16809     -2489.680          34.300  
C30  23690028.132 4     80659.91909     -2006.393          34.600  
C29  21595633.943 4    -27838.38709       391.315          32.400  
C19  23384473.667 2     -1325.36509      2992.422          42.100  
E01  25760879.604 3     20552.16104     -1158.779          39.900    25758969.328 2    141888.22909      -865.243          35.400  
E07  25623773.435 4    -22670.14007      2362.757          35.200    25621865.847 1   -293206.98007      1764.449          36.700  
E13  24554080.968 4    189693.11606     -1157.503          36.200    24552170.082 2    141641.13209      -864.419          31.500  
E21  26639380.644 3     72659.76704     -2829.991          39.400    26637474.260 3         0.00000     -2113.219          25.100  
E26  23523829.187 3    -18329.96003       754.329          40.900    23521920.116 1    -92637.95305       563.292          40.100  
E31  27588364.371 4      -684.57609      1330.013          30.700    27586451.391 3         0.00000       993.000          26.200  
E33  27292969.266 3     -6730.88004      1895.738          39.800    27291060.492 2   -231157.61609      1415.956          32.700  
E08         0.000 0         0.00000         0.000           0.000    23759377.915 3         0.00000        30.795          28.200  
> 2021 07 14 20 51 57.4352186  0 30
G05  22263039.717 3    486933.30802     -2932.348          38.500           0.000 0         0.00000         0.000           0.000  
G10  24243787.374 4   -568245.14403      3431.910          35.000           0.000 0         0.00000         0.000           0.000  
G13  23387529.148 4   -162590.84409       916.793          33.500           0.000 0         0.00000         0.000           0.000  
G15  22186650.796 3   -332691.70002      1937.105          38.000           0.000 0         0.00000         0.000           0.000  
G16  23826782.365 5         0.00000      2187.950          26.200           0.000 0         0.00000         0.000           0.000  
G18  20729467.292 2   -136487.80301       814.253          42.200           0.000 0         0.00000         0.000           0.000  
G23  21467353.361 2   -428678.81101      2534.539          45.200           0.000 0         0.00000         0.000           0.000  
G25  24303038.646 3    608857.22902     -3602.794          35.800    24300700.264 2    450753.44209     -2690.331          31.700  
G26  22574088.784 4    -52956.49009       289.645          29.700    22571737.507 2    -39568.85904       216.311          35.000  
G29  20642235.783 3    174026.99102     -1079.057          36.600           0.000 0         0.00000         0.000           0.000  
J02  43308348.855 4    -29519.78909       196.717          30.900    43305998.171 3         0.00000       147.183          25.500  
R10  22524017.443 3    193275.70402     -1192.118          39.000  
R18  22519800.877 3    386696.39502     -2328.778          37.600  
R09  23042263.869 4    560398.96009     -3373.822          33.000  
R05  21555734.875 3   -679911.63801      4046.450          41.700  
R03  22061975.220 4    499756.08803     -3038.059          33.500  
R04  19792226.724 4   -124002.72609       668.496          30.300  
C35  24135419.288 4     -5821.18303      2391.363          34.800  
C32  24916160.701 4    411347.46904     -2487.401          33.800  
C30  23690411.565 3     82664.57602     -2004.464          36.300  
C29  21595559.605 4    -28231.02909       392.560          31.500  
C19  23383899.555 3     -4319.01001      2993.121          41.900  
E01  25761100.262 3     21709.64503     -1158.105          41.000    25759189.375 1    142752.54808      -864.785          36.500  
E07  25623324.039 4    -25034.48107      2364.305          35.200    25621415.561 1   -294972.56507      1765.488          37.000  
E08  23761288.207 6         0.00000        43.000          23.500    23759370.725 2         0.00000        32.497          30.500  
E13  24554300.701 4    190848.63306     -1155.235          36.100    24552391.630 2    142504.05109      -862.650          30.000  
E21  26639918.163 3     75488.49004     -2829.370          39.400    26638013.280 3         0.00000     -2112.909          27.000  
E26  23523686.793 3    -19086.04303       755.981          41.000    23521776.204 1    -93202.52606       564.517          39.600  
E31  27588107.748 5         0.00000      1331.150          27.400    27586199.270 4         0.00000       992.950          22.400  
E33  27292607.122 3     -8628.05804      1896.737          38.800    27290700.738 2   -232574.32009      1416.399          32.800  
> 2021 07 14 20 51 58.4352186  0 31
G05  22263601.230 3    489866.80502     -2933.557          38.400           0.000 0         0.00000         0.000           0.000  
G10  24243137.423 3   -571674.43002      3427.543          36.000           0.000 0         0.00000         0.000           0.000  
G13  23387366.355 4   -163506.20709       915.162          32.800           0.000 0         0.00000         0.000           0.000  
G15  22186283.259 3   -334627.09502      1934.744          38.800           0.000 0         0.00000         0.000           0.000  
G16  23826368.637 5         0.00000      2180.950          27.400           0.000 0         0.00000         0.000           0.000  
G18  20729310.502 2   -137300.18501       811.550          41.600           0.000 0         0.00000         0.000           0.000  
G23  21466872.189 2   -431210.86201      2530.507          45.300           0.000 0         0.00000         0.000           0.000  
G25  24303734.176 3    612462.35302     -3606.420          36.400    24301388.291 2    453445.63605     -2693.166          32.900  
G26  22574038.108 5         0.00000       281.900          26.400    22571682.347 2    -39783.43804       213.479          35.000  
G29  20642448.920 3    175107.87502     -1081.578          36.700           0.000 0         0.00000         0.000           0.000  
J02  43308307.184 5         0.00000       191.550          27.700    43305962.800 3         0.00000       143.600          23.300  
R10  22524242.586 3    194470.33602     -1196.119          39.400  
R18  22520233.468 3    389026.36602     -2330.122          37.600  
R09  23042899.423 4    563775.39409     -3377.913          30.600  
R05  21554980.607 3   -683955.78101      4042.800          41.500  
R19  20196293.008 6         0.00000      -390.350          20.100  
R03  22062563.100 4    502795.44504     -3039.480          32.200  
R04  19792106.807 4   -124668.82609       665.634          30.600  
C35  24134959.108 4     -8211.12609      2388.570          33.000  
C32  24916637.965 3    413836.10702     -2488.806          36.600  
C30  23690799.501 3     84670.48202     -2006.286          38.100  
C29  21595483.452 4    -28621.86907       390.607          30.900  
C19  23383326.351 2     -7309.76201      2989.414          42.700  
E01  25761320.309 3     22870.23603     -1162.169          41.100    25759410.627 1    143619.28107      -867.783          36.900  
E07  25622873.754 4    -27396.92307      2361.622          35.500    25620965.869 1   -296736.68907      1763.493          37.200  
E08  23761282.205 5         0.00000        40.450          25.200    23759365.630 3         0.00000        31.008          29.500  
E13  24554519.858 4    192004.95207     -1156.520          35.400    24552611.380 3    143367.43309      -863.799          27.900  
E21  26640457.497 3     78320.39004     -2833.487          39.200    26638551.113 3         0.00000     -2115.821          28.400  
E26  23523543.178 3    -19840.28103       753.570          40.900    23521632.902 1    -93765.73406       562.648          39.300  
E31  27587862.520 5         0.00000      1327.750          27.600    27585944.741 4         0.00000       992.100          22.100  
E33  27292247.368 3    -10522.58604      1893.315          38.800    27290339.187 2   -233989.09209      1413.809          33.300  
> 2021 07 14 20 51 59.4352186  0 30
G05  22264160.632 3    492799.80502     -2931.659          37.900           0.000 0         0.00000         0.000           0.000  
G10  24242481.469 3   -575100.86502      3426.020          37.200           0.000 0         0.00000         0.000           0.000  
G13  23387185.292 4   -164421.71609       916.875          35.100           0.000 0         0.00000         0.000           0.000  
G15  22185919.911 3   -336561.82402      1935.530          37.400           0.000 0         0.00000         0.000           0.000  
G16  23825945.330 5         0.00000      2185.150          26.300           0.000 0         0.00000         0.000           0.000  
G18  20729155.195 2   -138111.52301       811.802          41.900           0.000 0         0.00000         0.000           0.000  
G23  21466388.923 2   -433740.44401      2529.419          45.000           0.000 0         0.00000         0.000           0.000  
G25  24304413.199 4    616069.67203     -3607.275          33.400    24302073.317 2         0.00000     -2693.805          29.700  
G26  22573962.566 5         0.00000       282.900          23.600    22571627.483 2    -39996.33805       212.965          34.000  
G29  20642656.978 3    176189.58202     -1081.120          36.200           0.000 0         0.00000         0.000           0.000  
J02  43308292.788 5         0.00000       192.300          25.400           0.000 0         0.00000         0.000           0.000  
R10  22524465.041 3    195667.33302     -1197.193          39.700  
R18  22520667.560 3    391356.03302     -2328.454          37.200  
R09  23043531.401 4    567154.39209     -3379.317          31.000  
R05  21554221.226 3   -687997.82901      4042.099          41.100  
R03  22063122.816 4         0.00000     -3037.767          29.900  
R04  19792004.880 4   -125334.41304       666.091          31.900  
C35  24134500.132 4    -10599.43509      2388.788          32.200  
C32  24917116.432 3    416324.17302     -2486.689          36.600  
C30  23691182.027 3     86676.46602     -2005.010          37.300  
C29  21595410.004 6         0.00000       392.050          22.900  
C19  23382752.256 2    -10298.27701      2988.433          42.500  
E01  25761543.043 3     24033.31703     -1163.235          41.200    25759630.971 1    144487.74707      -868.617          36.900  
E07  25622424.358 4    -29758.21706      2361.763          36.000    25620516.788 1   -298499.97608      1763.627          36.300  
E08  23761274.404 4        47.41009        43.345          29.900    23759356.643 2    -10751.62909        32.238          31.800  
E13  24554737.201 4    193160.84208     -1154.630          34.500    24552829.927 3    144230.88809      -862.334          28.900  
E21  26640997.110 3     81154.92804     -2834.761          39.100    26639091.634 3         0.00000     -2116.789          27.600  
E26  23523398.987 3    -20593.80203       754.182          41.300    23521489.601 1    -94328.39706       563.101          38.900  
E31  27587604.396 5         0.00000      1329.000          28.500    27585690.823 3         0.00000       993.200          23.800  
E33  27291890.319 4    -12415.28906      1892.738          36.500    27289977.932 2   -235402.47009      1413.431          30.200  
> 2021 07 14 20 52 00.4352186  0 30
G05  22264714.048 3    495729.90102     -2929.583          38.200           0.000 0         0.00000         0.000           0.000  
G10  24241829.128 3   -578526.73602      3424.801          36.000           0.000 0         0.00000         0.000           0.000  
G13  23387008.713 3   -165339.99602       918.552          35.500           0.000 0         0.00000         0.000           0.000  
G15  22185549.652 3   -338498.25302      1936.498          37.900           0.000 0         0.00000         0.000           0.000  
G16  23825525.321 5         0.00000      2182.550          26.300           0.000 0         0.00000         0.000           0.000  
G18  20728999.312 2   -138924.04201       812.255          42.000           0.000 0         0.00000         0.000           0.000  
G23  21465908.065 2   -436269.82301      2528.427          44.800           0.000 0         0.00000         0.000           0.000  
G25  24305091.629 4    619676.90209     -3608.233          30.900    24302764.049 2         0.00000     -2695.352          29.400  
G26  22573924.193 4         0.00000       283.446          28.600    22571574.417 2    -40209.36804       212.243          34.600  
G29  20642861.146 3    177269.84602     -1080.380          35.500           0.000 0         0.00000         0.000           0.000  
R10  22524689.277 3    196864.50701     -1198.106          40.000  
R18  22521097.778 3    393682.89602     -2326.309          38.100  
R09  23044178.647 5         0.00000     -3382.250          28.900  
R05  21553472.350 3   -692040.12201      4041.586          40.700  
R19  20196504.347 6         0.00000      -386.700          21.300  
R03  22063686.423 4    508870.64109     -3035.739          30.500  
R04  19791861.875 4   -126001.28004       666.824          32.400  
C35  24134037.545 4    -12989.00409      2389.022          30.300  
C32  24917597.308 3    418809.10902     -2484.351          36.000  
C30  23691568.463 3     88680.19602     -2003.436          37.100  
C29  21595339.558 6         0.00000       397.450          22.700  
C19  23382177.550 2    -13286.82101      2987.817          42.300  
E01  25761763.405 3     25196.66304     -1164.205          40.500    25759852.519 1    145356.40108      -869.434          36.300  
E07  25621976.464 4    -32120.78406      2362.419          36.100    25620067.392 1   -300264.28807      1764.176          36.700  
E08  23761263.009 5         0.00000        44.950          27.300    23759347.342 2    -10785.08709        33.778          31.700  
E13  24554959.656 4    194313.84408     -1152.523          34.400    24553048.770 2    145091.90009      -860.728          30.200  
E21  26641536.148 3     83989.80904     -2835.818          39.200    26639631.264 3         0.00000     -2117.714          29.300  
E26  23523255.982 3    -21348.72403       754.825          41.900    23521346.300 1    -94892.18706       563.632          38.600  
E31  27587354.963 5         0.00000      1329.050          25.100    27585443.484 4         0.00000       991.350          22.200  
E33  27291531.770 4    -14308.30709      1892.278          31.300    27289619.086 3   -236816.04309      1412.859          27.200  
> 2021 07 14 20 52 01.4352186  0 31
G05  22265272.263 3    498658.57702     -2927.454          38.000           0.000 0         0.00000         0.000           0.000  
G10  24241180.381 3   -581950.93202      3424.297          37.600           0.000 0         0.00000         0.000           0.000  
G13  23386838.434 4   -166259.35503       920.641          34.300           0.000 0         0.00000         0.000           0.000  
G15  22185183.913 3   -340435.14002      1937.739          37.600           0.000 0         0.00000         0.000           0.000  
G16  23825126.601 5         0.00000      2182.600          28.100           0.000 0         0.00000         0.000           0.000  
G18  20728850.008 2   -139736.36301       812.963          41.700           0.000 0         0.00000         0.000           0.000  
G23  21465426.892 2   -438797.81201      2528.179          44.600           0.000 0         0.00000         0.000           0.000  
G25  24305794.942 4    623285.06603     -3607.735          35.000    24303447.574 2    461528.37505     -2694.204          33.200  
G26  22573882.226 4    -54098.24509       284.123          32.600    22571520.164 2    -40421.40204       212.191          34.500  
G29  20643066.204 4    178349.97903     -1079.418          34.200           0.000 0         0.00000         0.000           0.000  
J02  43308219.636 6         0.00000       192.350          21.800           0.000 0         0.00000         0.000           0.000  
R10  22524914.123 3    198063.09302     -1198.510          39.300  
R18  22521539.669 3    396008.35902     -2324.198          37.900  
R09  23044786.630 4    573915.50009     -3381.350          32.600  
R05  21552709.671 3   -696081.44301      4041.817          40.800  
R19  20196559.507 6         0.00000      -383.750          21.900  
R03  22064250.344 4    511905.00109     -3033.824          30.100  
R04  19791740.160 4   -126668.14804       667.599          31.700  
C35  24133588.760 4    -15378.05709      2389.888          31.000  
C32  24918071.273 3    421292.57002     -2482.269          36.300  
C30  23691954.304 3     90683.05102     -2001.803          37.100  
C29  21595249.323 6         0.00000       396.450          22.900  
C19  23381603.752 3    -16274.24801      2987.698          41.100  
E01  25761984.639 3     26361.40305     -1164.647          37.600    25760074.660 2    146226.20009      -869.708          35.500  
E07  25621526.475 4    -34483.45406      2363.449          35.900    25619617.107 1   -302028.64608      1764.871          36.300  
E08  23761251.632 5         0.00000        47.000          28.800    23759338.652 3    -10819.36809        35.134          29.500  
E13  24555176.999 4    195465.48008     -1150.370          33.600    24553268.224 2    145951.89909      -859.053          32.600  
E21  26642076.371 3     86826.09704     -2836.078          38.500    26640171.488 3         0.00000     -2118.036          26.200  
E26  23523112.978 3    -22103.77703       755.808          42.300    23521202.999 1    -95455.97006       564.338          38.500  
E31  27587096.839 6         0.00000      1329.300          24.400           0.000 0         0.00000         0.000           0.000  
E33  27291169.608 4    -16200.30508      1892.572          34.500    27289260.537 2   -238228.90209      1413.364          31.100  
> 2021 07 14 20 52 02.4352186  0 31
G05  22265837.371 3    501584.94802     -2926.824          38.200           0.000 0         0.00000         0.000           0.000  
G10  24240527.429 3   -585375.36002      3423.204          36.400           0.000 0         0.00000         0.000           0.000  
G13  23386665.153 4   -167180.78203       920.845          35.100           0.000 0         0.00000         0.000           0.000  
G15  22184813.672 3   -342373.54702      1937.554          37.000           0.000 0         0.00000         0.000           0.000  
G16  23824693.102 5         0.00000      2182.450          27.800           0.000 0         0.00000         0.000           0.000  
G18  20728695.923 2   -140549.87401       812.618          41.400           0.000 0         0.00000         0.000           0.000  
G23  21464945.423 2   -441326.11701      2526.999          45.100           0.000 0         0.00000         0.000           0.000  
G25  24306473.669 4    626892.41203     -3608.478          33.500    24304135.287 2    464222.39205     -2694.588          33.600  
G26  22573816.875 4    -54382.50509       283.025          34.200    22571466.191 2    -40633.74104       211.201          34.500  
G29  20643263.164 4    179428.13709     -1079.163          33.200           0.000 0         0.00000         0.000           0.000  
J02  43308175.574 6         0.00000       192.300          22.300           0.000 0         0.00000         0.000           0.000  
R10  22525140.469 4    199261.65103     -1199.899          35.800  
R18  22521970.760 3    398331.49402     -2323.751          36.900  
R09  23045436.284 4    577296.88103     -3382.667          34.200  
R05  21551948.806 3   -700123.50001      4040.874          40.700  
R19  20196576.295 6         0.00000      -384.900          23.500  
R03  22064829.534 4    514937.81109     -3033.484          30.800  
R04  19791620.539 4   -127336.15609       666.967          33.200  
C35  24133128.284 4    -17768.47209      2389.628          32.800  
C32  24918549.741 3    423773.63602     -2481.533          36.000  
C30  23692335.033 3     92683.76202     -2001.292          36.900  
C29  21595187.566 5         0.00000       393.800          25.800  
C19  23381030.844 3    -19262.27301      2986.913          41.400  
E01  25762207.984 3     27525.91603     -1165.754          41.000    25760296.208 2    147095.84809      -870.550          33.200  
E07  25621076.800 4    -36847.61806      2363.266          35.800    25619167.712 1   -303794.04108      1764.838          36.200  
E08  23761242.627 5         0.00000        47.400          29.700    23759329.961 2    -10855.26109        35.461          31.700  
E13  24555394.045 4    196614.79709     -1149.444          30.600    24553485.863 2    146810.12109      -858.434          32.300  
E21  26642613.594 4     89661.93107     -2836.926          35.600    26640710.508 3         0.00000     -2118.600          23.000  
E26  23522969.083 3    -22860.23803       755.700          42.300    23521058.511 1    -96020.89406       564.367          37.900  
E31  27586850.111 6         0.00000      1330.050          23.400           0.000 0         0.00000         0.000           0.000  
E33  27290810.762 4    -18093.55409      1892.246          32.600    27288898.689 2   -239642.70109      1413.216          31.000  
> 2021 07 14 20 52 03.4352186  0 31
G05  22266388.100 3    504512.92902     -2927.476          37.600           0.000 0         0.00000         0.000           0.000  
G10  24239875.087 3   -588796.61602      3421.187          37.200    24237526.515 3         0.00000      2556.018          25.300  
G13  23386483.479 4   -168100.34303       919.793          34.200           0.000 0         0.00000         0.000           0.000  
G15  22184441.633 3   -344309.76502      1936.314          35.800           0.000 0         0.00000         0.000           0.000  
G16  23824285.989 5         0.00000      2181.350          28.300           0.000 0         0.00000         0.000           0.000  
G18  20728540.319 2   -141360.96201       811.234          42.200           0.000 0         0.00000         0.000           0.000  
G23  21464464.862 2   -443851.31501      2525.044          44.900           0.000 0         0.00000         0.000           0.000  
G25  24307169.199 4    630502.63003     -3609.929          34.500    24304822.110 2    466918.22505     -2695.745          34.100  
G26  22573756.602 4    -54664.03909       281.455          31.200    22571410.437 2    -40843.62005       209.630          33.000  
G29  20643470.019 4    180508.94109     -1081.023          33.400           0.000 0         0.00000         0.000           0.000  
J02  43308148.596 6         0.00000       188.800          22.700           0.000 0         0.00000         0.000           0.000  
R10  22525367.410 3    200463.29402     -1201.913          36.500  
R18  22522419.562 3    400656.30102     -2324.196          38.000  
R09  23046074.246 4    580681.52303     -3384.791          33.500  
R05  21551196.615 3   -704162.65501      4039.187          40.500  
R19  20196621.875 6         0.00000      -382.300          23.100  
R03  22065367.961 5         0.00000     -3034.750          28.900  
R04  19791492.541 4   -128001.46003       665.419          33.500  
C35  24132669.291 4    -20156.40909      2388.160          32.800  
C32  24919026.411 4    426256.23303     -2482.102          35.700  
C30  23692721.172 3     94686.42302     -2002.213          38.500  
C29  21595096.127 5         0.00000       392.200          27.800  
C19  23380456.749 3    -22247.42701      2985.040          40.900  
E01  25762429.235 4     28693.63409     -1167.949          34.800    25760518.663 2    147967.82109      -872.109          30.200  
E07  25620626.811 4    -39209.37906      2361.990          36.400    25618719.520 1   -305557.72307      1763.878          37.100  
E08  23761234.845 4       -51.62909        46.714          30.700    23759320.660 2    -10889.72209        34.785          32.600  
E13  24555609.904 4    197765.01109     -1150.331          32.100    24553705.928 2    147669.47109      -858.949          31.800  
E21  26643156.819 3     92500.75204     -2838.992          39.800    26641252.843 3         0.00000     -2119.935          27.100  
E26  23522825.485 3    -23614.53203       754.551          42.300    23520914.599 1    -96584.17107       563.495          37.600  
E33  27290448.914 4    -19983.95509      1890.593          32.200    27288539.232 3   -241054.30009      1411.679          27.400  
E31         0.000 0         0.00000         0.000           0.000    27584683.509 4         0.00000       990.950          21.900  
> 2021 07 14 20 52 04.4352186  0 31
G05  22266945.407 3    507439.67102     -2926.623          36.800           0.000 0         0.00000         0.000           0.000  
G10  24239222.432 3   -592218.19202      3421.400          37.500    24236877.454 3         0.00000      2554.700          23.200  
G13  23386312.292 4   -169021.03509       920.448          33.400           0.000 0         0.00000         0.000           0.000  
G15  22184073.782 3   -346246.67702      1936.733          36.100           0.000 0         0.00000         0.000           0.000  
G16  23823868.370 4         0.00000      2182.586          29.300           0.000 0         0.00000         0.000           0.000  
G18  20728382.639 3   -142172.80101       811.724          41.300           0.000 0         0.00000         0.000           0.000  
G23  21463983.986 2   -446376.71701      2525.113          44.600           0.000 0         0.00000         0.000           0.000  
G25  24307851.224 4    634112.58809     -3610.139          34.600    24305507.747 2    469613.47309     -2695.429          31.300  
G26  22573710.446 5         0.00000       281.800          28.300    22571359.465 2    -41053.56509       209.865          30.600  
G29  20643685.878 4    181589.43709     -1080.556          34.400           0.000 0         0.00000         0.000           0.000  
J02  43308091.936 6         0.00000       189.800          22.300           0.000 0         0.00000         0.000           0.000  
R10  22525573.968 4    201665.11603     -1202.320          33.900  
R18  22522845.556 3    402979.67602     -2323.466          36.600  
R09  23046692.717 4    584065.91604     -3384.676          32.900  
R05  21550444.440 2   -708202.19801      4039.293          42.100  
R19  20196741.182 6         0.00000      -384.900          23.000  
R03  22065957.063 4         0.00000     -3032.483          29.000  
R04  19791376.515 4   -128667.18103       665.437          33.400  
C35  24132207.017 4    -22545.91409      2389.591          32.600  
C32  24919504.285 4    428737.49904     -2481.337          33.900  
C30  23693106.106 3     96687.84002     -2001.500          38.400  
C29  21595027.478 5         0.00000       392.250          28.700  
C19  23379881.747 3    -25232.97001      2985.344          40.900  
E01  25762646.892 4     29860.52409     -1167.398          30.800           0.000 0         0.00000         0.000           0.000  
E07  25620180.417 4    -41572.00007      2362.586          35.400    25618269.531 1   -307322.02908      1764.257          36.000  
E08  23761227.934 5         0.00000        47.100          29.600    23759311.970 2    -10925.17609        35.369          30.800  
E13  24555838.048 4    198914.97608     -1149.266          33.100    24553923.270 2    148527.82909      -858.252          30.500  
E21  26643695.856 3     95339.20605     -2838.435          37.500           0.000 0         0.00000         0.000           0.000  
E26  23522680.387 3    -24369.76403       755.242          41.300    23520771.298 1    -97148.18107       563.974          37.100  
E31  27586341.367 5         0.00000      1327.400          25.500    27584429.591 4         0.00000       991.000          22.500  
E33  27290087.066 4    -21875.29009      1890.648          30.700    27288178.885 3   -242466.49609      1412.140          27.900  
> 2021 07 14 20 52 05.4352186  0 30
G05  22267503.326 3    510368.09802     -2931.297          36.400           0.000 0         0.00000         0.000           0.000  
G10  24238570.683 3   -595639.36502      3421.307          38.400    24236227.800 3         0.00000      2554.761          27.700  
G13  23386135.417 5         0.00000       918.850          28.300           0.000 0         0.00000         0.000           0.000  
G15  22183702.337 4   -348182.12409      1933.441          33.900           0.000 0         0.00000         0.000           0.000  
G16  23823471.744 5         0.00000      2175.250          26.300           0.000 0         0.00000         0.000           0.000  
G18  20728230.037 3   -142983.38409       809.268          36.000           0.000 0         0.00000         0.000           0.000  
G23  21463504.018 2   -448901.27601      2524.225          44.300           0.000 0         0.00000         0.000           0.000  
G25  24308543.142 4    637722.27309     -3609.880          34.500    24306193.977 2    472309.17005     -2695.733          32.700  
G26  22573671.462 4         0.00000       280.018          29.300    22571307.010 2    -41262.66205       208.373          32.000  
G29  20643893.030 4    182671.26009     -1083.567          30.600           0.000 0         0.00000         0.000           0.000  
R10  22525815.601 4    202867.76209     -1203.899          31.600  
R18  22523294.655 4    405304.70703     -2327.657          35.900  
R09  23047324.380 4    587450.78703     -3384.634          34.000  
R05  21549688.654 3   -712240.87001      4038.000          40.500  
R19  20196849.111 6         0.00000      -389.150          22.700  
R03  22066512.573 4    524041.50309     -3038.347          30.500  
R04  19791246.999 4   -129330.87703       661.397          35.100  
C35  24131750.728 4    -24934.56009      2387.851          31.300  
C32  24919976.453 4    431219.41209     -2484.487          34.500  
C30  23693492.227 3     98690.66902     -2004.973          39.300  
C29  21594949.528 4    -31355.95709       391.594          31.400  
C19  23379308.246 3    -28217.84401      2984.566          40.300  
E01  25762870.237 4     31028.54809     -1168.402          33.800           0.000 0         0.00000         0.000           0.000  
E07  25619728.021 4    -43934.11509      2360.220          33.600    25617818.949 1   -309085.55708      1762.508          35.900  
E08  23761216.243 5         0.00000        42.000          28.000    23759303.577 2    -10959.08409        31.901          32.000  
E13  24556058.095 5         0.00000     -1152.750          28.800    24554143.318 2    149387.14109      -861.088          33.100  
E21  26644234.579 3     98177.94405     -2838.593          37.400           0.000 0         0.00000         0.000           0.000  
E26  23522536.789 4    -25124.49809       752.892          36.200    23520627.997 2    -97711.30809       561.856          35.300  
E31  27586082.057 6         0.00000      1326.250          24.000           0.000 0         0.00000         0.000           0.000  
E33  27289724.014 5         0.00000      1889.450          26.800    27287820.632 3   -243878.29709      1411.551          25.500  
> 2021 07 14 20 52 06.4352186  0 28
G05  22268060.930 3    513302.22202     -2936.182          36.800           0.000 0         0.00000         0.000           0.000  
G10  24237924.327 3   -599061.94802      3424.870          36.900    24235577.256 3         0.00000      2557.300          23.100  
G13  23385969.919 4   -170855.02009       911.801          33.800           0.000 0         0.00000         0.000           0.000  
G15  22183338.395 4   -350113.57309      1930.377          34.100           0.000 0         0.00000         0.000           0.000  
G18  20728079.546 4   -143792.33209       809.581          32.400           0.000 0         0.00000         0.000           0.000  
G23  21463024.957 2   -451425.90601      2526.117          44.900           0.000 0         0.00000         0.000           0.000  
G25  24309229.965 4    641332.04303     -3607.606          34.000    24306881.393 2    475004.33905     -2694.194          31.900  
G26  22573599.218 4    -55505.53709       280.375          31.800    22571254.240 1    -41471.22409       209.588          35.600  
G29  20644095.086 4    183756.43803     -1085.922          33.400           0.000 0         0.00000         0.000           0.000  
R10  22526034.444 4    204072.51909     -1203.006          30.900  
R18  22523723.948 4    407634.74003     -2331.882          35.000  
R09  23047959.027 3    590834.24902     -3381.316          37.400  
R05  21548933.478 3   -716278.84001      4038.883          41.100  
R19  20196894.377 6         0.00000      -393.850          22.700  
R03  22067092.374 4    527083.48503     -3044.559          34.800  
R04  19791138.180 4   -129990.30003       658.199          35.100  
C35  24131290.252 5         0.00000      2387.750          27.900  
C32  24920458.829 4    433707.75809     -2491.339          34.800  
C30  23693877.458 3    100697.58902     -2008.081          38.800  
C29  21594875.783 4    -31744.80909       388.392          31.700  
C19  23378735.041 3    -31202.72802      2986.337          37.400  
E01  25763094.176 3     32197.31604     -1166.858          39.400    25761183.307 2    150583.15509      -871.310          32.900  
E07  25619275.641 4    -46293.36209      2359.162          31.800    25617368.961 2   -310847.35409      1761.646          34.900  
E08  23761211.147 4      -184.04609        37.903          32.500    23759295.776 2    -10988.93709        28.356          32.700  
E13  24556270.046 4    201221.10609     -1157.055          30.000    24554362.457 2    150249.98309      -864.027          32.400  
E21  26644774.507 4    101015.54506     -2835.731          36.500    26642874.422 3         0.00000     -2119.350          23.100  
E26  23522394.081 4    -25876.61509       753.541          33.400    23520484.102 2    -98272.10709       561.568          29.700  
E33  27289369.356 5         0.00000      1891.300          29.300    27287458.784 3   -245289.92309      1412.220          25.500  
> 2021 07 14 20 52 07.4352186  0 27
G05  22268617.348 3    516240.03202     -2939.469          38.000           0.000 0         0.00000         0.000           0.000  
G10  24237271.986 3   -602490.71402      3432.810          36.700    24234921.913 3         0.00000      2561.500          22.400  
G13  23385789.449 3   -171763.91009       907.280          35.500           0.000 0         0.00000         0.000           0.000  
G15  22182964.856 4   -352043.80003      1929.882          34.600           0.000 0         0.00000         0.000           0.000  
G18  20727919.458 2   -144602.88309       811.272          42.100           0.000 0         0.00000         0.000           0.000  
G23  21462542.284 2   -453954.91401      2532.047          45.400           0.000 0         0.00000         0.000           0.000  
G25  24309917.993 4    644936.22603     -3600.944          35.200    24307566.715 2    477695.73409     -2689.184          31.300  
G26  22573547.949 5         0.00000       284.500          27.900    22571199.080 2    -41681.83805       212.252          32.900  
G29  20644298.643 4    184841.93503     -1085.138          33.700           0.000 0         0.00000         0.000           0.000  
R10  22526263.496 5         0.00000     -1202.550          25.400  
R18  22524162.245 4    409967.94303     -2334.398          35.300  
R09  23048600.584 3    594211.45802     -3373.124          37.300  
R05  21548172.911 3   -720320.12002      4043.833          39.600  
R19  20196956.430 6         0.00000      -397.100          22.900  
R03  22067648.792 4    530129.88603     -3048.370          33.600  
R04  19791007.774 4   -130648.15703       657.549          35.000  
C35  24130828.275 4    -29712.24009      2391.329          30.800  
C32  24920935.185 4    436201.06509     -2495.141          33.700  
C30  23694261.206 3    102706.24202     -2009.080          38.300  
C29  21594800.835 4    -32133.43109       388.864          32.900  
C19  23378161.836 3    -34191.84401      2991.905          40.900  
E01  25763316.928 3     33361.13204     -1160.940          39.200    25761406.653 2    151452.17609      -866.939          33.700  
E07  25618824.448 4    -48653.24909      2361.112          29.900    25616920.769 2   -312609.66909      1763.060          35.600  
E08  23761201.864 4      -220.41809        34.942          31.500    23759289.477 2    -11016.06009        26.161          32.000  
E13  24556497.282 5         0.00000     -1159.250          28.000    24554581.911 2    151114.89009      -865.628          32.300  
E21  26645313.230 4    103847.30206     -2827.983          35.900    26643414.646 3         0.00000     -2113.200          23.800  
E26  23522251.076 3    -26630.43403       754.340          41.000    23520340.801 1    -98834.57509       563.614          36.200  
> 2021 07 14 20 52 08.4352186  0 29
G05  22269178.268 3    519182.09502     -2944.531          37.300           0.000 0         0.00000         0.000           0.000  
G10  24236610.937 3   -605926.94402      3438.772          36.300    24234269.554 3         0.00000      2567.801          23.500  
G13  23385616.168 3   -172668.50009       902.139          35.900           0.000 0         0.00000         0.000           0.000  
G15  22182603.305 3   -353972.70202      1927.699          35.400           0.000 0         0.00000         0.000           0.000  
G16  23822264.782 6         0.00000      2186.050          21.700           0.000 0         0.00000         0.000           0.000  
G18  20727765.966 2   -145414.49109       811.788          41.700           0.000 0         0.00000         0.000           0.000  
G23  21462060.815 2   -456489.19101      2536.003          45.800           0.000 0         0.00000         0.000           0.000  
G25  24310593.421 4    648534.40603     -3596.241          35.100    24308250.240 2    480382.61905     -2685.499          31.800  
G26  22573502.980 4    -56076.25109       287.231          29.900    22571145.421 2    -41894.10809       212.895          32.100  
G29  20644504.904 4    185927.61903     -1086.314          33.500           0.000 0         0.00000         0.000           0.000  
R10  22526499.423 4    206469.24004     -1194.962          31.800  
R18  22524594.557 4    412304.42409     -2338.499          33.200  
R09  23049216.961 3    597581.15902     -3367.172          38.200  
R05  21547421.033 3   -724365.61301      4046.771          40.800  
R19  20197004.104 6         0.00000      -396.750          23.100  
R03  22068216.883 4    533181.29204     -3054.485          31.200  
R04  19790856.673 4   -131304.49803       655.211          34.800  
C35  24130378.583 4         0.00000      2393.440          29.600  
C32  24921412.763 4    438699.19309     -2500.984          34.400  
C30  23694644.639 4    104716.65203     -2011.692          35.300  
C29  21594724.682 4    -32521.79709       387.578          32.900  
C19  23377588.021 3    -37186.06301      2995.787          41.800  
E01  25763536.975 3     34519.41304     -1156.792          39.400    25761626.996 2    152317.21909      -863.886          33.900  
E07  25618368.771 5         0.00000      2362.000          28.700    25616471.077 1   -314373.06708      1763.262          36.100  
E08  23761195.861 4      -252.82208        30.148          34.300    23759283.788 2    -11040.29309        22.528          32.600  
E13  24556715.532 5         0.00000     -1163.850          29.000    24554803.459 2    151981.97409      -868.514          31.000  
E21  26645852.249 4    106672.03807     -2822.498          35.700    26643950.978 3         0.00000     -2107.581          24.300  
E26  23522106.589 3    -27384.93703       754.518          41.000    23520197.203 1    -99397.99406       563.311          37.900  
E33  27288645.661 5         0.00000      1901.850          27.200           0.000 0         0.00000         0.000           0.000  
> 2021 07 14 20 52 09.4352186  0 29
G05  22269740.077 3    522128.72302     -2947.977          37.400           0.000 0         0.00000         0.000           0.000  
G10  24235959.799 3   -609368.69702      3444.410          36.600    24233616.916 4         0.00000      2571.200          21.900  
G13  23385448.280 3   -173568.36509       898.544          36.100           0.000 0         0.00000         0.000           0.000  
G15  22182233.657 3   -355899.72502      1926.556          36.700           0.000 0         0.00000         0.000           0.000  
G16  23821812.106 6         0.00000      2184.850          21.500           0.000 0         0.00000         0.000           0.000  
G18  20727612.177 2   -146226.76809       812.882          42.000           0.000 0         0.00000         0.000           0.000  
G23  21461577.549 2   -459027.28901      2540.059          45.300           0.000 0         0.00000         0.000           0.000  
G25  24311277.556 4    652128.19503     -3591.645          35.200    24308934.080 2    483066.32905     -2682.062          31.800  
G26  22573448.727 5         0.00000       289.100          27.200    22571090.261 2    -42109.24704       216.037          35.300  
G29  20644712.352 4    187014.19804     -1086.660          32.700           0.000 0         0.00000         0.000           0.000  
R10  22526712.280 3    207663.70709     -1193.621          39.600  
R18  22525018.458 5         0.00000     -2339.800          28.000  
R09  23049848.920 3    600945.34702     -3361.493          36.400  
R05  21546659.855 3   -728413.89101      4049.842          40.600  
R19  20197088.947 6         0.00000      -404.800          23.900  
R03  22068829.962 5         0.00000     -3057.750          28.800  
R04  19790758.044 3   -131958.55102       653.600          36.600  
C35  24129915.105 4    -34499.44609      2394.357          33.800  
C32  24921893.621 4    441202.36904     -2504.768          33.400  
C30  23695033.762 4    106729.56909     -2013.271          34.700  
C29  21594651.531 4    -32908.76504       387.546          33.400  
C19  23377012.426 2    -40183.90401      2999.740          42.200  
E01  25763756.115 3     35674.20503     -1152.859          41.200    25761847.044 1    153179.51607      -860.894          37.200  
E07  25617928.973 4    -53375.18809      2362.109          31.700    25616021.996 1   -316136.47708      1763.906          36.000  
E08  23761191.969 4      -280.93508        27.056          34.300    23759278.693 2    -11061.37809        20.088          34.400  
E13  24556937.987 4    204704.26409     -1165.405          30.000    24555025.601 2    152851.60009      -870.279          32.000  
E21  26646387.989 3    109491.54905     -2816.975          36.800    26644488.794 3         0.00000     -2103.493          25.500  
E26  23521963.881 3    -28139.82203       755.462          41.000    23520053.309 1    -99961.68207       564.170          37.200  
E33  27288283.516 4     -1068.78009      1904.954          33.500    27286372.334 3         0.00000      1422.500          25.700  
> 2021 07 14 20 52 10.4352186  0 31
G05  22270297.996 3    525076.56102     -2946.824          37.900           0.000 0         0.00000         0.000           0.000  
G10  24235306.236 3   -612814.54602      3445.530          37.100    24232958.571 4         0.00000      2572.050          22.000  
G13  23385272.312 3   -174466.75209       899.176          35.500           0.000 0         0.00000         0.000           0.000  
G15  22181866.417 3   -357826.50202      1927.292          35.500           0.000 0         0.00000         0.000           0.000  
G16  23821399.287 5         0.00000      2177.650          23.900           0.000 0         0.00000         0.000           0.000  
G18  20727458.981 2   -147040.43909       814.105          41.700           0.000 0         0.00000         0.000           0.000  
G23  21461092.188 2   -461568.31301      2540.820          45.100           0.000 0         0.00000         0.000           0.000  
G25  24311957.783 4    655718.44003     -3590.183          35.000    24309619.105 2    485747.35509     -2681.124          30.600  
G26  22573399.849 5         0.00000       287.150          25.500    22571035.101 2    -42325.82705       216.514          34.100  
G29  20644919.521 4    188100.38704     -1085.848          33.100           0.000 0         0.00000         0.000           0.000  
J02  43307863.495 4         0.00000       200.668          28.700           0.000 0         0.00000         0.000           0.000  
R10  22526936.830 3    208856.69502     -1193.086          37.600  
R18  22525478.026 4    416992.05707     -2342.456          30.900  
R09  23050483.288 4    604305.44903     -3360.359          35.000  
R05  21545910.979 3   -732464.55601      4050.614          40.000  
R19  20197173.197 6         0.00000      -400.300          23.700  
R03  22069383.081 4    539296.41803     -3057.406          34.000  
R04  19790638.720 4   -132612.30903       654.072          35.000  
C35  24129451.627 4    -36893.65609      2394.750          33.400  
C32  24922373.904 4    443707.18303     -2503.788          34.300  
C30  23695421.104 3    108742.45309     -2012.363          36.600  
C29  21594579.880 5         0.00000       388.000          28.800  
C19  23376436.830 2    -43184.67901      3000.727          42.100  
E01  25763976.162 3     36825.93103     -1151.776          41.500    25762066.498 1    154039.54507      -860.113          37.000  
E07  25617479.892 4    -55737.84409      2363.058          30.400    25615571.710 2   -317900.75809      1764.606          35.000  
E08  23761185.670 4      -307.78909        27.659          32.100    23759273.301 2    -11081.43609        20.661          32.700  
E13  24557157.424 5         0.00000     -1164.500          29.200    24555246.852 2    153721.67009      -869.320          32.900  
E21  26646920.709 4    112307.10707     -2815.761          35.600    26645024.533 3         0.00000     -2102.523          26.400  
E26  23521819.079 3    -28896.05304       756.789          40.700    23519909.397 1   -100526.43607       565.069          37.200  
E31  27584820.214 6         0.00000      1328.750          22.000           0.000 0         0.00000         0.000           0.000  
E33  27287923.152 3     -2974.27004      1906.214          37.900    27286011.987 3         0.00000      1423.600          28.200  
> 2021 07 14 20 52 11.4352186  0 26
G05  22270858.601 3    528021.56602     -2942.479          38.000           0.000 0         0.00000         0.000           0.000  
G10  24234647.595 3   -616259.40102      3442.652          36.000    24232299.930 3         0.00000      2571.183          24.000  
G13  23385103.830 4   -175367.60009       903.161          35.200           0.000 0         0.00000         0.000           0.000  
G15  22181496.158 4   -359754.72104      1929.277          33.100           0.000 0         0.00000         0.000           0.000  
G16  23820970.587 5         0.00000      2178.600          23.500           0.000 0         0.00000         0.000           0.000  
G18  20727302.191 2   -147855.05309       814.786          42.700           0.000 0         0.00000         0.000           0.000  
G23  21460611.330 2   -464108.67201      2538.761          45.600           0.000 0         0.00000         0.000           0.000  
G25  24312650.295 3    659309.08002     -3592.058          35.800    24310302.020 2    488428.69705     -2682.384          32.100  
G26  22573348.895 5         0.00000       285.750          26.400    22570979.330 1    -42542.29703       215.669          35.800  
G29  20645127.580 4    189185.38903     -1084.327          34.600           0.000 0         0.00000         0.000           0.000  
J02  43307828.402 4    -32240.30909       201.621          34.400    43305475.642 3         0.00000       150.569          29.200  
R10  22527158.674 3    210049.86202     -1194.412          37.400  
R18  22525913.933 4    419330.83509     -2336.273          34.700  
R09  23051116.452 3    607666.44502     -3363.137          36.600  
R05  21545144.705 3   -736515.00501      4049.379          40.300  
R19  20197234.342 6         0.00000      -398.200          23.700  
R03  22069941.907 4    542352.03403     -3053.010          34.100  
R04  19790511.019 4   -133267.09003       655.637          34.900  
E01  25764195.023 3     37978.09003     -1153.704          40.900    25762285.341 1    154899.96807      -861.531          36.800  
E07  25617025.104 5         0.00000      2364.150          26.200    25615122.315 1   -319665.73808      1765.154          35.700  
E08  23761177.573 4      -337.75209        31.565          30.900    23759267.298 2    -11103.37809        23.507          31.500  
E13  24557381.677 5         0.00000     -1159.900          29.200    24555467.807 2    154589.69609      -866.451          30.400  
E21  26647458.245 4    115123.43607     -2818.310          35.600    26645559.958 3         0.00000     -2104.586          25.700  
E26  23521675.184 3    -29653.57803       757.919          40.800    23519765.799 1   -101092.08506       565.913          37.700  
E31  27584572.002 4      -737.38209      1327.893          31.900           0.000 0         0.00000         0.000           0.000  
E33  27287559.803 4     -4880.54307      1904.989          35.100    27285648.638 3         0.00000      1422.480          28.500  
> 2021 07 14 20 52 12.4352186  0 30
G05  22271419.818 3    530959.67102     -2934.685          38.000           0.000 0         0.00000         0.000           0.000  
G10  24233995.550 3   -619697.84102      3432.623          36.000    24231649.369 3         0.00000      2563.740          26.100  
G13  23384931.753 4   -176274.48003       910.517          34.900           0.000 0         0.00000         0.000           0.000  
G15  22181134.625 4   -361685.99003      1932.046          34.100           0.000 0         0.00000         0.000           0.000  
G16  23820533.477 5         0.00000      2181.500          25.800           0.000 0         0.00000         0.000           0.000  
G18  20727150.182 2   -148669.31401       813.308          43.000           0.000 0         0.00000         0.000           0.000  
G20  24964398.495 6         0.00000     -3404.800          21.100           0.000 0         0.00000         0.000           0.000  
G23  21460128.064 2   -466644.53701      2531.144          45.500           0.000 0         0.00000         0.000           0.000  
G25  24313326.928 3    662903.87902     -3599.190          36.700    24310987.342 2    491113.14005     -2687.646          33.100  
G26  22573258.363 5         0.00000       286.000          26.600    22570925.374 2    -42756.59104       211.470          35.300  
G29  20645333.824 4    190268.67003     -1083.560          35.300           0.000 0         0.00000         0.000           0.000  
J02  43307796.032 4    -32440.65709       198.454          33.100    43305437.565 3         0.00000       148.110          29.100  
R10  22527374.219 4    211246.71104     -1200.592          31.800  
R18  22526348.932 4    421663.19203     -2329.387          35.900  
R09  23051741.519 3    611034.05602     -3373.445          38.900  
R05  21544382.043 3   -740562.51001      4043.840          40.600  
R19  20197350.665 6         0.00000      -384.450          22.300  
R03  22070522.598 4    545400.47703     -3044.631          33.800  
R04  19790389.304 4   -133924.38203       657.687          34.700  
C32  24923337.121 4    448703.03303     -2490.366          35.400  
C30  23696192.159 3    112760.08609     -2004.719          39.000  
C29  21594431.187 5         0.00000       397.700          24.700  
E01  25764415.070 3     39134.82304     -1161.062          40.700    25762505.091 1    155763.78708      -867.120          36.000  
E07  25616577.803 5         0.00000      2362.950          28.700    25614672.919 1   -321431.33008      1765.007          35.900  
E08  23761179.074 5         0.00000        38.350          28.700    23759259.497 2    -11130.04009        28.883          29.900  
E13  24557599.630 4    208189.21409     -1153.963          31.500    24555687.854 3    155453.30209      -861.594          29.000  
E21  26647995.764 4    117945.41307     -2827.189          35.000    26646098.088 3         0.00000     -2111.276          25.300  
E26  23521531.586 3    -30411.95304       757.411          40.300    23519620.997 1   -101658.40607       565.617          37.600  
E31  27584317.473 4     -2065.19909      1327.319          31.900           0.000 0         0.00000         0.000           0.000  
E33  27287197.066 5         0.00000      1902.100          26.400    27285290.682 4         0.00000      1418.950          22.400  
> 2021 07 14 20 52 13.4352186  0 29
G05  22271974.735 3    533891.48202     -2929.253          36.700           0.000 0         0.00000         0.000           0.000  
G10  24233339.003 3   -623123.67602      3422.093          35.900    24230995.526 3         0.00000      2555.285          27.600  
G13  23384754.860 4   -177187.94103       915.724          33.600           0.000 0         0.00000         0.000           0.000  
G15  22180771.870 4   -363618.33403      1933.051          35.300           0.000 0         0.00000         0.000           0.000  
G16  23820147.949 5         0.00000      2177.800          26.900           0.000 0         0.00000         0.000           0.000  
G18  20726991.595 2   -149480.61101       810.521          42.000           0.000 0         0.00000         0.000           0.000  
G20  24965061.045 6         0.00000     -3393.550          23.300           0.000 0         0.00000         0.000           0.000  
G23  21459645.688 2   -469170.46401      2522.958          44.900           0.000 0         0.00000         0.000           0.000  
G25  24314019.754 3    666508.46102     -3607.428          36.300    24311672.071 2    493804.85505     -2693.703          33.200  
G26  22573260.160 5         0.00000       275.600          24.700    22570872.901 2    -42965.03704       206.786          34.400  
G29  20645538.585 4    191352.87503     -1084.156          34.300           0.000 0         0.00000         0.000           0.000  
J02  43307738.778 6         0.00000       195.100          21.500    43305402.194 3         0.00000       145.427          25.600  
R10  22527595.471 5         0.00000     -1206.750          25.800  
R18  22526787.526 3    423990.11302     -2324.720          36.800  
R09  23052376.462 3    614414.64502     -3384.517          36.400  
R05  21543629.554 3   -744602.34901      4037.612          40.500  
R03  22071074.217 4    548442.09009     -3038.991          31.700  
R04  19790257.991 4   -134582.34609       657.787          33.300  
C32  24923815.292 3    451190.02802     -2484.177          36.300  
C30  23696578.595 3    114763.65009     -2002.770          39.800  
C29  21594373.322 5         0.00000       394.550          24.500  
E01  25764639.602 3     40301.53903     -1169.669          42.000    25762727.529 1    156635.05907      -873.487          37.400  
E07  25616129.018 4     -3636.70809      2361.842          32.000    25614223.838 1   -323195.11708      1763.481          36.000  
E08  23761158.989 5         0.00000        43.350          28.800    23759253.215 3    -11160.69109        32.312          29.400  
E13  24557814.582 4    209340.30509     -1149.596          31.500    24555909.402 3    156313.23309      -858.393          29.500  
E21  26648537.506 4    120779.18406     -2837.129          36.200    26646636.218 3         0.00000     -2118.672          25.200  
E26  23521387.971 3    -31167.75704       755.368          40.600    23519477.696 1   -102222.81306       564.095          38.000  
E31  27584073.135 5         0.00000      1324.600          29.600           0.000 0         0.00000         0.000           0.000  
E33  27286839.406 5         0.00000      1892.250          27.700    27284926.740 3         0.00000      1414.000          25.400  
> 2021 07 14 20 52 14.4352186  0 30
G05  22272531.449 3    536820.96202     -2930.447          36.900           0.000 0         0.00000         0.000           0.000  
G10  24232689.053 3   -626544.27602      3421.086          36.900    24230342.574 3         0.00000      2555.284          25.500  
G13  23384587.582 4   -178103.11604       913.868          32.000           0.000 0         0.00000         0.000           0.000  
G15  22180399.831 3   -365550.48702      1931.076          39.300           0.000 0         0.00000         0.000           0.000  
G16  23819735.129 6         0.00000      2182.950          21.300           0.000 0         0.00000         0.000           0.000  
G18  20726836.305 2   -150290.46701       809.981          42.100           0.000 0         0.00000         0.000           0.000  
G20  24965698.397 5         0.00000     -3396.050          24.700           0.000 0         0.00000         0.000           0.000  
G23  21459167.220 2   -471691.98901      2521.817          44.300           0.000 0         0.00000         0.000           0.000  
G25  24314701.481 4    670117.24803     -3608.616          34.300    24312359.208 2    496499.69705     -2694.671          33.400  
G26  22573170.519 4    -57793.13709       276.151          33.600    22570819.538 2    -43171.09905       206.330          33.200  
G29  20645739.141 4    192437.82803     -1085.678          33.400           0.000 0         0.00000         0.000           0.000  
J02  43307709.985 5         0.00000       193.900          24.800           0.000 0         0.00000         0.000           0.000  
R10  22527839.809 4    213658.72603     -1207.320          33.600  
R18  22527223.729 3    426315.23202     -2326.465          36.300  
R09  23053019.538 4    617800.68903     -3385.207          34.200  
R05  21542879.771 3   -748638.49801      4036.019          41.500  
R19  20197462.190 6         0.00000      -381.350          23.400  
R03  22071648.015 4    551481.17904     -3040.359          32.200  
R04  19790156.658 4   -135238.60304       655.688          32.200  
C32  24924294.073 4    453674.27003     -2485.190          35.800  
C30  23696958.433 3    116767.02309     -2004.369          36.400  
C29  21594286.682 5         0.00000       393.250          25.600  
E01  25764860.260 3     41472.63703     -1170.493          40.800    25762949.077 1    157509.42108      -874.081          35.800  
E07  25615682.031 4     -5996.78706      2359.856          36.500    25613775.053 1   -324957.84308      1762.266          35.700  
E08  23761153.893 5         0.00000        41.650          24.800    23759245.118 3    -11192.73309        31.031          25.600  
E13  24558036.723 4    210490.62908     -1150.679          32.800    24556126.744 3    157171.81909      -859.387          29.300  
E21  26649078.027 3    123617.96204     -2838.205          38.100    26647176.738 4         0.00000     -2119.700          22.400  
E26  23521244.077 3    -31922.66303       755.009          41.800    23519334.395 1   -102786.54907       563.888          37.100  
E31  27583839.006 6         0.00000      1327.200          22.800           0.000 0         0.00000         0.000           0.000  
E33  27286476.965 4      -989.44908      1892.642          34.600    27284567.876 2   -256608.88009      1412.958          33.200  
> 2021 07 14 20 52 15.4352186  0 29
G05  22273091.165 4    539752.41904     -2932.355          32.400           0.000 0         0.00000         0.000           0.000  
G10  24232040.602 3   -629966.93302      3423.467          35.400    24229693.827 3         0.00000      2556.476          24.900  
G13  23384408.002 4   -179016.25209       911.538          31.900           0.000 0         0.00000         0.000           0.000  
G15  22180036.169 3   -367480.23002      1927.363          37.100           0.000 0         0.00000         0.000           0.000  
G16  23819345.099 6         0.00000      2186.600          22.800           0.000 0         0.00000         0.000           0.000  
G18  20726684.314 3   -151101.42301       812.254          39.900           0.000 0         0.00000         0.000           0.000  
G20  24966362.447 6         0.00000     -3387.100          23.200           0.000 0         0.00000         0.000           0.000  
G23  21458687.252 2   -474214.78601      2523.178          43.000           0.000 0         0.00000         0.000           0.000  
G25  24315387.100 3    673724.97702     -3608.261          36.900    24313045.124 2    499193.67204     -2694.377          35.100  
G26  22573116.859 3    -58071.11909       280.110          38.900    22570768.287 1    -43378.46803       209.058          37.600  
G29  20645953.499 3    193524.25202     -1087.547          35.400           0.000 0         0.00000         0.000           0.000  
J02  43307672.816 4    -33035.68709       200.451          32.600           0.000 0         0.00000         0.000           0.000  
R10  22528070.640 3    214864.45602     -1203.757          38.600  
R18  22527657.524 4    428643.16609     -2330.712          34.300  
R09  23053631.412 4    621183.78003     -3381.463          33.900  
R05  21542116.498 3   -752674.66002      4034.783          38.500  
R19  20197573.417 6         0.00000      -388.700          21.800  
R03  22072245.196 5         0.00000     -3039.650          26.700  
R04  19790022.343 5         0.00000       656.200          28.700  
C32  24924768.632 4    456160.40404     -2487.385          32.900  
C30  23697345.758 3    118773.06601     -2007.675          40.400  
C29  21594208.731 5         0.00000       392.100          28.500  
E01  25765081.494 3     42641.25204     -1166.626          37.900    25763171.219 2    158382.02709      -871.174          34.600  
E07  25615234.432 3     -8355.91105      2357.421          36.900    25613325.658 1   -326719.45508      1760.247          36.000  
E08  23761149.688 5         0.00000        38.150          28.600    23759237.022 2    -11222.53609        28.846          30.600  
E13  24558257.974 4    211642.18307     -1152.496          35.600    24556345.291 3    158032.04209      -861.129          29.100  
E21  26649616.750 3    126454.85404     -2836.465          39.700    26647712.163 3         0.00000     -2117.900          24.600  
E26  23521099.885 3    -32678.60104       757.454          38.800    23519191.704 2   -103351.07909       565.547          34.700  
E33  27286116.915 3     -2883.98704      1897.436          39.000    27284206.639 2   -258023.89409      1417.118          35.100  
> 2021 07 14 20 52 16.4352186  0 29
G05  22273647.879 4    542684.18404     -2928.917          32.100           0.000 0         0.00000         0.000           0.000  
G10  24231386.464 3   -633389.74001      3421.174          39.600    24229043.283 2   -472877.98109      2556.161          30.700  
G13  23384238.927 4         0.00000       909.862          28.600           0.000 0         0.00000         0.000           0.000  
G15  22179665.334 3   -369405.07309      1924.011          36.900           0.000 0         0.00000         0.000           0.000  
G16  23818891.516 4   -273926.79609      2188.476          34.500           0.000 0         0.00000         0.000           0.000  
G18  20726528.728 3   -151915.50802       816.441          38.000           0.000 0         0.00000         0.000           0.000  
G20  24967053.773 6         0.00000     -3374.600          23.000           0.000 0         0.00000         0.000           0.000  
G23  21458207.894 2   -476737.10801      2520.971          41.600           0.000 0         0.00000         0.000           0.000  
G25  24316074.534 3    677335.03809     -3613.274          36.100    24313732.244 2    501889.86604     -2698.086          34.600  
G26  22573060.792 3    -58353.30709       284.441          37.900    22570714.017 1    -43589.31603       212.433          37.500  
G29  20646155.852 4    194612.85403     -1088.608          34.800           0.000 0         0.00000         0.000           0.000  
J02  43307637.445 3    -33238.89109       206.292          36.100    43305287.965 2    -24655.88809       154.041          30.400  
R10  22528294.596 3    216065.54009     -1199.455          36.600  
R18  22528084.740 5         0.00000     -2329.500          27.400  
R09  23054280.159 3    624564.65502     -3381.313          36.600  
R05  21541364.028 3   -756707.01402      4029.771          38.800  
R03  22072786.624 4         0.00000     -3037.750          29.800  
R04  19789889.547 4   -136547.38207       653.087          30.100  
C32  24925247.413 4    458645.52809     -2481.938          34.100  
C30  23697735.492 4    120781.66309     -2009.048          33.900  
C29  21594135.894 4    -35659.19909       391.533          30.500  
E01  25765304.246 3     43806.23303     -1164.308          41.000    25763396.675 2    159252.66109      -869.898          31.300  
E07  25614783.850 4    -10710.47209      2352.470          32.700    25612877.170 2   -328477.67709      1756.520          30.800  
E08  23761141.294 4         8.61108        38.311          33.800    23759228.331 3    -11250.84909        28.943          29.200  
E13  24558477.114 4    212795.09706     -1151.739          36.100    24556564.448 2    158893.28209      -860.114          33.900  
E21  26650155.770 3    129292.50704     -2839.196          39.600    26648249.997 2    394126.05909     -2120.113          32.500  
E26  23520956.881 3    -33438.28004       761.968          37.900    23519046.292 2   -103918.05709       568.503          34.700  
E31  27583310.770 4         0.00000      1336.500          30.200    27581405.887 3         0.00000       998.100          23.400  
E33  27285752.659 4     -4784.52607      1902.704          35.500    27283846.275 3   -259443.54109      1421.609          27.700  
> 2021 07 14 20 52 17.4352186  0 29
G05  22274207.281 4    545609.97909     -2923.667          32.300           0.000 0         0.00000         0.000           0.000  
G10  24230738.607 3   -636808.40001      3416.685          40.100    24228389.738 2   -475431.04905      2551.374          33.000  
G13  23384071.039 4   -180837.38009       911.816          30.200           0.000 0         0.00000         0.000           0.000  
G15  22179296.890 4   -371330.45909      1924.721          30.700           0.000 0         0.00000         0.000           0.000  
G16  23818476.009 3   -276118.27009      2194.658          37.500           0.000 0         0.00000         0.000           0.000  
G18  20726375.532 3   -152734.05909       819.256          36.000           0.000 0         0.00000         0.000           0.000  
G23  21457728.519 3   -479256.46309      2519.160          36.600           0.000 0         0.00000         0.000           0.000  
G25  24316762.858 3    680951.43709     -3619.035          36.200    24314420.271 1    504590.26803     -2702.337          35.500  
G26  22573010.727 3    -58638.99809       287.446          39.900    22570660.654 2    -43802.30109       214.402          30.800  
G29  20646365.708 4         0.00000     -1089.903          28.900           0.000 0         0.00000         0.000           0.000  
J02  43307594.569 4    -33447.84209       212.257          34.100    43305247.794 3         0.00000       159.009          28.200  
R10  22528517.628 3    217263.94409     -1195.917          36.100  
R18  22528497.856 5         0.00000     -2331.650          25.100  
R09  23054914.527 3    627947.44102     -3383.860          37.500  
R05  21540622.341 4   -760733.96809      4024.413          34.300  
R19  20197701.729 6         0.00000      -379.650          20.900  
R03  22073363.424 5         0.00000     -3027.850          26.600  
R04  19789774.428 4   -137199.37409       651.302          35.400  
C32  24925725.584 4         0.00000     -2478.450          30.200  
C30  23698120.129 4    122791.93909     -2010.566          35.000  
C29  21594055.536 4    -36050.89509       395.127          31.800  
E01  25765525.794 3     44970.42303     -1163.720          41.700    25763614.925 2    160121.51409      -868.538          32.400  
E07  25614339.864 4    -13061.62309      2349.066          35.500    25612432.573 3         0.00000      1753.550          25.400  
E08  23761133.215 4       -31.62509        41.918          30.600    23759222.922 3    -11280.23709        30.578          27.900  
E13  24558696.865 4    213943.86009     -1146.657          32.400    24556783.588 2    159751.67309      -856.957          32.300  
E21  26650698.105 4    132133.88209     -2844.065          36.500    26648789.924 2    396248.34909     -2123.882          32.200  
E26  23520812.672 3    -34202.52605       766.838          37.500    23518899.710 1   -104488.44906       572.491          38.900  
E31  27583055.648 4     -2022.69709      1342.388          36.400    27581148.357 3    -65080.56209      1004.152          29.400  
E33  27285392.905 4     -6688.85906      1906.294          36.000    27283486.539 3   -260865.69909      1423.615          24.200  
> 2021 07 14 20 52 18.4352186  0 29
G05  22274771.499 5         0.00000     -2920.500          26.200           0.000 0         0.00000         0.000           0.000  
G10  24230086.265 4   -640222.60609      3410.987          35.200    24227740.973 2   -477980.63204      2547.119          35.300  
G13  23383895.071 4   -181750.37809       910.561          34.400           0.000 0         0.00000         0.000           0.000  
G15  22178932.634 3   -373251.56502      1917.764          35.500           0.000 0         0.00000         0.000           0.000  
G16  23818055.703 3   -278316.63309      2200.154          36.700           0.000 0         0.00000         0.000           0.000  
G18  20726220.836 3   -153555.16001       822.453          40.000           0.000 0         0.00000         0.000           0.000  
G23  21457247.347 3   -481773.73502      2513.020          38.800           0.000 0         0.00000         0.000           0.000  
G25  24317455.073 3    684573.96802     -3626.901          36.000    24315108.298 1    507295.14703     -2708.385          35.800  
G26  22572952.862 3    -58928.26901       289.182          41.100    22570603.400 2    -44018.54309       216.458          32.500  
G29  20646566.874 4    196791.65303     -1091.337          33.500           0.000 0         0.00000         0.000           0.000  
J02  43307555.306 4    -33663.13004       216.866          32.700    43305208.828 3         0.00000       161.070          25.800  
R10  22528731.986 3    218457.42602     -1193.387          37.600  
R18  22528977.214 4    435649.42604     -2332.203          32.300  
R09  23055548.284 3    631332.43402     -3387.506          37.300  
R05  21539861.459 3   -764755.06002      4016.392          39.100  
R20  21571132.808 4     -1253.03409      2388.526          30.100  
R03  22074006.778 6         0.00000     -3028.650          21.700  
R04  19789657.511 4   -137850.35003       648.946          33.300  
C32  24926194.751 5         0.00000     -2473.250          24.500  
C30  23698506.268 3    124802.69509     -2013.437          36.600  
C29  21593973.398 4    -36449.21809       398.041          32.700  
E01  25765744.340 4     46132.93809     -1164.126          36.700    25763834.065 3         0.00000      -869.750          26.500  
E07  25613897.362 5         0.00000      2343.600          28.700    25611985.289 2         0.00000      1749.450          30.000  
E08  23761127.508 5         0.00000        42.500          27.700    23759212.434 3    -11312.16409        31.108          28.800  
E13  24558909.722 4    215088.56509     -1145.611          29.800    24557000.930 2    160607.06609      -855.578          33.800  
E21  26651240.423 4    134980.70309     -2850.588          34.200    26649332.852 1    398374.06009     -2128.670          36.300  
E26  23520663.072 3    -34971.83804       769.690          38.900    23518753.704 1   -105062.96706       574.975          37.800  
E31  27582802.323 4     -3369.33709      1348.289          35.600    27580893.235 3         0.00000      1007.300          27.900  
E33  27285030.464 4     -8597.30206      1908.810          36.200    27283119.578 3   -262290.93109      1425.805          24.600  
> 2021 07 14 20 52 19.4352186  0 31
G05  22275327.305 4    551454.85809     -2919.008          30.600           0.000 0         0.00000         0.000           0.000  
G10  24229441.410 3   -643630.45502      3406.984          37.200    24227092.523 1   -480525.56803      2544.359          37.600  
G13  23383715.787 5         0.00000       909.550          26.100           0.000 0         0.00000         0.000           0.000  
G15  22178579.791 3   -375166.15402      1912.012          35.400           0.000 0         0.00000         0.000           0.000  
G16  23817636.583 3   -280519.80302      2207.223          37.000           0.000 0         0.00000         0.000           0.000  
G18  20726056.542 3   -154378.74501       825.898          40.000           0.000 0         0.00000         0.000           0.000  
G20  24968951.152 6         0.00000     -3378.900          20.400           0.000 0         0.00000         0.000           0.000  
G23  21456773.085 3   -484284.59902      2510.063          38.800           0.000 0         0.00000         0.000           0.000  
G25  24318149.086 4    688204.26809     -3631.756          33.400    24315800.810 1    510006.77103     -2713.326          37.600  
G26  22572900.110 3    -59218.83002       293.590          36.300    22570549.723 2    -44235.80205       219.394          31.700  
G29  20646781.826 3    197884.71402     -1094.111          35.700           0.000 0         0.00000         0.000           0.000  
J02  43307518.731 4    -33883.51809       224.509          29.700    43305164.749 4         0.00000       166.250          21.700  
R10  22528964.318 3    219649.03202     -1188.294          37.400  
R18  22529378.045 5         0.00000     -2337.550          27.100  
R09  23056156.249 5         0.00000     -3389.950          28.500  
R05  21539109.582 3   -768767.17309      4009.223          36.500  
R20  21570677.130 5         0.00000      2395.250          25.800  
R19  20197823.444 6         0.00000      -376.550          23.100  
R03  22074478.650 5         0.00000     -3025.200          24.800  
R04  19789535.482 4   -138497.22503       645.671          35.300  
C32  24926673.218 4    466056.92109     -2471.702          32.100  
C30  23698895.687 3    126818.81709     -2017.890          36.100  
C29  21593897.245 3    -36847.30909       399.083          36.800  
E01  25765967.389 3     47297.33204     -1162.023          38.400    25764058.318 2         0.00000      -867.697          29.700  
E07  25613451.265 4    -17748.51609      2336.672          34.000    25611538.005 2         0.00000      1744.760          30.300  
E08  23761127.212 6         0.00000        40.150          23.900    23759206.449 3         0.00000        30.700          27.700  
E13  24559133.661 5         0.00000     -1145.900          26.400    24557219.791 2    161462.89709      -855.879          35.500  
E21  26651784.242 4    137834.53407     -2854.665          35.100    26649875.170 1    400504.92607     -2131.748          37.300  
E26  23520516.176 3    -35743.09304       773.747          38.400    23518607.994 2   -105638.77409       577.735          34.500  
E31  27582541.792 4     -4720.05207      1355.591          35.300    27580637.519 3         0.00000      1011.449          26.300  
E33  27284666.208 3    -10507.89904      1913.921          39.200           0.000 0         0.00000         0.000           0.000  
> 2021 07 14 20 52 20.4352186  0 31
G05  22275872.625 5         0.00000     -2913.000          25.600           0.000 0         0.00000         0.000           0.000  
G10  24228793.257 3   -647036.47802      3404.984          37.300    24226443.183 1   -483068.93503      2542.636          36.100  
G13  23383556.589 5         0.00000       903.250          24.000           0.000 0         0.00000         0.000           0.000  
G15  22178209.550 3   -377075.30402      1906.120          37.600           0.000 0         0.00000         0.000           0.000  
G16  23817217.185 3   -282731.76002      2216.473          37.200           0.000 0         0.00000         0.000           0.000  
G18  20725905.144 3   -155207.16601       830.944          40.100           0.000 0         0.00000         0.000           0.000  
G20  24969585.520 6         0.00000     -3384.800          22.100           0.000 0         0.00000         0.000           0.000  
G23  21456293.710 3   -486793.63002      2507.987          37.500           0.000 0         0.00000         0.000           0.000  
G25  24318839.818 4    691839.42209     -3639.500          34.100    24316491.542 1    512722.35403     -2717.753          35.900  
G26  22572842.542 3    -59515.53902       299.959          37.200    22570494.877 2    -44457.40205       224.218          33.300  
G29  20646992.572 4    198980.05809     -1096.555          32.900           0.000 0         0.00000         0.000           0.000  
J02  43307467.462 4    -34112.69309       233.720          33.000           0.000 0         0.00000         0.000           0.000  
R10  22529185.866 3    220833.86702     -1181.018          39.700  
R18  22529846.619 6         0.00000     -2341.700          23.800  
R05  21538355.313 4   -772773.17809      4002.443          32.500  
R20  21570237.646 5         0.00000      2400.900          26.000  
R19  20197911.585 5         0.00000      -380.000          24.500  
R03  22075055.449 5         0.00000     -3021.900          28.300  
R04  19789391.291 4   -139141.39609       642.586          31.700  
C32  24927150.482 4    468527.45209     -2469.544          34.500  
C30  23699282.419 3    128839.06309     -2022.739          36.500  
C29  21593822.907 3    -37247.60609       401.462          39.700  
E01  25766190.141 3     48457.32804     -1157.995          38.500    25764277.161 3         0.00000      -864.867          29.500  
E03  28705949.885 6         0.00000     -2035.200          20.100           0.000 0         0.00000         0.000           0.000  
E07  25613004.574 4    -20081.10007      2329.802          35.400    25611093.705 2   -335458.01909      1739.806          31.100  
E08  23761124.210 6         0.00000        37.400          24.600    23759198.945 2    -11369.19009        28.655          35.300  
E13  24559351.004 4       640.70909     -1145.933          30.600    24557438.338 2    162318.64509      -855.718          34.300  
E21  26652314.885 5         0.00000     -2856.650          28.800    26650417.488 1    402637.87408     -2134.100          36.100  
E26  23520368.686 3    -36519.71403       779.424          41.000    23518459.301 2   -106218.71409       581.920          31.500  
E31  27582282.481 4     -6080.49207      1365.176          35.300    27580376.691 4         0.00000      1018.450          22.100  
E33  27284301.359 3    -12425.73204      1921.539          39.600    27282392.585 3   -265141.67709      1431.414          29.300  
> 2021 07 14 20 52 21.4352186  0 31
G05  22276423.947 5         0.00000     -2917.450          23.700           0.000 0         0.00000         0.000           0.000  
G10  24228151.699 4   -650441.20709      3404.051          33.000    24225795.623 2   -485610.99304      2541.100          35.100  
G13  23383377.916 5         0.00000       901.950          24.200           0.000 0         0.00000         0.000           0.000  
G15  22177846.201 3   -378978.51602      1900.327          37.200           0.000 0         0.00000         0.000           0.000  
G16  23816795.675 3   -284953.33402      2225.634          36.500           0.000 0         0.00000         0.000           0.000  
G18  20725742.369 3   -156040.67802       835.653          39.000           0.000 0         0.00000         0.000           0.000  
G20  24970215.682 5         0.00000     -3372.300          24.000           0.000 0         0.00000         0.000           0.000  
G23  21455821.542 3   -489300.81202      2506.311          35.700           0.000 0         0.00000         0.000           0.000  
G25  24319529.328 3    695481.82109     -3644.824          35.500    24317185.258 2    515442.29004     -2721.818          35.300  
G26  22572783.490 3    -59818.88802       306.314          37.000    22570437.605 2         0.00000       228.862          29.800  
G29  20647197.647 4    200077.90809     -1099.175          34.400           0.000 0         0.00000         0.000           0.000  
J02  43307417.397 4    -34351.36409       243.050          34.000           0.000 0         0.00000         0.000           0.000  
R10  22529404.116 3    222011.09202     -1173.819          39.700  
R18  22530274.114 5         0.00000     -2346.050          26.900  
R09  23057456.762 5         0.00000     -3383.450          25.900  
R05  21537609.718 5         0.00000      3996.000          26.700  
R20  21569768.166 5         0.00000      2413.600          28.800  
R19  20197987.721 6         0.00000      -370.350          23.900  
R03  22075627.153 4    572699.67609     -3017.106          32.600  
R04  19789296.554 4         0.00000       639.484          29.200  
C32  24927623.557 4    470995.77204     -2467.322          33.800  
C30  23699674.246 3    130864.39002     -2027.615          37.700  
C29  21593743.160 3    -37649.64301       403.424          40.000  
E01  25766410.188 3     49612.88704     -1153.745          38.700    25764496.912 2         0.00000      -861.499          30.000  
E07  25612561.181 4    -22407.37406      2323.281          36.000    25610651.517 2   -337195.23609      1734.954          30.200  
E08  23761106.830 4        46.22609        36.890          30.500    23759191.145 2    -11397.21209        27.436          34.500  
E13  24559570.458 4      1786.76009     -1145.819          30.100    24557655.383 2    163174.42209      -855.798          32.300  
E26  23520219.382 3    -37302.06604       784.779          40.200    23518308.810 3   -106802.85409       585.894          28.900  
E31  27582023.154 4     -7450.95208      1374.828          34.300    27580118.585 4         0.00000      1026.600          22.300  
E33  27283932.322 3    -14351.57604      1929.234          39.500    27282026.549 2   -266579.01009      1440.874          30.700  
E21         0.000 0         0.00000         0.000           0.000    26650961.621 2    404773.00509     -2136.023          35.300  
> 2021 07 14 20 52 22.4352186  0 31
G05  22276990.852 6         0.00000     -2911.000          23.000           0.000 0         0.00000         0.000           0.000  
G10  24227492.151 4         0.00000      3400.851          28.800    24225148.674 3         0.00000      2539.898          28.800  
G13  23383205.543 4         0.00000       897.864          28.400           0.000 0         0.00000         0.000           0.000  
G15  22177492.136 4   -380875.05803      1893.279          33.700           0.000 0         0.00000         0.000           0.000  
G16  23816372.367 3   -287183.29502      2233.997          37.500           0.000 0         0.00000         0.000           0.000  
G18  20725580.169 3   -156878.07002       839.254          39.200           0.000 0         0.00000         0.000           0.000  
G20  24970846.438 5         0.00000     -3376.500          24.000           0.000 0         0.00000         0.000           0.000  
G23  21455341.574 4   -491805.36403      2503.580          34.000           0.000 0         0.00000         0.000           0.000  
G25  24320229.658 3    699130.16909     -3650.941          37.200    24317878.677 1    518166.71203     -2726.252          35.400  
G26  22572723.828 3    -60127.86802       311.959          38.100    22570374.645 3         0.00000       232.763          25.500  
G29  20647409.598 4    201179.27209     -1103.177          33.900           0.000 0         0.00000         0.000           0.000  
J02  43307376.320 4    -34598.95309       251.997          34.700           0.000 0         0.00000         0.000           0.000  
R10  22529624.477 3    223181.74302     -1167.258          39.900  
R18  22530701.330 4    445014.61004     -2349.079          31.000  
R09  23058070.730 4    644876.59004     -3383.892          32.200  
R05  21536874.034 4   -780764.71007      3989.016          30.300  
R20  21569314.286 4    -10868.62709      2420.392          30.000  
R19  20198021.906 6         0.00000      -370.700          23.400  
R03  22076180.290 4    575716.11909     -3015.061          31.900  
R04  19789194.034 5         0.00000       636.350          26.000  
C32  24928096.633 4    473462.53503     -2466.560          34.200  
C30  23700061.588 3    132895.33702     -2033.849          37.500  
C29  21593667.007 3    -38053.25702       403.965          37.600  
E01  25766627.234 4     50765.20809     -1150.495          34.600    25764716.051 2         0.00000      -859.115          30.100  
E07  25612119.289 3    -24726.37405      2315.585          37.700    25610209.625 3   -338926.99209      1728.986          29.300  
E08  23761100.234 4        11.39009        33.585          31.000    23759185.753 2    -11423.44309        25.232          34.500  
E13  24559791.116 4      2934.01109     -1147.378          30.800    24557873.040 2    164030.75509      -856.891          30.500  
E21  26653418.420 5         0.00000     -2863.150          26.900    26651506.050 2    406910.51109     -2138.511          32.700  
E26  23520068.892 3    -38088.89604       788.982          39.200    23518160.414 3   -107390.45909       589.060          29.400  
E31  27581757.544 4     -8830.12207      1383.596          35.200    27579856.866 3         0.00000      1034.700          23.600  
E33  27283565.082 3    -16284.42604      1936.490          39.800    27281658.995 2   -268022.47509      1446.267          29.800  
> 2021 07 14 20 52 23.4352186  0 30
G05  22277538.876 5         0.00000     -2914.350          26.900           0.000 0         0.00000         0.000           0.000  
G10  24226852.688 3   -657244.23509      3400.087          38.000    24224501.428 1   -490691.23003      2538.980          38.100  
G13  23383033.152 5         0.00000       896.150          27.700           0.000 0         0.00000         0.000           0.000  
G15  22177118.893 4   -382766.10703      1889.245          33.500           0.000 0         0.00000         0.000           0.000  
G16  23815943.354 3   -289420.39302      2237.726          38.600           0.000 0         0.00000         0.000           0.000  
G18  20725426.677 3   -157718.78301       840.672          39.500           0.000 0         0.00000         0.000           0.000  
G23  21454869.999 4   -494308.48909      2501.708          32.300           0.000 0         0.00000         0.000           0.000  
G25  24320922.170 3    702782.54909     -3653.982          38.100    24318573.894 1    520894.11803     -2728.478          36.700  
G26  22572664.759 3    -60441.90302       314.044          38.300    22570312.295 3         0.00000       234.504          27.300  
G29  20647617.342 3    202283.64809     -1105.709          35.400           0.000 0         0.00000         0.000           0.000  
J02  43307322.660 4    -34854.33909       256.182          34.100           0.000 0         0.00000         0.000           0.000  
R10  22529848.416 3    224346.54301     -1164.602          41.100  
R18  22531174.092 4    447365.18007     -2352.141          30.100  
R09  23058736.578 4    648259.57004     -3383.584          32.500  
R05  21536109.558 5         0.00000      3987.200          28.900  
R20  21568885.272 4    -13291.78509      2423.854          31.100  
R19  20198086.646 6         0.00000      -374.850          23.700  
R03  22076725.610 4    578730.05209     -3014.687          30.900  
R04  19789036.039 5         0.00000       632.650          27.500  
C32  24928571.802 4    475928.51709     -2466.051          33.200  
C30  23700454.619 4    134930.95703     -2037.058          35.300  
C29  21593591.168 4    -38457.63803       403.849          35.700  
E01  25766843.076 4     51913.91408     -1149.165          34.200    25764935.209 2    165301.55409      -858.059          31.600  
E07  25611681.306 3    -27039.65505      2311.462          37.200    25609770.420 3   -340654.35409      1726.099          29.000  
E08  23761091.840 5         0.00000        31.750          29.500    23759179.750 2    -11447.90709        23.587          34.000  
E13  24560001.565 5         0.00000     -1148.550          27.600    24558092.180 2    164887.93809      -857.671          32.200  
E21  26653966.147 4      1749.33109     -2865.478          30.700    26652050.165 2    409049.31209     -2139.824          32.700  
E26  23519919.291 3    -38879.54104       790.719          39.000    23518010.516 2   -107980.77909       590.411          30.900  
E31  27581495.826 4    -10216.94407      1387.466          35.500    27579593.647 3         0.00000      1035.850          26.100  
E33  27283197.825 3    -18223.93504      1939.939          39.700    27281289.050 3   -269470.80809      1448.648          28.900  
> 2021 07 14 20 52 24.4352186  0 31
G05  22278094.701 5         0.00000     -2911.250          26.100           0.000 0         0.00000         0.000           0.000  
G10  24226202.440 3   -660643.06802      3399.351          37.900    24223854.775 1   -493229.66703      2538.441          36.300  
G13  23382871.877 5         0.00000       895.850          26.500           0.000 0         0.00000         0.000           0.000  
G15  22176775.630 4   -384653.89404      1887.014          31.200           0.000 0         0.00000         0.000           0.000  
G16  23815520.361 3   -291658.58602      2239.695          39.200           0.000 0         0.00000         0.000           0.000  
G18  20725262.104 3   -158559.40502       841.552          39.100           0.000 0         0.00000         0.000           0.000  
G20  24972087.881 6         0.00000     -3363.500          20.400           0.000 0         0.00000         0.000           0.000  
G23  21454396.924 4   -496809.39304      2500.910          31.600           0.000 0         0.00000         0.000           0.000  
G25  24321628.188 4    706437.86709     -3655.681          29.800    24319271.222 2         0.00000     -2731.193          29.500  
G26  22572600.909 3    -60756.08302       315.212          38.300    22570254.430 3         0.00000       235.442          27.700  
G29  20647831.701 4    203390.51903     -1107.052          34.800           0.000 0         0.00000         0.000           0.000  
J02  43307280.396 4    -35110.75503       258.709          34.500           0.000 0         0.00000         0.000           0.000  
R10  22530063.071 3    225510.94501     -1163.147          40.300  
R18  22531594.101 5         0.00000     -2352.050          28.700  
R09  23059350.250 4    651643.50709     -3383.408          32.900  
R05  21535374.171 4         0.00000      3982.880          29.000  
R20  21568431.095 4    -15716.18209      2426.025          31.400  
R19  20198185.589 5         0.00000      -370.650          24.400  
R03  22077285.622 4    581745.59504     -3014.476          32.000  
R04  19788947.898 6         0.00000       629.600          23.900  
C32  24929041.283 4    478395.30909     -2466.219          32.300  
C30  23700843.445 4    136969.47603     -2038.894          35.300  
C29  21593512.311 4    -38861.03103       403.946          35.600  
E01  25767064.624 4     53063.13308     -1148.460          33.300    25765152.848 2    166159.71809      -857.589          30.800  
E07  25611238.804 4    -29349.56006      2309.145          36.700    25609330.919 3   -342379.24009      1724.529          29.100  
E08  23761078.944 4       -51.90409        30.455          29.800    23759173.468 2    -11470.68409        22.685          34.500  
E13  24560223.706 4       643.85609     -1148.916          30.200    24558312.227 2    165746.17109      -857.980          32.000  
E21  26654507.872 4      4615.72809     -2866.460          32.300    26652595.781 2    411189.81409     -2140.364          34.600  
E26  23519767.893 3    -39670.39004       791.898          38.800    23517860.026 2   -108571.34109       591.298          30.900  
E31  27581229.012 4    -11605.02007      1389.572          35.300    27579326.833 3         0.00000      1037.541          26.600  
E33  27282827.584 3    -20164.39304      1941.835          39.600    27280920.013 2   -270919.82709      1450.347          29.700  
> 2021 07 14 20 52 25.4352186  0 30
G05  22278658.604 5         0.00000     -2909.800          28.000           0.000 0         0.00000         0.000           0.000  
G10  24225556.695 3   -664043.31602      3401.245          35.600    24223207.215 1   -495768.82103      2539.854          35.600  
G13  23382694.688 5         0.00000       889.550          26.400           0.000 0         0.00000         0.000           0.000  
G15  22176405.389 4   -386541.07204      1887.025          33.200           0.000 0         0.00000         0.000           0.000  
G16  23815087.752 3   -293900.79602      2244.434          39.300           0.000 0         0.00000         0.000           0.000  
G18  20725104.109 3   -159402.81401       845.170          39.700           0.000 0         0.00000         0.000           0.000  
G23  21453916.956 4   -499311.02204      2502.440          31.800           0.000 0         0.00000         0.000           0.000  
G25  24322303.023 4    710092.66809     -3654.764          33.200    24319965.235 2    526360.65009     -2734.328          32.100  
G26  22572545.155 3    -61073.31802       319.335          37.800    22570192.970 3         0.00000       238.345          25.100  
G29  20648036.462 4    204497.03003     -1106.146          34.700           0.000 0         0.00000         0.000           0.000  
J02  43307224.625 4    -35372.22503       263.971          33.900           0.000 0         0.00000         0.000           0.000  
R10  22530285.212 3    226672.00502     -1158.957          38.900  
R18  22532038.087 4         0.00000     -2352.725          29.200  
R09  23059985.804 4    655025.41704     -3380.439          32.800  
R05  21534632.187 4   -792718.51909      3982.498          30.700  
R20  21567967.007 4    -18144.78809      2430.961          32.400  
R19  20198237.154 6         0.00000      -373.950          23.900  
R03  22077868.407 5         0.00000     -3012.050          28.200  
R04  19788866.354 6         0.00000       626.100          23.200  
C32  24929519.750 4         0.00000     -2461.188          29.100  
C30  23701236.180 3    139008.01302     -2038.423          36.100  
C29  21593432.581 4    -39266.29903       406.426          34.600  
E01  25767281.076 4     54209.34509     -1144.933          32.400    25765371.708 2    167015.96709      -855.022          31.100  
E07  25610801.414 3    -31658.82205      2309.118          37.100    25608892.325 3   -344103.66209      1724.350          29.600  
E08  23761081.038 5         0.00000        31.300          25.100    23759166.872 2    -11494.02609        23.507          32.700  
E13  24560449.442 5         0.00000     -1147.650          28.600    24558529.587 2    166603.31709      -856.621          32.400  
E21  26655053.191 4      7481.90608     -2864.733          33.900    26653140.804 2    413329.73409     -2139.270          33.900  
E26  23519615.902 3    -40464.31305       795.723          37.600    23517709.518 2   -109164.21809       594.212          32.000  
E31  27580965.496 4    -12997.21506      1394.575          36.200    27579062.410 3         0.00000      1041.494          24.100  
E33  27282458.546 3    -22108.86004      1946.797          39.000    27280547.660 3   -272371.80209      1453.852          27.300  
> 2021 07 14 20 52 26.4352186  0 30
G05  22279213.225 5         0.00000     -2912.150          26.000           0.000 0         0.00000         0.000           0.000  
G10  24224908.838 3   -667444.66102      3401.182          37.600    24222560.562 1   -498308.80903      2539.881          38.200  
G13  23382538.805 4         0.00000       894.173          29.000           0.000 0         0.00000         0.000           0.000  
G15  22176044.449 4   -388427.11809      1885.453          31.400           0.000 0         0.00000         0.000           0.000  
G16  23814660.850 3   -296147.15502      2247.913          38.700           0.000 0         0.00000         0.000           0.000  
G18  20724935.628 3   -160249.07402       847.380          39.100           0.000 0         0.00000         0.000           0.000  
G23  21453432.799 4   -501813.43909      2502.242          32.400           0.000 0         0.00000         0.000           0.000  
G25  24323008.430 4    713748.15309     -3656.145          34.800    24320662.249 2    529090.08205     -2730.267          33.700  
G26  22572486.086 3    -61393.84402       321.716          38.100    22570133.326 3         0.00000       240.284          26.300  
G29  20648252.304 3    205603.53002     -1106.750          35.700           0.000 0         0.00000         0.000           0.000  
J02  43307178.469 4    -35638.71709       268.022          34.400           0.000 0         0.00000         0.000           0.000  
R10  22530492.975 3    227829.54802     -1156.389          37.900  
R18  22532473.993 4    454429.45509     -2359.360          30.300  
R09  23060609.667 4    658405.11403     -3379.317          34.300  
R05  21533882.404 4         0.00000      3980.842          29.500  
R20  21567520.613 4    -20577.66609      2434.541          31.300  
R19  20198384.940 5         0.00000      -367.400          24.100  
R03  22078440.111 5         0.00000     -3009.900          26.400  
R04  19788728.148 6         0.00000       625.250          22.200  
C32  24929988.027 5         0.00000     -2462.200          26.800  
C30  23701627.100 4    141047.16703     -2039.560          34.200  
C29  21593352.536 4    -39673.30903       407.776          34.200  
E01  25767499.326 4     55353.61209     -1143.112          31.600    25765590.848 2    167870.19009      -853.596          30.600  
E07  25610362.210 3    -33967.08805      2307.505          37.200    25608453.138 3   -345827.40709      1723.063          29.100  
E08  23761077.444 4        56.96109        31.543          30.600    23759161.165 2    -11517.50509        23.535          33.700  
E13  24560662.911 4      2938.71709     -1146.346          32.000    24558746.929 2    167459.71909      -856.106          31.500  
E21  26655599.418 4     10346.82908     -2865.146          34.400    26653686.141 2    415469.11109     -2139.709          34.500  
E26  23519466.301 3    -41261.38304       798.355          38.200    23517557.823 2   -109759.45709       596.217          31.600  
E31  27580702.574 4    -14393.83106      1398.391          36.000    27578796.190 3         0.00000      1044.514          26.300  
E33  27282088.008 4    -24057.19509      1949.262          32.400    27280180.124 3   -273826.73709      1455.674          24.200  
> 2021 07 14 20 52 27.4352186  0 30
G05  22279781.020 5         0.00000     -2909.950          25.100           0.000 0         0.00000         0.000           0.000  
G10  24224266.391 4   -670846.48009      3401.227          35.000    24221912.112 2   -500848.50109      2533.302          33.800  
G13  23382344.828 5         0.00000       890.700          28.200           0.000 0         0.00000         0.000           0.000  
G15  22175696.387 4   -390311.51909      1883.634          31.400           0.000 0         0.00000         0.000           0.000  
G16  23814234.838 3   -298396.43502      2250.000          38.500           0.000 0         0.00000         0.000           0.000  
G18  20724780.024 3   -161097.44802       848.975          39.000           0.000 0         0.00000         0.000           0.000  
G23  21452955.832 4   -504315.76209      2502.346          34.200           0.000 0         0.00000         0.000           0.000  
G25  24323705.148 3    717404.77709     -3657.114          35.900    24321356.575 2    531820.68804     -2730.936          35.300  
G26  22572421.939 3    -61716.61802       323.350          37.900    22570071.866 3         0.00000       241.406          27.100  
G29  20648457.361 4    206710.48703     -1107.337          35.100           0.000 0         0.00000         0.000           0.000  
J02  43307130.498 4    -35908.15209       270.429          33.200           0.000 0         0.00000         0.000           0.000  
R10  22530715.709 3    228984.71301     -1154.512          40.000  
R18  22532918.887 5         0.00000     -2353.100          28.500  
R09  23061230.546 4         0.00000     -3376.516          29.300  
R05  21533160.209 5         0.00000      3980.950          28.600  
R20  21567051.446 4    -23013.79309      2437.060          31.900  
R19  20198353.774 6         0.00000      -374.250          23.700  
R03  22079000.734 5         0.00000     -3009.050          28.700  
R04  19788558.759 6         0.00000       625.400          23.700  
C32  24930462.289 5         0.00000     -2457.450          25.700  
C30  23702022.522 4    143087.49603     -2041.241          35.200  
C29  21593279.089 3    -40081.48802       408.364          36.100  
E01  25767719.967 4     56495.32509     -1141.444          32.300    25765807.894 2    168723.09409      -852.574          30.400  
E07  25609921.225 3    -36273.60104      2305.844          37.800    25608012.730 3   -347549.92709      1721.957          28.200  
E08  23761072.645 5         0.00000        30.100          29.300    23759154.883 2    -11540.63109        22.506          33.400  
E13  24560879.957 5         0.00000     -1147.450          29.500    24558966.383 2    168315.74909      -856.237          31.200  
E21  26656142.940 4     13211.59409     -2866.427          32.100    26654231.757 2    417608.60909     -2140.345          32.100  
E26  23519313.716 3    -42060.82904       800.160          39.000    23517404.331 2   -110356.43409       597.500          30.800  
E31  27580432.758 4    -15793.56007      1400.517          35.700    27578532.081 3         0.00000      1045.795          25.400  
E33  27281715.062 3    -26003.04709      1953.016          40.100    27279807.474 3   -275284.38209      1458.397          29.200  
> 2021 07 14 20 52 28.4352186  0 30
G05  22280309.866 5         0.00000     -2912.450          26.900           0.000 0         0.00000         0.000           0.000  
G10  24223613.439 4   -674248.51909      3402.450          33.800    24221264.569 2         0.00000      2539.900          35.100  
G13  23382208.123 6         0.00000       888.250          21.500           0.000 0         0.00000         0.000           0.000  
G15  22175327.332 4   -392194.64509      1883.266          33.700           0.000 0         0.00000         0.000           0.000  
G16  23813806.749 3   -300646.95702      2250.926          37.700           0.000 0         0.00000         0.000           0.000  
G18  20724618.749 3   -161946.99602       850.196          39.100           0.000 0         0.00000         0.000           0.000  
G23  21452483.054 4   -506818.12609      2502.622          34.200           0.000 0         0.00000         0.000           0.000  
G25  24324399.771 5         0.00000     -3656.650          28.200    24322053.589 3         0.00000     -2731.331          25.400  
G26  22572359.275 3    -62040.38002       324.113          38.800    22570010.703 3         0.00000       242.055          28.400  
G29  20648667.217 4    207817.89903     -1107.059          34.700           0.000 0         0.00000         0.000           0.000  
J02  43307071.133 4    -36179.36109       271.766          34.800           0.000 0         0.00000         0.000           0.000  
R10  22530936.961 3    230138.92702     -1153.958          38.900  
R18  22533374.878 5         0.00000     -2356.750          25.100  
R09  23061882.887 4    665160.06209     -3378.165          32.800  
R05  21532410.722 4         0.00000      3979.620          29.600  
R20  21566615.854 4    -25451.65009      2438.471          31.500  
R19  20198473.692 5         0.00000      -372.750          24.200  
R03  22079552.946 4    593791.85104     -3009.858          31.800  
R04  19788489.219 5         0.00000       628.350          25.200  
C32  24930938.959 4    488246.95109     -2461.993          34.800  
C30  23702408.363 4    145128.81903     -2040.944          34.400  
C29  21593201.138 3    -40490.23402       409.375          38.000  
E01  25767936.733 4     57637.03907     -1140.914          34.900    25766023.143 2    169575.32909      -851.954          31.500  
E07  25609482.317 3    -38579.08005      2305.481          37.600    25607573.543 3   -349271.50009      1721.766          28.900  
E08  23761060.657 5         0.00000        30.850          29.200    23759148.287 2    -11563.28209        23.000          32.700  
E13  24561100.004 4         0.00000     -1145.707          31.500    24559184.930 2    169171.77009      -855.600          30.800  
E21  26656690.650 5         0.00000     -2865.750          28.900    26654776.779 2    419749.14109     -2140.051          32.300  
E26  23519159.927 3    -42861.57504       801.547          39.500    23517252.636 2   -110954.43109       598.706          30.500  
E31  27580166.852 4    -17194.56207      1401.350          35.300    27578265.860 3         0.00000      1046.425          24.800  
E33  27281344.821 3    -27956.37304      1953.795          40.300    27279434.528 3   -276742.93009      1458.886          29.300  
> 2021 07 14 20 52 29.4352186  0 29
G05  22280864.469 5         0.00000     -2910.050          24.800           0.000 0         0.00000         0.000           0.000  
G10  24222964.395 3   -677649.73209      3401.310          35.500    24220618.510 1   -505875.71803      2540.025          38.100  
G13  23382015.071 5         0.00000       890.350          27.800           0.000 0         0.00000         0.000           0.000  
G15  22174978.973 4   -394077.86609      1883.305          32.700           0.000 0         0.00000         0.000           0.000  
G16  23813381.330 3   -302898.04202      2251.223          37.800           0.000 0         0.00000         0.000           0.000  
G18  20724454.752 3   -162797.61302       850.933          38.900           0.000 0         0.00000         0.000           0.000  
G23  21452006.977 4   -509320.75409      2502.676          34.800           0.000 0         0.00000         0.000           0.000  
G25  24325092.283 3    724723.40709     -3657.347          35.700    24322748.806 1    537282.92103     -2730.938          36.100  
G26  22572299.613 3    -62364.48402       324.187          38.500    22569948.947 3         0.00000       242.071          26.900  
G29  20648880.965 4    208924.70903     -1106.622          34.700           0.000 0         0.00000         0.000           0.000  
J02  43307021.975 4    -36451.25409       272.242          34.700           0.000 0         0.00000         0.000           0.000  
R10  22531149.208 3    231293.01401     -1154.150          40.100  
R09  23062507.064 4    668538.33803     -3378.189          33.000  
R05  21531659.438 4   -808639.53907      3979.526          30.800  
R20  21566155.657 4    -27890.58809      2439.294          30.100  
R19  20198500.670 6         0.00000      -371.750          23.900  
R03  22080125.854 4    596801.50403     -3009.400          33.100  
R04  19788364.799 5         0.00000       624.800          28.300  
C32  24931411.738 4    490708.56409     -2461.386          34.500  
C30  23702803.489 4    147169.58003     -2040.620          34.500  
C29  21593119.890 3    -40900.05602       410.081          39.000  
E01  25768153.483 4     58777.89607     -1140.733          35.100    25766240.502 2    170427.28409      -851.854          30.600  
E07  25609044.927 4    -40884.78706      2305.912          36.400    25607134.652 2   -350993.33209      1722.019          30.200  
E08  23761055.561 5         0.00000        30.650          29.600    23759143.192 2    -11586.22709        23.230          32.700  
E13  24561317.643 4      6413.83109     -1144.727          32.100    24559399.585 2    170027.04109      -854.928          30.000  
E21  26657234.171 4         0.00000     -2865.051          30.700    26655321.505 2    421888.63309     -2139.304          34.900  
E26  23519009.419 3    -43663.58804       802.448          40.100    23517098.254 3   -111553.34809       599.221          28.800  
E31  27579900.928 4    -18596.13307      1401.828          35.200    27577998.139 3         0.00000      1046.867          25.200  
E33  27280971.578 3    -29910.30103      1954.194          40.800    27279063.694 2   -278202.02609      1459.292          30.900  
> 2021 07 14 20 52 30.4352186  0 30
G05  22281439.471 5         0.00000     -2905.400          26.200           0.000 0         0.00000         0.000           0.000  
G10  24222330.621 4   -681051.88503      3403.325          34.800    24219971.264 1   -508416.24303      2541.370          37.600  
G13  23381843.291 4   -192537.80104       894.119          33.100           0.000 0         0.00000         0.000           0.000  
G15  22174621.034 4   -395961.94909      1885.226          32.600           0.000 0         0.00000         0.000           0.000  
G16  23812954.428 3   -305149.85002      2252.734          37.800           0.000 0         0.00000         0.000           0.000  
G18  20724295.257 3   -163649.37702       852.960          39.000           0.000 0         0.00000         0.000           0.000  
G23  21451527.305 4   -511824.10303      2504.487          34.200           0.000 0         0.00000         0.000           0.000  
G25  24325789.001 3    728380.24402     -3655.045          37.100    24323444.634 2    540013.25305     -2729.394          34.000  
G26  22572231.871 3    -62689.22202       325.732          37.900    22569887.190 3         0.00000       243.161          28.300  
G29  20649090.525 4    210030.56803     -1104.850          33.400           0.000 0         0.00000         0.000           0.000  
J02  43306973.097 4    -36723.93603       274.347          33.900           0.000 0         0.00000         0.000           0.000  
R10  22531369.569 3    232446.76002     -1152.650          39.800  
R18  22534232.574 5         0.00000     -2352.550          25.700  
R09  23063146.213 4    671915.84104     -3376.289          32.900  
R05  21530922.254 4   -812619.87009      3981.091          31.700  
R20  21565709.280 4    -30330.93309      2441.554          30.300  
R19  20198566.317 6         0.00000      -367.200          23.100  
R03  22080665.485 4    599810.03104     -3007.640          31.800  
R04  19788240.083 4         0.00000       629.694          29.300  
C32  24931881.812 4    493169.04809     -2459.521          33.600  
C30  23703194.408 4    149209.36503     -2038.781          35.000  
C29  21593040.439 3    -41311.09802       412.075          39.200  
E01  25768371.418 4     59917.52609     -1139.028          34.000    25766457.845 2    171278.70009      -850.630          31.000  
E07  25608605.723 4    -43191.53306      2307.821          36.700    25606696.948 2   -352715.87109      1723.374          30.200  
E08  23761049.872 4       -66.00309        32.706          32.200    23759135.688 2    -11609.99809        24.444          31.500  
E13  24561532.298 4      7557.62508     -1142.722          32.900    24559616.334 3    170881.16009      -853.358          29.300  
E21  26657777.397 4     21856.35209     -2863.104          31.800    26655866.231 2    424027.51409     -2137.968          34.800  
E26  23518855.927 3    -44467.00704       804.589          40.300    23516947.152 3   -112153.33409       600.735          29.300  
E31  27579635.911 4    -19998.59906      1403.548          36.200    27577728.638 3         0.00000      1047.997          26.400  
E33  27280601.023 3    -31865.12004      1956.376          38.200    27278694.046 3   -279661.87009      1460.719          27.500  
> 2021 07 14 20 52 31.4352186  0 30
G05  22281983.900 5         0.00000     -2908.550          28.300           0.000 0         0.00000         0.000           0.000  
G10  24221671.386 4   -684455.94709      3404.885          33.100    24219322.814 1   -510958.28409      2542.601          36.300  
G13  23381678.404 4   -193432.77609       895.593          30.900           0.000 0         0.00000         0.000           0.000  
G15  22174258.576 4   -397847.80503      1886.211          33.500           0.000 0         0.00000         0.000           0.000  
G16  23812519.429 3   -307403.48502      2253.916          38.600           0.000 0         0.00000         0.000           0.000  
G18  20724131.277 3   -164503.15302       854.243          39.000           0.000 0         0.00000         0.000           0.000  
G23  21451054.841 3   -514329.36902      2505.650          35.600           0.000 0         0.00000         0.000           0.000  
G25  24326487.812 3    732034.15002     -3653.450          36.600    24324139.850 2    542741.82109     -2728.295          34.500  
G26  22572176.100 3    -63015.68402       326.753          38.200    22569823.637 3         0.00000       244.087          26.500  
G29  20649305.773 4    211134.65504     -1103.715          33.200           0.000 0         0.00000         0.000           0.000  
J02  43306921.846 3    -36999.42102       276.065          35.500           0.000 0         0.00000         0.000           0.000  
R10  22531583.020 3    233598.78102     -1151.878          39.200  
R18  22534671.168 5         0.00000     -2349.500          27.900  
R09  23063789.568 4    675291.15309     -3374.735          32.200  
R05  21530182.975 4   -816602.17709      3982.758          31.000  
R20  21565248.193 4    -32773.50609      2443.174          30.900  
R19  20198662.555 6         0.00000      -366.400          23.400  
R03  22081248.270 4    602816.83804     -3006.407          31.600  
R04  19788121.980 5         0.00000       631.100          27.600  
C32  24932356.685 4    495628.66309     -2459.261          33.300  
C30  23703582.344 4    151247.05203     -2037.294          35.900  
C29  21592962.193 3    -41724.08202       413.429          39.000  
E01  25768585.777 4     61056.28507     -1137.841          35.200    25766674.594 2    172128.61909      -849.716          32.000  
E07  25608167.129 4    -45500.39306      2309.287          36.300    25606257.150 2   -354440.05909      1724.520          30.000  
E08  23761048.372 4       -99.54909        33.994          31.000    23759131.797 2    -11635.13209        25.430          32.600  
E13  24561751.141 4      8699.30109     -1141.133          31.700    24559836.067 2    171733.75709      -852.048          30.000  
E21  26658321.233 5         0.00000     -2862.300          29.100    26656411.551 2    426164.86609     -2136.703          32.900  
E26  23518702.138 3    -45272.56804       806.137          39.700    23516792.456 3   -112754.80509       601.907          28.100  
E31  27579365.503 4    -21402.97806      1404.719          35.800    27577462.714 3         0.00000      1049.045          26.100  
E33  27280228.391 3    -33822.80705      1957.996          37.500    27278318.412 3   -281123.70009      1462.120          27.700  
> 2021 07 14 20 52 32.4352186  0 31
G05  22282525.922 5         0.00000     -2903.250          26.000           0.000 0         0.00000         0.000           0.000  
G10  24221029.532 3   -687861.16209      3405.271          35.600    24218675.865 2   -513500.39509      2541.718          34.200  
G13  23381500.918 4   -194328.30309       894.881          33.100           0.000 0         0.00000         0.000           0.000  
G15  22173897.932 4   -399733.81003      1885.737          33.400           0.000 0         0.00000         0.000           0.000  
G16  23812090.730 3   -309657.34602      2253.722          38.200           0.000 0         0.00000         0.000           0.000  
G18  20723965.500 3   -165357.39002       854.149          39.000           0.000 0         0.00000         0.000           0.000  
G23  21450579.671 4   -516834.98103      2505.442          35.100           0.000 0         0.00000         0.000           0.000  
G25  24327183.936 3    735687.20702     -3652.934          36.400    24324835.660 2    545469.70404     -2727.681          34.600  
G26  22572116.752 3    -63342.29102       326.429          37.900    22569763.067 3         0.00000       243.707          26.600  
G29  20649510.237 4    212238.63904     -1104.178          32.800           0.000 0         0.00000         0.000           0.000  
J02  43306867.279 4    -37275.69403       276.439          34.000           0.000 0         0.00000         0.000           0.000  
R10  22531795.860 3    234750.67201     -1152.097          40.500  
R18  22535124.158 5         0.00000     -2349.550          28.400  
R09  23064413.745 4    678667.78409     -3376.230          32.000  
R05  21529416.701 4   -820584.93409      3982.317          31.700  
R20  21564781.103 4    -35216.76009      2443.286          30.700  
R19  20198730.611 6         0.00000      -365.250          21.900  
R03  22081804.391 4         0.00000     -3008.124          29.000  
R04  19787999.357 5         0.00000       628.900          26.800  
C35  24119197.827 2         0.00000      2462.250          44.700  
C32  24932825.258 4         0.00000     -2455.800          31.300  
C30  23703979.581 4    153284.33403     -2037.449          35.900  
C29  21592883.946 3    -42137.40102       413.211          38.400  
E01  25768800.729 4     62194.07507     -1137.989          34.800    25766891.343 2    172978.30209      -849.690          31.000  
E07  25607729.443 4    -47809.66906      2309.153          36.700    25605817.353 3   -356164.39409      1724.316          29.500  
E08  23761037.867 5         0.00000        33.350          29.500    23759125.497 2    -11660.40909        24.741          32.000  
E13  24561967.001 4      9840.01609     -1141.578          30.100    24560053.131 2    172585.90009      -852.587          30.600  
E21  26658867.739 4     27578.79409     -2861.207          30.800    26656955.666 2    428301.26209     -2136.623          32.900  
E26  23518549.536 3    -46078.75604       806.183          40.100    23516640.762 3   -113356.78609       601.949          28.900  
E31  27579101.376 4    -22807.77506      1404.662          36.000    27577194.399 3         0.00000      1048.952          25.500  
E33  27279854.538 3    -35781.18804      1958.614          37.800    27277947.560 3   -282586.05409      1462.447          26.300  
> 2021 07 14 20 52 33.4352186  0 32
G05  22283076.650 5         0.00000     -2903.600          26.800           0.000 0         0.00000         0.000           0.000  
G10  24220376.877 3   -691267.54909      3407.240          37.100    24218026.507 1   -516043.80303      2544.481          36.100  
G13  23381333.937 5         0.00000       897.100          24.600           0.000 0         0.00000         0.000           0.000  
G15  22173536.381 4   -401620.31704      1887.631          33.200           0.000 0         0.00000         0.000           0.000  
G16  23811664.124 3   -311912.04002      2255.730          38.400           0.000 0         0.00000         0.000           0.000  
G18  20723808.710 3   -166212.66502       856.552          39.000           0.000 0         0.00000         0.000           0.000  
G23  21450098.796 4   -519341.47703      2507.751          35.300           0.000 0         0.00000         0.000           0.000  
G25  24327873.761 4    739336.99309     -3649.020          34.900    24325529.987 1    548196.62703     -2725.856          35.500  
G26  22572054.996 3    -63669.66902       328.527          38.700    22569700.421 3         0.00000       245.281          27.800  
G29  20649715.592 4    213341.99104     -1102.178          32.600           0.000 0         0.00000         0.000           0.000  
J02  43306806.710 4    -37553.23703       278.910          33.900           0.000 0         0.00000         0.000           0.000  
R10  22532017.408 3    235901.92002     -1150.096          39.600  
R18  22535581.354 5         0.00000     -2351.100          25.400  
R09  23065032.215 5         0.00000     -3371.800          26.800  
R05  21528676.812 4         0.00000      3984.693          29.200  
R20  21564338.618 4    -37661.33609      2445.876          30.400  
R19  20198770.188 6         0.00000      -364.150          22.600  
R03  22082360.494 5         0.00000     -3003.250          26.900  
R04  19787887.239 5         0.00000       629.050          27.700  
C35  24118723.844 2     -1078.01709      2464.803          44.600  
C32  24933287.235 5         0.00000     -2451.550          27.700  
C30  23704369.907 4    155320.89203     -2035.270          35.600  
C29  21592803.605 3    -42551.58402       415.428          38.200  
C19  23363361.382 3         0.00000      2946.000          37.700  
E01  25769018.978 4     63330.92307     -1135.711          35.700    25767109.000 2    173827.21809      -848.060          31.400  
E07  25607286.644 4    -50119.83106      2311.294          36.600    25605376.962 2   -357889.56609      1725.912          30.200  
E08  23761030.084 5         0.00000        35.000          27.900    23759116.807 2    -11686.10209        26.599          30.700  
E13  24562188.549 4     10982.93009     -1139.182          30.700    24560269.583 2    173437.29109      -850.492          30.400  
E21  26659411.575 4     30440.91309     -2858.632          30.600    26657500.985 2    430436.77909     -2134.566          34.500  
E26  23518397.841 3    -46886.08404       808.740          39.800    23516486.379 3   -113959.78909       603.788          29.000  
E31  27578832.469 4    -24213.40806      1406.865          36.700    27576928.179 3         0.00000      1050.604          25.900  
E33  27279482.202 3    -37740.85904      1960.914          38.400    27277573.724 3   -284049.52609      1464.403          28.300  
> 2021 07 14 20 52 34.4352186  0 32
G05  22283648.355 5         0.00000     -2889.000          24.800           0.000 0         0.00000         0.000           0.000  
G10  24219739.228 6         0.00000      3405.150          23.200    24217378.650 3         0.00000      2543.050          24.700  
G13  23381160.656 5         0.00000       897.050          26.800           0.000 0         0.00000         0.000           0.000  
G15  22173183.224 4   -403508.11504      1886.893          32.700           0.000 0         0.00000         0.000           0.000  
G16  23811235.128 3   -314168.09802      2254.503          38.100           0.000 0         0.00000         0.000           0.000  
G18  20723647.418 3   -167069.62201       855.682          39.600           0.000 0         0.00000         0.000           0.000  
G23  21449629.332 4   -521849.55703      2506.860          34.700           0.000 0         0.00000         0.000           0.000  
G25  24328569.885 4    742986.80509     -3650.870          35.300    24326224.610 2    550922.17109     -2726.324          34.700  
G26  22571983.031 3    -63998.36802       327.166          38.100    22569638.368 3         0.00000       244.044          27.400  
G29  20649934.138 4    214443.97604     -1103.036          31.900           0.000 0         0.00000         0.000           0.000  
J02  43306759.350 3    -37832.75402       278.102          35.400           0.000 0         0.00000         0.000           0.000  
R10  22532224.263 3    237051.95502     -1151.684          39.000  
R18  22536069.715 6         0.00000     -2347.400          22.000  
R09  23065671.068 4    685414.89804     -3372.897          31.800  
R05  21527945.613 5         0.00000      3982.700          28.400  
R20  21563864.652 4         0.00000      2445.084          29.800  
R19  20198832.538 6         0.00000      -363.250          21.500  
R03  22082945.391 4    611837.03507     -3006.601          30.500  
R04  19787768.822 5         0.00000       627.750          27.700  
C35  24118251.380 2     -3543.32209      2464.130          44.800  
C32  24933776.801 4         0.00000     -2458.050          31.900  
C30  23704759.641 3    157355.81802     -2035.723          36.500  
C29  21592722.060 3    -42967.38002       414.677          39.200  
C19  23362796.867 3     -1305.09609      2945.873          37.900  
E01  25769234.820 4     64465.66609     -1136.488          36.000    25767323.655 2    174674.96009      -848.819          32.000  
E07  25606847.439 4    -52431.60606      2310.940          36.500    25604938.071 3   -359615.86909      1725.731          29.600  
E08  23761022.877 4      -204.08709        34.679          29.900    23759110.507 2    -11712.72009        25.902          31.300  
E13  24562399.906 4     12122.25309     -1139.620          30.900    24560486.926 2    174287.57209      -850.832          32.300  
E21  26659951.799 5         0.00000     -2859.600          27.300    26658045.711 2    432570.95409     -2134.897          32.400  
E26  23518242.255 3    -47695.28604       808.041          39.700    23516333.184 3   -114564.06109       603.445          28.700  
E31  27578564.451 4    -25620.51807      1405.621          35.600    27576659.567 3         0.00000      1049.509          27.000  
E33  27279109.256 4    -39703.01809      1960.564          36.500    27277197.777 3   -285514.38409      1464.127          26.200  
> 2021 07 14 20 52 35.4352186  0 31
G05  22284181.371 5         0.00000     -2901.950          26.500           0.000 0         0.00000         0.000           0.000  
G10  24219084.479 4         0.00000      3409.200          34.900    24216731.108 2   -521130.15204      2546.697          34.400  
G13  23380992.175 4   -197020.09509       896.363          30.500           0.000 0         0.00000         0.000           0.000  
G15  22172821.376 4   -405396.18904      1891.226          32.900           0.000 0         0.00000         0.000           0.000  
G16  23810804.020 3   -316420.29402      2249.315          38.200           0.000 0         0.00000         0.000           0.000  
G18  20723483.735 3   -167924.14701       853.452          39.800           0.000 0         0.00000         0.000           0.000  
G23  21449140.360 4   -524356.48709      2509.247          32.000           0.000 0         0.00000         0.000           0.000  
G25  24329275.589 4    746635.71909     -3645.800          30.300    24326918.326 3         0.00000     -2722.515          27.900  
G26  22571932.373 3    -64323.67402       323.069          39.100    22569576.611 3         0.00000       241.290          28.500  
G29  20650131.709 4    215546.61204     -1100.758          32.200           0.000 0         0.00000         0.000           0.000  
J02  43306705.394 3    -38108.86802       273.338          35.900           0.000 0         0.00000         0.000           0.000  
R10  22532441.012 3    238205.74901     -1156.602          40.900  
R18  22536438.159 5         0.00000     -2348.550          25.700  
R09  23066307.826 6         0.00000     -3368.700          23.100  
R05  21527184.138 4   -832539.05209      3988.537          30.600  
R20  21563404.176 4    -42550.89809      2440.714          31.200  
R03  22083492.525 6         0.00000     -3008.650          23.900  
R04  19787650.091 5         0.00000       630.150          28.800  
C35  24117777.711 2     -6005.54009      2459.988          44.400  
C32  24934243.577 5         0.00000     -2454.550          26.100  
C30  23705146.966 4    159390.23509     -2030.589          33.900  
C29  21592645.017 3    -43381.54802       414.372          39.100  
C19  23362229.055 3     -4251.64609      2949.032          38.600  
E01  25769452.477 4     65603.65609     -1139.212          34.700    25767540.701 2    175524.79309      -850.611          31.000  
E07  25606407.955 4    -54744.00807      2315.913          35.400    25604498.273 2   -361342.70409      1729.454          31.200  
E08  23761016.891 5         0.00000        35.800          27.300    23759107.209 2    -11738.86509        27.573          29.800  
E13  24562612.449 6         0.00000     -1137.950          24.000    24560705.769 3    175138.46809      -850.756          28.900  
E21  26660501.620 5         0.00000     -2857.300          26.900    26658588.640 2    434705.60809     -2132.192          31.500  
E26  23518087.559 3    -48502.09404       805.729          39.300    23516179.989 2   -115166.52809       601.675          30.000  
E31  27578300.342 4    -27023.86507      1400.337          35.300    27576394.848 3         0.00000      1045.870          26.800  
E33  27278736.014 3    -41661.23904      1956.560          39.800    27276827.850 3   -286977.12309      1461.112          29.000  
