     3.03           O                   M                   RINEX VERSION / TYPE
Android_Rinex                           2024-06-10 11:48:11 PGM / RUN BY / DATE
                                                            MARKER NAME
SMARTPHONE                                                  MARKER TYPE
                                                            OBSERVER / AGENCY
                                                            REC # / TYPE / VERS
                                                            ANT # / TYPE
        0.0000        0.0000        0.0000                  APPROX POSITION XYZ
        0.0000        0.0000        0.0000                  ANTENNA: DELTA H/E/N
G    4 C1C L1C D1C S1C                                      SYS / # / OBS TYPES
R    4 C1C L1C D1C S1C                                      SYS / # / OBS TYPES
E    4 C1C L1C D1C S1C                                      SYS / # / OBS TYPES
  2023    09    07    19    33    45.4487450                TIME OF FIRST OBS
  2023    09    07    19    51    49.4487450                TIME OF LAST OBS
  6 R02 -4 R01  1 R24  2 R23  3 R17  4 R08  6               GLONASS SLOT / FRQ #
                                                            GLONASS COD/PHS/BIS#
                                                            END OF HEADER
> 2023 09 07 19 33 45.4487448  0 22
G02  23438894.374 3   -201434.93501      2825.368          41.000  
G08  22517430.687 3     64407.60102      -928.065          37.000  
G10  21157927.657 3     69462.23902      -978.608          38.900  
G18  24722303.793 3    247535.29302     -3479.032          38.000  
G21  22565694.587 3   -159840.71402      2237.790          38.800  
G23  23253969.792 4    168304.28309     -2381.071          34.100  
G24  24506533.874 5         0.00000     -2363.650          27.400  
G27  22746241.589 4    199067.31804     -2823.562          33.100  
G28  23663637.700 5         0.00000      3341.450          26.800  
G32  20558644.636 2    -23294.79201       311.171          41.700  
R02  20742263.034 3   -133684.85101      1873.512          41.200  
R01  19703388.629 3    100071.43101     -1423.590          41.200  
R24  19254064.177 4     55625.56503      -826.523          34.800  
R23  21986769.269 4         0.00000     -4063.403          29.100  
R17  21093015.709 2   -229709.49601      3226.807          44.200  
R08  23142194.289 3    241262.85002     -3463.910          36.000  
E07  23502963.022 4      5406.61908      -817.268          33.000  
E08  27005020.993 4     78448.06608     -2650.180          32.500  
E13  25793870.866 6         0.00000     -2393.350          22.400  
E19  28641618.614 5         0.00000      2794.200          24.900  
E26  23165435.100 3      6022.99203       -94.525          41.800  
E33  25070516.937 4   -152492.10306      2155.314          35.900  
> 2023 09 07 19 33 46.4487448  0 22
G02  23438356.854 3   -204261.88201      2827.167          41.300  
G08  22517612.065 3     65334.32702      -926.525          37.300  
G10  21158111.739 3     70439.34202      -976.737          38.700  
G18  24722963.934 3    251012.69402     -3477.074          38.900  
G21  22565264.387 3   -162080.01502      2239.646          39.200  
G23  23254412.294 4    170683.66709     -2379.040          33.500  
G24  24506980.251 5         0.00000     -2360.650          27.900  
G27  22746779.423 4    201889.37803     -2821.933          34.300  
G28  23663021.916 5         0.00000      3342.100          26.800  
G32  20558586.474 2    -23607.40401       312.686          42.000  
R02  20741921.865 3   -135559.71601      1875.176          41.200  
R01  19703659.334 3    101493.49801     -1421.843          41.500  
R24  19254245.868 4     56450.80603      -825.285          35.800  
R23  21987505.860 4         0.00000     -4061.592          29.900  
R17  21092413.729 2   -232937.71701      3228.530          44.300  
R08  23142834.939 4    244725.06303     -3461.749          35.900  
E07  23503117.125 4      6222.05109      -815.682          31.500  
E08  27005525.845 4     81096.25409     -2648.274          31.600  
E13  25794302.271 6         0.00000     -2393.350          23.400  
E19  28641090.675 5         0.00000      2794.100          24.900  
E26  23165453.370 3      6116.13403       -92.870          42.300  
E33  25070110.713 4   -154648.93407      2157.115          34.900  
> 2023 09 07 19 33 47.4487448  0 21
G02  23437818.725 3   -207088.64401      2827.549          40.800  
G08  22517781.454 3     66261.57502      -926.758          36.700  
G10  21158303.308 3     71416.54602      -976.545          37.400  
G18  24723625.577 3    254490.21101     -3476.761          40.500  
G21  22564835.984 3   -164319.18001      2239.790          40.000  
G23  23254857.188 4    173063.14709     -2378.773          32.600  
G24  24507450.342 5         0.00000     -2361.750          27.900  
G27  22747313.050 3    204711.84902     -2821.640          35.700  
G32  20558525.922 2    -23919.45601       312.633          43.300  
R02  20741571.412 3   -137434.25002      1875.134          37.300  
R01  19703919.849 2    102915.93801     -1421.800          42.100  
R24  19254387.669 3     57276.97102      -825.715          37.400  
R23  21988262.240 4    290100.51904     -4061.491          32.400  
R17  21091809.340 2   -236165.56801      3228.380          45.100  
R08  23143506.772 4    248187.16603     -3461.235          33.100  
E07  23503275.713 4      7038.35209      -815.582          30.200  
E08  27006022.007 5         0.00000     -2653.800          25.600  
E13  25794770.844 5         0.00000     -2388.950          25.500  
E19  28640562.142 6         0.00000      2804.050          24.200  
E26  23165470.175 3      6209.56003       -92.807          41.400  
E33  25069702.099 4   -156805.71009      2157.420          31.900  
> 2023 09 07 19 33 48.4487448  0 22
G02  23437279.705 2   -209916.41501      2826.714          41.700  
G08  22517956.829 3     67188.27102      -927.959          38.600  
G10  21158477.775 3     72392.84102      -977.273          37.400  
G18  24724286.923 3    257966.77101     -3477.661          40.300  
G21  22564414.177 3   -166559.14601      2238.907          40.000  
G23  23255328.152 4    175442.15404     -2379.431          32.000  
G24  24507895.532 4         0.00000     -2362.820          28.900  
G27  22747857.183 4    207533.35604     -2822.697          33.100  
G28  23661724.126 5         0.00000      3340.900          26.100  
G32  20558470.151 2    -24232.08101       311.447          43.500  
R02  20741214.660 3   -139309.46802      1874.023          37.600  
R01  19704189.071 2    104337.63901     -1422.875          42.200  
R24  19254540.550 3     58102.80702      -827.275          38.300  
R23  21989028.811 4    294161.88404     -4062.465          31.500  
R17  21091208.547 2   -239394.02701      3227.260          45.400  
R08  23144145.939 4    251648.12703     -3461.950          33.100  
E07  23503434.597 5         0.00000      -817.700          28.800  
E08  27006533.456 5         0.00000     -2649.750          26.000  
E13  25795231.914 6         0.00000     -2391.250          23.100  
E19  28640032.110 5         0.00000      2797.500          25.000  
E26  23165486.648 3      6302.23303       -93.762          41.200  
E33  25069288.983 4   -158963.42908      2156.622          33.900  
> 2023 09 07 19 33 49.4487448  0 22
G02  23436742.465 3   -212742.22601      2825.899          41.300  
G08  22518138.503 3     68117.32402      -929.175          37.300  
G10  21158671.437 3     73371.12002      -978.298          39.100  
G18  24724949.158 3    261445.30801     -3478.506          40.200  
G21  22563984.867 3   -168797.10301      2237.943          40.800  
G23  23255781.439 4    177821.93109     -2380.314          30.400  
G24  24508342.520 4         0.00000     -2363.902          28.900  
G27  22748395.609 4    210356.91009     -2823.530          34.700  
G28  23661092.760 5         0.00000      3341.750          27.900  
G32  20558410.803 2    -24542.41101       310.239          43.700  
R02  20740875.585 3   -141182.26302      1872.779          37.700  
R01  19704448.992 3    105761.61101     -1424.017          41.900  
R24  19254692.838 3     58931.44002      -828.894          37.200  
R23  21989799.273 4    298225.51504     -4063.606          32.000  
R17  21090606.863 2   -242620.10701      3225.952          45.600  
R08  23144782.401 4    255110.81303     -3462.584          34.500  
E07  23503589.887 4      8671.80809      -817.624          30.100  
E08  27007026.006 5         0.00000     -2645.750          25.800  
E13  25795679.808 6         0.00000     -2390.450          23.100  
E19  28639496.685 5         0.00000      2799.850          25.100  
E26  23165505.547 3      6397.07203       -94.915          42.000  
E33  25068876.163 4   -161119.69909      2155.769          32.300  
> 2023 09 07 19 33 50.4487448  0 22
G02  23436211.839 2   -215569.19201      2827.957          42.100  
G08  22518313.878 3     69045.68702      -927.572          37.300  
G10  21158851.018 3     74348.31702      -976.191          38.400  
G18  24725609.597 3    264922.70701     -3476.376          40.600  
G21  22563559.465 3   -171036.11802      2239.982          38.300  
G23  23256228.740 4    180201.14009     -2378.109          30.700  
G24  24508813.484 4         0.00000     -2362.204          28.700  
G27  22748923.234 3    213179.51609     -2821.687          35.800  
G28  23660459.596 5         0.00000      3343.100          26.600  
G32  20558351.141 2    -24853.56601       311.927          43.600  
R02  20740515.831 3   -143056.01602      1874.612          37.000  
R01  19704722.698 2    107184.62501     -1422.110          42.600  
R24  19254836.139 3     59759.53002      -827.405          37.200  
R23  21990548.149 4    302288.24203     -4061.771          34.300  
R17  21090000.695 2   -245846.94701      3227.714          46.100  
R08  23145435.650 3    258572.20402     -3460.276          36.600  
E07  23503743.379 4      9488.33809      -815.638          30.800  
E08  27007569.231 5         0.00000     -2645.550          24.600  
E13  25796118.402 5         0.00000     -2386.300          25.300  
E19  28638955.257 5         0.00000      2799.750          24.800  
E26  23165525.021 2      6491.03603       -93.027          42.700  
E33  25068473.237 5         0.00000      2159.600          25.600  
> 2023 09 07 19 33 51.4487448  0 20
G02  23435677.007 2   -218397.95601      2831.638          42.500  
G08  22518488.363 3     69972.57302      -924.238          36.600  
G10  21159042.586 3     75323.74902      -972.549          37.400  
G18  24726272.740 3    268398.27201     -3472.645          39.600  
G21  22563133.750 3   -173276.83901      2243.522          39.800  
G23  23256684.417 4    182578.47909     -2374.345          30.800  
G24  24509240.997 5         0.00000     -2361.200          26.700  
G27  22749458.659 3    216000.42409     -2818.071          36.600  
G28  23659825.839 5         0.00000      3344.150          26.000  
G32  20558292.979 2    -25166.12601       315.340          43.300  
R02  20740165.972 3   -144931.30802      1878.092          36.100  
R01  19704979.024 3    108606.02001     -1418.497          41.700  
R24  19254997.135 4     60586.46203      -824.237          35.100  
R23  21991306.937 4    306349.20803     -4058.169          33.200  
R17  21089399.011 2   -249075.30901      3231.098          44.900  
R08  23146096.385 3    262031.50802     -3456.242          36.500  
E07  23503895.073 4     10303.23909      -812.177          31.900  
E13  25796567.798 6         0.00000     -2383.850          23.500  
E26  23165541.215 2      6583.32303       -89.536          42.900  
E33  25068055.043 4     -1155.19009      2161.817          30.100  
> 2023 09 07 19 33 52.4487448  0 22
G02  23435137.080 2   -221228.79001      2826.231          42.600  
G08  22518667.035 3     70897.82002      -930.004          38.000  
G10  21159228.466 3     76297.01602      -977.871          37.400  
G18  24726931.398 3    271871.75001     -3478.139          39.600  
G21  22562708.942 3   -175519.60801      2238.121          40.100  
G23  23257134.110 4    184953.49209     -2379.768          31.300  
G24  24509711.071 5         0.00000     -2366.500          26.200  
G27  22749986.301 3    218819.43709     -2823.661          36.400  
G28  23659175.888 5         0.00000      3341.550          27.200  
G32  20558233.614 2    -25480.41101       309.452          44.700  
R02  20739806.829 3   -146808.46502      1872.385          37.400  
R01  19705247.932 2    110025.53101     -1424.403          42.600  
R24  19255148.830 3     61411.93702      -830.593          36.000  
R23  21992078.306 4    310408.29403     -4063.875          33.100  
R17  21088790.732 2   -252305.53101      3225.402          44.900  
R08  23146737.942 4    265488.41203     -3461.541          35.700  
E07  23504051.270 4     11116.25309      -817.720          31.900  
E08  27008591.534 6         0.00000     -2647.650          20.200  
E13  25797021.974 6         0.00000     -2385.400          23.100  
E19  28637905.382 6         0.00000      2804.100          22.300  
E26  23165556.815 2      6673.73103       -95.042          43.400  
E33  25067641.630 5         0.00000      2157.400          28.300  
> 2023 09 07 19 33 53.4487448  0 20
G02  23434595.949 2   -224051.64101      2822.277          42.100  
G08  22518842.724 3     71831.48102      -934.448          38.100  
G10  21159413.438 3     77278.44602      -981.978          37.600  
G18  24727592.133 3    275353.23401     -3482.092          39.600  
G21  22562281.150 3   -177754.24901      2234.035          39.700  
G23  23257582.004 4    187336.55709     -2383.642          31.700  
G24  24510140.974 5         0.00000     -2369.000          25.700  
G27  22750528.026 3    221646.59909     -2827.837          35.600  
G28  23658546.616 5         0.00000      3339.150          27.400  
G32  20558175.452 2    -25786.32501       305.137          44.600  
R02  20739455.765 3   -148677.16002      1867.929          37.400  
R01  19705515.060 2    111453.40001     -1428.567          42.500  
R24  19255316.422 3     62246.29702      -835.223          36.400  
R23  21992842.172 4    314475.73404     -4068.161          32.400  
R17  21088193.847 2   -255527.20701      3220.923          44.800  
R08  23147384.298 4    268953.29703     -3465.339          35.500  
E07  23504208.671 4     11937.43009      -821.895          31.300  
E19  28637373.255 6         0.00000      2797.250          22.300  
E26  23165576.290 2      6772.40603       -99.308          43.300  
E33  25067230.607 5         0.00000      2158.150          27.000  
> 2023 09 07 19 33 54.4487448  0 22
G02  23434057.522 3   -226875.64001      2825.839          41.200  
G08  22519019.303 3     72764.42702      -931.309          37.100  
G10  21159594.502 3     78258.67702      -978.461          39.000  
G18  24728252.868 3    278833.52902     -3478.470          39.300  
G21  22561853.340 3   -179989.99301      2237.532          40.000  
G23  23258036.792 4         0.00000     -2379.929          29.000  
G24  24510595.762 5         0.00000     -2365.650          25.700  
G27  22751062.561 4    224472.70903     -2824.357          35.300  
G28  23657910.451 5         0.00000      3343.500          27.000  
G32  20558117.605 2    -26093.03601       308.428          45.000  
R02  20739102.904 3   -150546.71002      1871.226          38.000  
R01  19705779.169 2    112880.31801     -1425.129          42.300  
R24  19255476.807 3     63080.14302      -832.328          36.600  
R23  21993586.249 4    318542.22104     -4064.842          32.600  
R17  21087593.350 2   -258749.70701      3224.184          45.000  
R08  23148018.055 4    272416.86103     -3461.591          34.900  
E07  23504368.760 4     12757.74509      -818.553          31.000  
E08  27009569.148 6         0.00000     -2656.150          22.000  
E13  25797936.052 6         0.00000     -2387.600          21.300  
E19  28636837.812 6         0.00000      2795.650          23.700  
E26  23165594.578 2      6870.09703       -95.989          42.500  
E33  25066827.089 5         0.00000      2153.250          29.000  
> 2023 09 07 19 33 55.4487448  0 20
G02  23433523.005 2   -229704.33001      2829.625          41.600  
G08  22519188.971 3     73693.06102      -927.870          37.100  
G10  21159786.367 3     79234.11202      -974.039          38.800  
G18  24728904.320 3    282308.82502     -3473.625          38.600  
G21  22561426.735 3   -182230.31301      2241.318          40.000  
G23  23258479.870 5         0.00000     -2375.700          26.100  
G24  24511043.639 5         0.00000     -2361.100          27.300  
G27  22751605.176 4    227294.25503     -2820.505          35.000  
G32  20558055.848 2    -26404.21701       312.257          43.600  
R02  20738749.468 3   -152420.75402      1874.914          39.200  
R01  19706048.985 2    114302.61001     -1421.189          42.100  
R24  19255614.716 4     63909.83003      -828.723          34.300  
R23  21994350.726 4    322603.86303     -4060.147          34.000  
R17  21086985.978 2   -261976.59401      3227.766          45.500  
R08  23148664.115 4    275875.40409     -3457.692          32.700  
E07  23504526.440 4     13573.21907      -814.121          35.400  
E08  27010101.589 6         0.00000     -2645.400          24.200  
E19  28636306.593 6         0.00000      2805.050          22.400  
E26  23165611.975 3      6963.16003       -91.795          41.000  
E33  25066414.269 4     -3306.07409      2159.652          30.500  
> 2023 09 07 19 33 56.4487448  0 20
G02  23432980.669 3   -232531.70801      2825.833          41.200  
G08  22519364.660 3     74623.30802      -931.994          36.800  
G10  21159970.746 3     80209.60202      -976.396          38.300  
G18  24729575.857 3    285783.56702     -3475.230          37.400  
G21  22560994.440 3   -184469.38502      2237.450          39.200  
G23  23258949.054 4         0.00000     -2378.289          29.400  
G24  24511477.155 5         0.00000     -2366.350          24.600  
G27  22752142.101 4    230116.67603     -2823.791          34.400  
G28  23656635.137 5         0.00000      3348.500          26.800  
G32  20557998.577 2    -26714.63501       309.189          43.300  
R02  20738399.905 3   -154293.39002      1870.995          38.600  
R01  19706314.298 3    115725.65801     -1424.290          41.900  
R24  19255768.504 3     64740.76702      -832.289          37.600  
R23  21995107.402 4    326665.51003     -4062.565          34.600  
R17  21086388.797 2   -265202.04501      3223.797          45.600  
R08  23149330.538 4    279335.22403     -3461.188          33.500  
E07  23504676.337 4     14389.13508      -816.814          32.900  
E08  27010576.462 5         0.00000     -2644.550          26.700  
E26  23165628.763 3      7056.75603       -94.722          42.000  
E33  25066000.856 4     -5462.95009      2155.642          32.000  
> 2023 09 07 19 33 57.4487448  0 22
G02  23432438.945 3   -235356.27501      2823.429          41.000  
G08  22519551.430 3     75557.06102      -935.456          37.200  
G10  21160156.626 3     81186.22701      -976.774          39.900  
G18  24730232.700 3    289258.84202     -3475.310          37.900  
G21  22560575.024 3   -186705.56901      2235.019          41.100  
G23  23259384.647 4    196850.31109     -2377.470          31.600  
G24  24511938.224 6         0.00000     -2366.600          22.300  
G27  22752677.841 3    232941.87302     -2826.620          35.800  
G28  23656003.770 4     -4808.86609      3344.748          32.800  
G32  20557940.415 2    -27022.97601       307.484          44.000  
R02  20738056.642 3   -156162.78302      1867.825          38.100  
R01  19706587.114 2    117150.77201     -1425.785          42.300  
R24  19255939.377 3     65574.19002      -834.502          38.500  
R23  21995863.171 4    330728.50307     -4063.702          30.800  
R17  21085785.019 2   -268424.46501      3221.391          44.400  
R08  23149974.207 4    282797.83709     -3462.808          31.100  
E07  23504830.126 4     15206.02309      -817.660          30.200  
E08  27011075.014 6         0.00000     -2650.900          23.000  
E13  25799279.125 6         0.00000     -2387.850          23.500  
E19  28635232.131 6         0.00000      2799.500          24.000  
E26  23165648.848 2      7152.24503       -96.152          42.700  
E33  25065591.334 4     -7617.70009      2153.786          31.300  
> 2023 09 07 19 33 58.4487448  0 21
G02  23431906.521 3   -238178.56201      2823.150          40.700  
G08  22519727.712 3     76494.08002      -936.137          38.900  
G10  21160340.987 3     82163.17901      -975.334          40.400  
G18  24730903.347 4    292734.61109     -3473.256          31.600  
G21  22560141.823 3   -188939.55101      2234.957          40.900  
G23  23259839.731 4    199227.81309     -2375.137          30.000  
G24  24512401.109 6         0.00000     -2364.650          21.400  
G27  22753218.064 3    235769.63801     -2826.472          40.000  
G28  23655372.107 4     -8153.46509      3346.900          30.500  
G32  20557882.568 2    -27329.70801       308.151          42.100  
R02  20737698.982 4   -158029.27103      1867.133          34.600  
R01  19706850.316 3    118577.10301     -1424.989          40.000  
R24  19256089.885 3     66409.76502      -834.450          37.300  
R23  21996626.147 4    334793.28109     -4062.278          31.300  
R17  21085179.723 3   -271644.87301      3220.938          41.500  
R08  23150591.177 4    286258.36509     -3456.724          33.700  
E07  23504987.824 4     16024.62209      -816.751          30.900  
E08  27011551.074 4      1513.40509     -2644.023          29.900  
E13  25799736.600 4      1375.42206     -2384.317          35.800  
E26  23165668.933 3      7248.97203       -95.403          42.400  
E33  25065186.314 3     -9770.28604      2153.466          40.300  
> 2023 09 07 19 33 59.4487448  0 22
G02  23431369.281 2   -241004.73101      2828.413          41.700  
G08  22519904.291 3     77427.11501      -930.676          41.100  
G10  21160524.162 2     83135.27901      -971.276          45.700  
G18  24731556.282 4    296203.39609     -3468.576          34.900  
G21  22559717.626 2   -191177.41101      2240.026          45.300  
G23  23260282.234 4    201598.73309     -2370.347          31.200  
G24  24512866.087 6         0.00000     -2369.100          22.400  
G27  22753755.287 3    238592.38301     -2820.529          40.100  
G28  23654732.662 4    -11503.85309      3351.489          31.600  
G32  20557819.311 3    -27641.04001       312.791          40.000  
R02  20737351.531 4   -159899.71703      1873.236          34.900  
R01  19707120.445 3    119999.06102     -1420.650          38.900  
R24  19256254.772 3     67241.00402      -829.722          36.700  
R23  21997391.217 4    338850.90409     -4056.571          33.100  
R17  21084578.947 2   -274868.55501      3225.749          46.900  
R08  23151222.247 3    289712.07509     -3453.062          36.100  
E07  23505146.114 4     16837.58209      -812.485          32.100  
E08  27012061.022 5         0.00000     -2638.700          28.600  
E13  25800187.496 3      3755.72704     -2379.432          39.600  
E19  28634159.169 6         0.00000      2799.550          20.700  
E26  23165683.015 2      7341.05502       -90.637          43.700  
E33  25064774.699 3    -11926.96503      2158.803          41.400  
> 2023 09 07 19 34 00.4487448  0 22
G02  23430827.557 2   -243834.50901      2829.393          41.700  
G08  22520081.166 3     78356.63701      -930.123          41.100  
G10  21160708.541 2     84108.42401      -975.036          46.400  
G18  24732202.341 5         0.00000     -3475.700          24.900  
G21  22559293.707 2   -193418.51501      2240.586          45.100  
G23  23260742.710 3    203972.08902     -2376.060          35.700  
G24  24513288.487 6         0.00000     -2365.550          21.600  
G27  22754288.321 3    241412.89602     -2821.647          39.000  
G28  23654100.388 4    -14853.31804      3346.840          33.300  
G32  20557763.540 3    -27952.48701       309.663          39.800  
R02  20737004.655 4   -161773.76603      1873.191          35.500  
R01  19707390.261 3    121420.63601     -1423.053          40.200  
R24  19256416.954 3     68072.05302      -833.093          36.000  
R23  21998177.279 5         0.00000     -4065.750          27.500  
R17  21083978.468 2   -278094.96501      3225.693          47.600  
R08  23151868.882 4    293167.18704     -3456.551          32.200  
E07  23505283.413 6         0.00000      -818.550          24.100  
E08  27012557.184 4      6797.26309     -2644.836          30.400  
E13  25800640.783 3      6138.34004     -2385.502          38.200  
E19  28633647.424 5         0.00000      2801.000          26.000  
E26  23165702.210 2      7432.92702       -93.607          44.100  
E33  25064363.083 3    -14086.64503      2159.196          42.300  
> 2023 09 07 19 34 01.4487448  0 22
G02  23430290.631 2   -246663.67301      2829.992          41.900  
G08  22520264.027 3     79287.24601      -929.999          40.000  
G10  21160893.513 2     85083.71101      -974.725          45.800  
G18  24732887.367 5         0.00000     -3472.400          24.800  
G21  22558865.305 2   -195658.87501      2241.124          45.100  
G23  23261192.699 4    206348.20003     -2375.727          34.600  
G24  24513701.307 6         0.00000     -2365.450          21.500  
G27  22754829.749 3    244234.82502     -2821.422          38.400  
G28  23653461.239 4    -18199.95604      3347.011          33.300  
G32  20557705.378 3    -28261.81801       309.696          40.700  
R02  20736654.202 3   -163646.49902      1873.232          36.200  
R01  19707651.072 3    122843.90802     -1422.691          39.300  
R24  19256547.063 4     68905.54403      -833.294          34.700  
R23  21998938.754 5         0.00000     -4062.200          27.100  
R17  21083372.875 2   -281320.22201      3225.872          46.700  
R08  23152534.119 4    296623.41009     -3456.429          30.000  
E07  23505439.610 4       488.30709      -815.843          29.900  
E08  27013060.535 5         0.00000     -2646.700          27.000  
E13  25801094.367 4      8524.13106     -2385.572          36.400  
E19  28633118.595 6         0.00000      2804.700          23.700  
E26  23165721.388 2      7526.88302       -93.497          43.700  
E33  25063952.078 3    -16245.61203      2159.746          42.300  
> 2023 09 07 19 34 02.4487448  0 21
G02  23429750.704 2   -249495.58101      2834.169          42.800  
G08  22520435.510 3     80216.26001      -928.054          40.700  
G10  21161083.267 2     86058.14801      -974.442          46.400  
G21  22558439.013 2   -197901.65501      2244.725          45.200  
G23  23261639.389 4    208724.43203     -2377.357          35.400  
G24  24514159.689 5         0.00000     -2361.850          25.700  
G27  22755366.675 3    247056.29201     -2822.026          41.300  
G28  23652816.087 3    -21545.53902      3343.111          35.900  
G32  20557646.030 2    -28571.50001       309.072          41.900  
R02  20736302.546 3   -165520.62302      1874.722          36.700  
R01  19707912.790 3    124265.88802     -1421.309          38.400  
R24  19256717.343 4     69739.11103      -834.351          35.400  
R23  21999667.231 4    351036.49804     -4066.461          32.900  
R17  21082767.301 2   -284547.71801      3229.315          46.700  
R08  23153154.701 4    300079.44609     -3454.988          34.100  
E07  23505605.090 4      1304.89108      -815.836          34.200  
E08  27013571.076 4      1511.63109     -2643.505          30.700  
E13  25801546.746 3     10911.04905     -2389.273          36.700  
E19  28632589.155 6         0.00000      2800.150          23.400  
E26  23165738.175 2      7620.32802       -93.826          44.200  
E33  25063541.666 2    -18407.02503      2163.299          43.000  
> 2023 09 07 19 34 03.4487448  0 21
G02  23429209.590 2   -252332.69801      2839.640          42.200  
G08  22520605.493 3     81143.07602      -926.250          38.500  
G10  21161266.442 2     87032.28901      -973.999          43.200  
G18  24734241.521 5         0.00000     -3483.350          27.100  
G21  22558011.797 2   -200148.96901      2249.446          44.200  
G23  23262097.178 4    211102.57109     -2379.412          33.400  
G24  24514615.978 5         0.00000     -2367.450          25.600  
G27  22755899.412 3    249879.11301     -2824.367          40.400  
G28  23652182.923 3    -24885.50402      3336.244          38.300  
G32  20557587.275 3    -28880.10601       307.597          40.500  
R02  20735943.403 4   -167396.15003      1875.464          35.900  
R01  19708169.710 4    125685.35209     -1419.471          32.300  
R24  19256871.742 3     70574.07202      -836.359          36.000  
R23  22000416.125 4    355106.08703     -4073.389          35.700  
R17  21082166.210 2   -287779.69101      3234.115          46.300  
R08  23153803.448 3    303533.50802     -3453.507          37.900  
E07  23505761.584 3      2120.76505      -816.352          37.400  
E08  27014069.332 4      4155.30307     -2642.447          34.800  
E13  25802002.127 4     13302.79009     -2395.653          31.600  
E26  23165755.277 2      7714.43102       -94.889          43.900  
E33  25063131.237 2    -20572.94003      2167.996          42.700  
> 2023 09 07 19 34 04.4487448  0 22
G02  23428671.163 3   -255174.95501      2845.425          41.000  
G08  22520790.168 3     82068.80802      -924.798          36.700  
G10  21161452.915 2     88005.68301      -971.552          44.700  
G18  24734874.685 4    313578.16209     -3491.834          32.400  
G21  22557584.005 3   -202400.76502      2254.686          39.200  
G23  23262543.572 3    213482.59709     -2378.751          35.600  
G24  24515080.049 5         0.00000     -2364.000          25.900  
G27  22756443.824 3    252705.32409     -2827.385          36.300  
G28  23651548.869 5         0.00000      3327.900          26.700  
G32  20557526.409 3    -29186.94201       307.256          40.700  
R02  20735604.624 4   -169271.34709      1875.799          31.100  
R01  19708429.334 5         0.00000     -1412.150          26.300  
R24  19257030.626 3     71411.63302      -837.600          36.700  
R23  22001182.399 3    359183.39502     -4079.296          36.600  
R17  21081562.433 2   -291016.29901      3239.839          46.300  
R08  23154455.493 4    306984.99803     -3448.513          33.800  
E07  23505915.076 3      2937.16604      -815.161          39.300  
E08  27014571.794 4      6795.62909     -2637.764          30.500  
E13  25802458.712 5         0.00000     -2403.500          27.000  
E19  28631506.910 5         0.00000      2797.500          26.800  
E26  23165770.563 2      7809.87603       -94.768          42.800  
E33  25062717.231 3    -22743.33104      2173.248          38.900  
> 2023 09 07 19 34 05.4487448  0 22
G02  23428125.530 2   -258023.52601      2850.730          42.500  
G08  22520966.450 4     82993.16503      -924.577          34.800  
G10  21161636.997 2     88974.66201      -966.562          45.100  
G18  24735536.031 4    317070.95309     -3494.175          30.900  
G21  22557151.990 3   -204658.20902      2259.630          37.500  
G23  23263003.752 4         0.00000     -2375.853          29.200  
G24  24515518.346 6         0.00000     -2361.050          22.400  
G27  22756981.658 4    255534.59409     -2831.035          31.600  
G28  23650906.701 4    -31544.79209      3326.800          31.100  
G32  20557470.952 2    -29494.62701       307.865          43.600  
R02  20735235.884 4   -171147.31704      1875.321          31.100  
R01  19708718.327 5         0.00000     -1409.600          26.700  
R24  19257182.635 3     72249.34402      -838.184          38.000  
R23  22001945.357 4    363264.37809     -4083.457          35.700  
R17  21080952.059 2   -294259.26401      3245.228          44.300  
R08  23155090.157 4    310429.83309     -3440.070          35.400  
E07  23506071.569 3      3750.53904      -811.802          38.000  
E08  27015075.442 4      9430.31209     -2630.716          32.100  
E13  25802912.906 5         0.00000     -2401.500          28.800  
E19  28630967.891 5         0.00000      2793.850          26.100  
E26  23165788.554 3      7903.79804       -93.351          38.000  
E33  25062302.910 3    -24919.54804      2178.509          37.800  
> 2023 09 07 19 34 06.4487448  0 22
G02  23427584.713 2   -260874.89201      2851.355          43.300  
G08  22521138.824 3     83919.02401      -927.128          39.600  
G10  21161818.968 2     89939.31501      -963.866          42.500  
G18  24736200.378 4         0.00000     -3493.799          29.200  
G21  22556722.697 3   -206918.19409      2259.614          40.600  
G23  23263444.440 3    218233.30402     -2370.467          36.400  
G24  24515939.856 5         0.00000     -2348.450          27.900  
G27  22757515.582 4    258368.10604     -2834.421          33.100  
G28  23650285.543 4         0.00000      3324.912          29.100  
G32  20557412.790 2    -29802.30501       307.307          43.300  
R02  20734893.528 4   -173021.18109      1872.928          35.900  
R01  19708952.474 4    129926.39107     -1408.722          30.200  
R24  19257338.815 3     73088.30002      -839.597          38.500  
R23  22002711.631 4    367349.09109     -4084.972          30.600  
R17  21080349.171 3   -297505.41901      3245.919          41.000  
R08  23155731.714 3    313867.47402     -3436.370          39.100  
E07  23506221.763 4      4561.32107      -810.385          35.000  
E08  27015580.591 5         0.00000     -2629.100          27.500  
E13  25803371.585 5         0.00000     -2402.050          28.600  
E19  28630436.357 5         0.00000      2791.500          26.500  
E26  23165803.230 3      7996.98704       -93.336          37.500  
E33  25061889.200 4    -27099.92109      2179.688          34.300  
> 2023 09 07 19 34 07.4487448  0 21
G02  23427041.488 2   -263726.76201      2853.641          43.200  
G08  22521316.013 3     84846.71002      -927.307          39.400  
G10  21162002.440 2     90902.90701      -963.274          42.100  
G18  24736862.317 4    324059.78709     -3496.875          33.500  
G21  22556292.497 2   -209178.42901      2261.722          42.700  
G23  23263903.416 3    220603.60802     -2370.480          37.300  
G24  24516393.736 4    212542.04709     -2344.548          30.700  
G27  22758063.606 4    261203.52703     -2836.623          35.500  
G32  20557353.721 2    -30109.05701       306.207          43.600  
R02  20734541.278 3   -174893.34802      1872.125          36.400  
R01  19709231.887 4    131334.95407     -1407.666          30.900  
R24  19257498.903 3     73928.72602      -841.282          37.800  
R23  22003476.998 4    371435.56009     -4089.212          33.500  
R17  21079740.595 2   -300751.95001      3248.055          42.900  
R08  23156378.367 4    317302.64603     -3434.182          35.900  
E07  23506371.957 4      5371.85609      -810.678          33.400  
E08  27016077.050 5         0.00000     -2626.000          27.100  
E13  25803834.173 5         0.00000     -2403.700          26.000  
E19  28629911.420 5         0.00000      2785.850          27.600  
E26  23165824.222 3      8090.81705       -94.131          36.900  
E33  25061471.285 3    -29279.04904      2180.968          37.900  
> 2023 09 07 19 34 08.4487448  0 22
G02  23426502.764 3   -266582.10801      2857.038          40.800  
G08  22521492.278 3     85773.58002      -926.076          38.600  
G10  21162189.803 2     91867.69901      -967.045          43.200  
G18  24737530.556 4         0.00000     -3506.378          29.400  
G21  22555865.595 3   -211441.45809      2264.435          36.300  
G23  23264343.510 4    222976.54909     -2377.074          31.500  
G24  24516833.237 4         0.00000     -2350.405          29.000  
G27  22758602.643 4    264040.95309     -2838.364          30.100  
G28  23649014.714 4     -1449.89309      3312.576          33.600  
G32  20557294.966 2    -30413.56201       302.552          41.900  
R02  20734172.520 4   -176765.26803      1872.337          33.900  
R01  19709485.194 4    132743.00107     -1409.060          30.400  
R24  19257662.900 3     74771.90902      -845.179          36.500  
R23  22004246.866 5         0.00000     -4095.800          28.300  
R17  21079137.114 2   -304001.32701      3250.237          42.600  
R08  23157020.221 3    320737.68109     -3437.638          37.900  
E07  23506534.750 3      6184.09505      -814.342          36.700  
E08  27016573.212 4      1479.96009     -2627.871          30.000  
E13  25804289.257 4      1394.74209     -2413.712          31.500  
E19  28629381.980 5         0.00000      2780.200          24.900  
E26  23165842.510 3      8186.45403       -97.546          41.100  
E33  25061064.468 4    -31460.89908      2182.597          33.100  
> 2023 09 07 19 34 09.4487448  0 21
G02  23425955.037 2   -269441.13401      2860.352          42.500  
G08  22521667.670 4     86698.21903      -923.129          33.800  
G10  21162369.680 2     92836.53501      -969.636          45.300  
G18  24738199.091 4    331071.62709     -3512.362          32.600  
G21  22555428.798 4   -213707.46209      2267.116          34.300  
G23  23264824.682 4         0.00000     -2383.101          28.800  
G24  24517273.925 4    217242.65809     -2354.270          32.600  
G27  22759134.770 4    266879.81409     -2838.025          30.700  
G28  23648392.055 5         0.00000      3305.600          26.200  
G32  20557236.508 3    -30714.91601       301.041          40.400  
R02  20733835.556 4   -178638.83204      1874.684          32.500  
R01  19709765.811 5         0.00000     -1409.950          28.700  
R24  19257797.790 4     75618.43907      -846.811          30.900  
R23  22005007.748 3    379627.22809     -4101.966          37.900  
R17  21078525.833 2   -307252.64401      3252.259          42.800  
R08  23157656.386 4    324177.22609     -3440.891          35.400  
E07  23506689.743 3      7000.13604      -816.659          38.700  
E08  27017072.358 4      4110.40107     -2631.609          35.300  
E13  25804753.922 4      3813.49909     -2419.734          30.000  
E26  23165861.688 2      8285.30002       -99.108          43.700  
E33  25060640.568 3    -33645.31505      2185.948          36.900  
> 2023 09 07 19 34 10.4487448  0 21
G02  23425410.014 2   -272302.96901      2863.083          44.000  
G08  22521846.639 4     87619.43703      -919.957          35.000  
G10  21162553.151 2     93806.15001      -969.506          44.100  
G18  24738860.140 4    334584.13409     -3512.565          32.500  
G21  22554992.892 3   -215976.08309      2269.828          37.300  
G23  23265261.182 3    227740.94009     -2384.004          36.100  
G24  24517729.323 4    219596.13809     -2354.121          34.100  
G27  22759677.088 4    269716.21509     -2835.253          32.200  
G28  23647762.486 5         0.00000      3311.200          25.800  
G32  20557178.957 3    -31016.57901       302.229          40.200  
R02  20733503.095 4   -180515.43509      1877.986          31.300  
R01  19710038.610 4         0.00000     -1408.720          29.700  
R24  19257977.981 4         0.00000      -845.296          29.800  
R23  22005765.018 3    383728.91901     -4101.459          40.100  
R17  21077918.147 2   -310506.15101      3254.389          42.200  
R08  23158293.738 3    327618.86802     -3441.454          37.300  
E07  23506845.940 3      7816.51304      -816.154          39.800  
E08  27017576.006 4      6742.27906     -2632.228          35.900  
E13  25805216.806 6         0.00000     -2422.850          22.700  
E26  23165883.588 2      8383.87003       -98.047          43.200  
E33  25060225.950 3    -35832.83805      2188.700          37.400  
> 2023 09 07 19 34 11.4487448  0 21
G02  23424866.196 2   -275167.46901      2867.013          42.100  
G08  22522016.622 4     88537.96303      -916.165          34.900  
G10  21162740.235 2     94775.07901      -966.841          43.500  
G18  24739539.163 4    338096.47609     -3510.074          30.400  
G21  22554566.880 3   -218247.23609      2273.573          37.200  
G23  23265710.578 3    230124.43909     -2381.681          36.700  
G24  24518173.606 4    221949.00709     -2350.616          33.000  
G27  22760208.028 4         0.00000     -2831.482          29.100  
G28  23647137.419 5         0.00000      3310.250          24.400  
G32  20557124.687 3    -31319.64202       305.324          39.100  
R02  20733114.862 4   -182394.67903      1881.863          33.500  
R01  19710287.136 5         0.00000     -1407.600          25.600  
R24  19258098.492 4     77309.59009      -843.934          30.000  
R23  22006539.982 3    387829.49302     -4098.319          37.700  
R17  21077315.277 2   -313761.52801      3257.654          43.200  
R08  23158943.689 3    331059.84002     -3438.873          38.500  
E07  23506999.136 3      8631.92604      -813.302          38.700  
E08  27018079.654 4      9373.61509     -2629.930          29.900  
E13  25805673.094 5         0.00000     -2422.100          24.700  
E26  23165900.061 3      8481.07503       -94.997          42.400  
E33  25059809.239 3    -38022.89005      2192.518          37.200  
> 2023 09 07 19 34 12.4487448  0 21
G02  23424320.562 3   -278032.96801      2861.885          40.800  
G08  22522189.606 4     89455.56204      -920.969          32.400  
G10  21162924.596 2     95743.66601      -972.444          43.600  
G18  24740197.804 4    341607.95909     -3515.835          30.600  
G21  22554130.991 3   -220519.27302      2268.433          35.600  
G23  23266167.459 3    232508.14302     -2387.539          37.400  
G24  24518634.693 4    224302.44804     -2357.144          32.200  
G27  22760768.041 5         0.00000     -2835.250          27.500  
G32  20557060.837 3    -31623.11001       299.566          40.000  
R02  20732793.481 4   -184275.05204      1876.536          31.900  
R01  19710552.170 5         0.00000     -1410.700          26.200  
R24  19258300.252 4     78154.83804      -848.742          31.800  
R23  22007316.744 3    391929.62402     -4103.913          36.000  
R17  21076697.993 2   -317017.44601      3252.070          44.200  
R08  23159587.043 3    334500.60502     -3444.658          38.000  
E07  23507157.427 3      9446.98704      -818.835          38.500  
E08  27018584.210 5         0.00000     -2637.200          28.300  
E13  25806132.367 5         0.00000     -2415.800          25.500  
E19  28627260.941 5         0.00000      2788.500          27.200  
E26  23165919.850 3      8577.68103      -100.464          42.400  
E33  25059392.528 3    -40213.86305      2187.343          37.100  
> 2023 09 07 19 34 13.4487448  0 21
G02  23423775.243 3   -280894.12902      2860.893          39.400  
G08  22522369.780 4         0.00000      -923.000          30.200  
G10  21163108.068 2     96717.12501      -973.721          43.200  
G18  24740869.044 4    345124.89304     -3517.204          33.300  
G21  22553695.992 4   -222786.87403      2267.287          34.800  
G23  23266615.040 3    234896.70702     -2388.821          38.700  
G24  24519073.880 4    226660.14309     -2358.530          30.000  
G27  22761293.275 4    278218.01709     -2836.834          30.900  
G32  20557007.474 3    -31921.70002       298.179          39.200  
R02  20732421.146 4   -186150.80404      1875.499          31.100  
R01  19710812.388 5         0.00000     -1412.000          25.100  
R24  19258441.145 4     79004.75803      -850.339          33.000  
R23  22008070.733 4    396034.47103     -4105.081          35.000  
R17  21076095.123 2   -320268.49401      3250.673          44.200  
R08  23160226.210 3    337946.13102     -3445.826          36.600  
E07  23507312.419 3     10266.96504      -820.310          37.500  
E08  27019071.978 5         0.00000     -2634.200          26.900  
E13  25806594.658 5         0.00000     -2424.450          26.700  
E19  28626728.221 4     -1474.51608      2788.545          32.700  
E26  23165936.637 3      8679.14903      -101.723          42.100  
E33  25058974.630 3    -42400.30705      2186.290          36.900  
> 2023 09 07 19 34 14.4487448  0 21
G02  23423230.220 3   -283754.23101      2858.915          39.600  
G08  22522539.465 4         0.00000      -921.550          30.800  
G10  21163293.651 2     97690.99601      -973.530          43.100  
G18  24741536.672 4    348640.77404     -3513.296          32.800  
G21  22553265.181 4   -225053.48603      2265.477          35.200  
G23  23267074.329 3    237285.24502     -2387.305          38.800  
G24  24519544.862 4         0.00000     -2359.777          29.000  
G27  22761829.607 4    281054.60509     -2835.683          31.600  
G32  20556951.407 3    -32219.95202       298.871          39.100  
R02  20732080.867 4   -188026.10304      1875.167          31.000  
R01  19711073.513 5         0.00000     -1411.250          25.200  
R24  19258616.537 4     79855.35104      -850.017          32.600  
R23  22008832.801 3    400138.60502     -4101.819          36.100  
R17  21075485.935 2   -323518.15501      3248.424          45.000  
R08  23160880.349 4    341392.24603     -3445.991          35.100  
E07  23507469.803 3     11087.28105      -819.905          36.500  
E08  27019582.519 5         0.00000     -2638.100          28.900  
E13  25807058.729 4      1416.90609     -2420.957          29.900  
E19  28626196.094 4     -4263.06708      2790.111          33.400  
E26  23165958.537 2      8780.88303      -101.157          43.100  
E33  25058559.402 3    -44585.87805      2184.671          37.100  
> 2023 09 07 19 34 15.4487448  0 22
G02  23422689.997 3   -286612.30101      2856.203          41.200  
G08  22522726.235 4     92195.53909      -924.614          35.200  
G10  21163480.421 2     98662.99301      -971.336          44.500  
G18  24742204.614 4    352149.71103     -3505.805          34.300  
G21  22552835.888 4   -227318.38703      2263.197          35.200  
G23  23267522.818 3    239669.84402     -2382.651          36.700  
G24  24519977.470 4    231378.36009     -2358.209          33.400  
G27  22762371.925 4    283888.49209     -2833.409          31.700  
G28  23644612.268 6         0.00000      3315.550          23.400  
G32  20556891.448 3    -32520.48602       301.021          38.700  
R02  20731728.023 4   -189901.85109      1874.902          32.400  
R01  19711347.202 5         0.00000     -1413.650          27.200  
R24  19258763.433 4     80703.76304      -848.167          32.600  
R23  22009600.558 3    404236.34302     -4095.102          37.000  
R17  21074874.358 2   -326765.75401      3245.871          44.400  
R08  23161518.905 3    344836.73402     -3443.704          37.500  
E07  23507622.702 3     11905.47504      -817.627          37.700  
E08  27020082.276 4      4122.64509     -2634.638          31.600  
E13  25807519.519 5         0.00000     -2415.450          27.300  
E19  28625663.653 4     -7055.13808      2792.589          33.500  
E26  23165976.825 2      8880.30203       -98.821          43.100  
E33  25058143.598 4    -46769.95207      2182.478          34.600  
> 2023 09 07 19 34 16.4487448  0 22
G02  23422145.271 2   -289464.54401      2850.075          42.300  
G08  22522895.607 4     93124.18809      -931.025          34.800  
G10  21163664.189 2     99635.24801      -970.848          44.900  
G18  24742871.352 4    355654.08303     -3501.147          34.000  
G21  22552405.077 4   -229577.76203      2257.650          35.400  
G23  23267980.292 4    242052.29209     -2383.952          30.900  
G24  24520430.443 5         0.00000     -2358.000          27.900  
G27  22762918.745 4    286724.17909     -2836.783          33.600  
G28  23643977.010 4     -8077.66409      3320.543          31.800  
G32  20556835.380 3    -32819.94102       299.893          39.300  
R02  20731379.961 4   -191773.32504      1869.838          31.800  
R01  19711635.916 5         0.00000     -1414.950          26.900  
R24  19258931.321 4     81553.80203      -850.060          34.400  
R23  22010362.644 3    408331.13202     -4092.522          37.500  
R17  21074276.286 2   -330007.78801      3240.334          43.500  
R08  23162181.455 4    348280.68109     -3442.678          35.200  
E07  23507778.585 3     12724.25005      -817.576          37.400  
E08  27020581.422 4      6758.44808     -2633.342          33.000  
E13  25807979.088 5         0.00000     -2409.450          27.800  
E19  28625136.325 5         0.00000      2790.500          25.100  
E26  23165994.502 3      8980.59303       -99.784          42.300  
E33  25057731.075 3    -48948.79205      2177.432          37.400  
> 2023 09 07 19 34 17.4487448  0 22
G02  23421603.249 2   -292312.68601      2845.435          42.200  
G08  22523073.983 3     94057.62609      -937.163          38.100  
G10  21163849.161 3    100602.85001      -966.643          40.200  
G18  24743537.200 4    359150.91909     -3493.834          31.500  
G21  22551981.176 3   -231833.75709      2253.092          41.300  
G23  23268432.096 3    244431.03509     -2370.804          35.700  
G24  24520861.550 4    236091.15909     -2352.620          31.500  
G27  22763458.969 4    289562.01809     -2839.047          32.800  
G28  23643343.847 4    -11402.68409      3325.670          31.600  
G32  20556779.330 2    -33121.11301       300.589          42.400  
R02  20731043.888 4   -193641.17409      1864.997          33.500  
R01  19711893.429 4    145445.73609     -1415.142          30.900  
R24  19259084.499 3     82403.18002      -850.500          38.800  
R23  22011148.689 4         0.00000     -4091.950          30.200  
R17  21073666.506 3   -333246.87101      3236.592          40.700  
R08  23162791.828 3    351720.64809     -3437.519          37.000  
E07  23507931.780 4     13539.35908      -814.699          33.800  
E08  27021083.587 4         0.00000     -2628.423          29.500  
E13  25808437.174 5         0.00000     -2405.900          29.400  
E19  28624596.397 5         0.00000      2786.900          26.800  
E26  23166009.491 3      9078.75704       -98.407          37.700  
E33  25057318.570 3    -51125.60409      2174.327          38.300  
> 2023 09 07 19 34 18.4487448  0 22
G02  23421061.822 3   -295156.00201      2843.167          41.300  
G08  22523250.562 3     94997.44902      -938.688          38.400  
G10  21164030.836 4    101570.28103      -967.706          34.100  
G18  24744198.528 4    362643.49403     -3492.116          34.400  
G21  22551555.478 3   -234084.96901      2251.121          41.400  
G23  23268886.569 4    246801.60309     -2370.536          32.500  
G24  24521311.539 4    238443.65309     -2353.832          30.400  
G27  22764004.602 4         0.00000     -2838.100          29.100  
G28  23642715.185 4    -14727.23403      3326.424          35.500  
G32  20556723.873 2    -33420.56501       299.833          43.200  
R02  20730679.335 4   -195503.58204      1863.383          31.900  
R01  19712144.956 4    146862.15203     -1416.702          34.300  
R24  19259245.495 3     83254.92402      -851.353          39.200  
R23  22011914.370 4    416498.61004     -4087.340          32.000  
R17  21073068.103 2   -336481.52001      3234.222          42.100  
R08  23163442.669 3    355157.17202     -3436.769          38.800  
E07  23508089.478 4     14354.78407      -815.538          35.100  
E08  27021584.530 4         0.00000     -2627.801          33.900  
E13  25808898.854 6         0.00000     -2402.100          24.000  
E19  28624075.351 5         0.00000      2786.700          25.300  
E26  23166028.076 3      9178.14504       -99.155          37.800  
E33  25056904.860 3    -53297.19803      2171.355          42.200  
> 2023 09 07 19 34 19.4487448  0 22
G02  23420521.598 2   -297999.17701      2840.980          41.600  
G08  22523426.844 3     95934.58702      -937.460          37.600  
G10  21164217.309 3    102538.11202      -970.007          39.100  
G18  24744857.484 5         0.00000     -3487.000          27.600  
G21  22551128.262 2   -236336.21201      2249.208          42.700  
G23  23269345.563 4         0.00000     -2375.650          31.800  
G24  24521763.325 5         0.00000     -2359.450          27.400  
G27  22764536.136 4    295231.89409     -2835.179          30.000  
G28  23642074.518 4    -18056.89604      3331.138          32.500  
G32  20556665.397 2    -33721.59301       300.289          44.400  
R02  20730331.291 4         0.00000      1865.943          29.200  
R01  19712409.380 4    148279.10503     -1419.356          34.100  
R24  19259398.394 3     84104.91602      -850.505          38.500  
R23  22012688.723 4         0.00000     -4082.560          29.500  
R17  21072462.231 2   -339715.12001      3231.132          42.700  
R08  23164082.743 3    358595.47502     -3441.538          38.800  
E07  23508242.080 4     15169.69509      -816.933          32.100  
E08  27022081.896 4     14671.10408     -2632.500          33.700  
E13  25809347.953 5         0.00000     -2400.050          27.000  
E19  28623542.317 5         0.00000      2792.900          25.500  
E26  23166051.162 3      9276.33304       -98.918          37.800  
E33  25056490.539 3    -55468.47403      2169.244          41.400  
> 2023 09 07 19 34 20.4487448  0 20
G02  23419982.875 2   -300837.04301      2835.967          43.800  
G08  22523611.520 3     96873.15602      -938.801          39.200  
G10  21164406.172 3    103510.77301      -974.092          41.100  
G18  24745567.987 5         0.00000     -3482.300          26.100  
G21  22550697.172 2   -238582.46301      2244.607          43.000  
G23  23269788.955 3    251544.80309     -2375.872          35.900  
G24  24522203.716 5         0.00000     -2368.250          26.400  
G27  22765074.859 4    298066.20809     -2832.570          35.000  
G32  20556612.035 2    -34020.86101       299.184          43.500  
R02  20729989.214 3   -199234.08202      1864.984          37.900  
R01  19712665.095 4    149701.38803     -1424.054          34.100  
R24  19259565.672 3     84956.24402      -851.192          38.800  
R23  22013417.514 4    424663.90403     -4079.023          34.300  
R17  21071858.751 3   -342942.65501      3225.230          41.600  
R08  23164730.879 4    362039.92109     -3447.646          31.300  
E07  23508394.368 4     15989.27209      -819.840          30.200  
E08  27022582.840 5         0.00000     -2639.450          28.600  
E13  25809804.241 5         0.00000     -2394.600          24.700  
E26  23166070.951 3      9376.49604      -100.335          40.100  
E33  25056078.330 3    -57634.79904      2164.537          39.700  
> 2023 09 07 19 34 21.4487448  0 22
G02  23419440.539 2   -303671.35301      2831.934          43.200  
G08  22523782.706 3     97812.08102      -940.322          37.700  
G10  21164589.941 2    104486.11401      -976.711          42.100  
G18  24746199.353 4         0.00000     -3481.540          29.500  
G21  22550267.565 3   -240825.47501      2240.791          40.800  
G23  23270247.931 4    253921.09209     -2377.098          33.200  
G24  24522683.685 6         0.00000     -2369.150          23.500  
G27  22765619.585 4    300897.34309     -2830.805          33.900  
G28  23640820.196 4     -1461.47909      3338.870          30.700  
G32  20556552.983 2    -34320.05101       298.378          45.500  
R02  20729630.368 3   -201099.28202      1864.190          37.300  
R01  19712949.603 4    151126.81803     -1427.286          34.500  
R24  19259716.773 3     85807.44401      -851.970          40.200  
R23  22014191.885 4         0.00000     -4076.104          29.800  
R17  21071247.173 3   -346165.86302      3220.720          39.200  
R08  23165377.828 4    365489.40809     -3450.801          32.100  
E07  23508556.253 4     16809.60407      -821.556          35.400  
E08  27023090.990 5         0.00000     -2642.550          26.600  
E13  25810256.324 4      1392.53908     -2395.022          32.700  
E19  28622487.661 5         0.00000      2793.800          24.500  
E26  23166089.239 3      9476.88403      -101.250          42.300  
E33  25055666.418 4    -59797.81106      2160.894          35.900  
> 2023 09 07 19 34 22.4487448  0 22
G02  23418901.519 2   -306500.96501      2828.591          42.300  
G08  22523967.975 3     98753.56802      -941.252          39.200  
G10  21164775.227 2    105463.83401      -977.853          44.200  
G18  24746882.581 4         0.00000     -3478.520          29.000  
G21  22549845.758 3   -243064.15501      2237.772          41.000  
G23  23270696.715 5         0.00000     -2379.200          25.300  
G24  24523119.591 4    247902.58009     -2373.233          30.500  
G27  22766132.220 4         0.00000     -2828.536          28.600  
G28  23640188.830 4     -4802.38309      3343.683          35.000  
G32  20556499.324 2    -34618.13001       298.816          43.000  
R02  20729270.928 3   -202962.81402      1864.093          38.100  
R01  19713201.724 4    152555.79203     -1429.677          35.100  
R24  19259879.252 3     86659.65801      -851.486          41.300  
R23  22015007.927 5         0.00000     -4073.550          24.900  
R17  21070651.492 3   -349384.12202      3217.020          38.600  
R08  23166048.179 4    368942.26904     -3453.509          31.600  
E07  23508709.746 4     17632.01707      -822.096          35.100  
E08  27023600.048 6         0.00000     -2645.350          23.900  
E13  25810716.207 4      3786.65606     -2391.617          36.000  
E19  28621943.825 5         0.00000      2802.200          26.500  
E26  23166110.231 3      9578.54203      -100.975          42.300  
E33  25055257.193 3    -61956.57804      2157.920          37.500  
> 2023 09 07 19 34 23.4487448  0 22
G02  23418366.688 2   -309328.67801      2827.955          43.000  
G08  22524141.849 3     99695.34202      -941.530          38.100  
G10  21164958.995 2    106441.99301      -977.733          43.900  
G18  24747548.412 5         0.00000     -3475.900          24.300  
G21  22549423.044 3   -245301.10101      2237.202          41.000  
G23  23271134.123 5         0.00000     -2377.150          26.700  
G24  24523582.772 4    250276.45009     -2373.638          29.900  
G27  22766693.140 5         0.00000     -2828.250          25.200  
G28  23639542.474 4     -8146.86309      3345.648          35.400  
G32  20556441.459 2    -34916.78701       299.127          43.300  
R02  20728926.757 3   -204826.65002      1864.264          38.900  
R01  19713470.335 4    153986.04803     -1429.957          35.300  
R24  19260038.451 3     87511.36501      -851.402          41.400  
R23  22015713.038 5         0.00000     -4067.150          25.000  
R17  21070041.118 3   -352599.97402      3216.026          38.200  
R08  23166672.338 4    372396.19007     -3453.560          30.400  
E07  23508871.038 4     18454.30207      -821.843          35.100  
E08  27024119.872 6         0.00000     -2646.550          22.400  
E13  25811169.791 4      6177.51906     -2390.014          36.400  
E19  28621412.902 5         0.00000      2802.300          28.300  
E26  23166130.003 2      9679.66503      -100.658          42.500  
E33  25054845.577 3    -64113.61505      2157.395          37.200  
> 2023 09 07 19 34 24.4487448  0 21
G02  23417825.260 2   -312156.70701      2828.192          42.800  
G08  22524320.819 3    100636.56802      -941.195          36.600  
G10  21165143.060 2    107419.31201      -977.099          43.200  
G18  24748229.546 6         0.00000     -3479.150          22.700  
G21  22548997.643 3   -247538.39501      2237.431          40.300  
G23  23271605.697 4    261049.40507     -2375.697          29.900  
G24  24524002.467 4         0.00000     -2373.659          29.000  
G27  22767242.961 5         0.00000     -2826.150          25.700  
G28  23638904.215 4    -11493.53509      3347.183          33.700  
G32  20556386.892 2    -35216.36401       299.720          43.200  
R02  20728586.496 3   -206691.35702      1864.802          39.300  
R01  19713730.553 4    155415.85503     -1429.726          33.700  
R24  19260195.241 3     88362.43101      -851.073          40.300  
R23  22016510.478 5         0.00000     -4067.450          24.300  
R17  21069432.228 3   -355816.00802      3215.895          36.900  
R08  23167316.303 4    375849.25604     -3452.897          31.600  
E07  23509028.125 3     19275.75205      -821.319          36.600  
E13  25811620.076 4      8566.53406     -2388.644          35.700  
E19  28620887.668 5         0.00000      2804.100          28.700  
E26  23166149.494 2      9779.78303       -99.945          43.000  
E33  25054429.773 4    -66271.16406      2157.721          36.400  
> 2023 09 07 19 34 25.4487448  0 21
G02  23417289.241 2   -314985.26301      2829.166          42.800  
G08  22524502.196 3    101577.70202      -941.174          39.000  
G10  21165326.532 2    108396.08201      -976.541          44.000  
G18  24748865.711 4         0.00000     -3476.423          29.000  
G21  22548565.645 3   -249776.17201      2238.252          40.300  
G23  23272045.792 4    263424.22709     -2375.303          30.100  
G24  24524481.842 4         0.00000     -2373.100          29.100  
G27  22767793.376 5         0.00000     -2825.150          25.700  
G28  23638281.242 3    -14841.12102      3346.797          35.600  
G32  20556326.933 2    -35516.18701       299.577          43.900  
R02  20728236.933 3   -208556.37502      1864.941          38.700  
R01  19714011.170 4    156845.31703     -1429.186          33.300  
R24  19260360.128 3     89213.57101      -851.611          40.300  
R17  21068849.129 3   -359032.14602      3216.580          38.300  
R08  23167959.658 4    379301.67604     -3451.813          31.500  
E07  23509185.822 3     20096.79205      -821.013          36.900  
E08  27025113.994 6         0.00000     -2642.100          21.200  
E13  25812079.052 4     10954.93306     -2388.934          36.200  
E19  28620357.635 5         0.00000      2802.850          27.200  
E26  23166168.690 2      9879.53503       -99.826          43.100  
E33  25054022.346 3    -68429.23205      2158.514          37.400  
> 2023 09 07 19 34 26.4487448  0 21
G02  23416749.611 2   -317815.58501      2831.561          41.700  
G08  22524683.870 2    102519.05801      -941.476          41.600  
G10  21165514.505 2    109372.58001      -976.377          44.000  
G18  24749534.840 5         0.00000     -3477.650          27.700  
G21  22548139.040 3   -252015.32701      2240.156          40.600  
G23  23272494.873 5         0.00000     -2376.350          27.400  
G24  24524920.139 5         0.00000     -2372.900          27.500  
G27  22768301.823 5         0.00000     -2826.450          26.800  
G28  23637652.284 4    -18186.70409      3344.951          32.800  
G32  20556268.475 2    -35814.88701       297.993          43.500  
R02  20727888.278 3   -210420.77702      1864.045          37.800  
R01  19714291.769 4    158274.16103     -1428.290          34.300  
R24  19260514.824 3     90066.36702      -853.813          39.000  
R23  22018019.346 6         0.00000     -4069.700          22.600  
R17  21068240.256 3   -362249.68902      3218.562          37.800  
R08  23168603.902 4    382752.49204     -3449.862          32.200  
E07  23509339.611 3     20918.10605      -821.507          36.500  
E13  25812532.653 4     13345.87608     -2392.952          34.000  
E19  28619831.197 5         0.00000      2798.950          25.600  
E26  23166186.663 2      9980.02903      -101.033          43.000  
E33  25053612.231 4    -70588.78206      2160.469          35.700  
> 2023 09 07 19 34 27.4487448  0 22
G02  23416209.980 3   -320648.99602      2835.422          37.900  
G08  22524864.358 3    103459.86902      -940.120          39.300  
G10  21165701.886 2    110348.47101      -974.832          45.500  
G18  24750181.493 4         0.00000     -3480.445          28.600  
G21  22547714.825 4   -254256.99203      2243.423          34.500  
G23  23272959.555 4    268176.51109     -2376.051          29.600  
G24  24525383.024 5         0.00000     -2369.950          24.500  
G27  22768850.441 4    317863.95309     -2829.978          30.900  
G28  23637003.240 4    -21528.78109      3341.302          33.300  
G32  20556213.611 2    -36112.59701       297.922          44.900  
R02  20727545.904 4   -212285.10703      1864.877          34.000  
R01  19714547.799 4    159701.72309     -1426.120          31.700  
R24  19260677.600 3     90920.78902      -854.452          39.100  
R23  22018791.902 5         0.00000     -4073.850          28.600  
R17  21067643.668 3   -365469.92002      3221.990          36.900  
R08  23169249.351 4    386201.33003     -3447.092          34.000  
E07  23509494.307 3     21739.45305      -820.863          37.000  
E08  27026120.104 6         0.00000     -2637.600          20.800  
E13  25812994.333 4     15739.94909     -2395.529          31.000  
E19  28619281.375 5         0.00000      2798.950          25.800  
E26  23166204.061 2     10081.20503      -100.855          43.200  
E33  25053210.212 4    -72751.23509      2163.955          33.100  
> 2023 09 07 19 34 28.4487448  0 22
G02  23415668.867 3   -323485.64301      2836.905          40.200  
G08  22525037.621 3    104399.28702      -938.788          35.900  
G10  21165888.341 2    111322.48601      -973.961          45.000  
G18  24750837.743 4         0.00000     -3481.982          29.500  
G21  22547290.627 4   -256500.33309      2243.488          33.600  
G23  23273416.140 5         0.00000     -2377.450          25.800  
G24  24525817.412 5         0.00000     -2369.000          27.000  
G27  22769380.177 4    320693.23909     -2828.298          32.600  
G28  23636378.156 4    -24870.47509      3342.546          32.400  
G32  20556154.263 2    -36411.22001       299.164          42.400  
R02  20727184.667 4   -214150.82203      1866.558          34.500  
R01  19714820.005 4    161127.05309     -1425.828          31.800  
R24  19260825.996 4     91774.81103      -853.464          35.400  
R23  22019517.098 5         0.00000     -4075.800          25.100  
R17  21067038.983 2   -368692.82301      3222.812          44.200  
R08  23169869.026 4    389649.67509     -3448.555          32.700  
E07  23509652.598 3     22559.40405      -819.691          37.000  
E08  27026607.558 4      1517.53909     -2638.698          31.700  
E13  25813444.008 4     18135.31609     -2394.713          30.100  
E19  28618746.543 4     -1482.47909      2800.310          32.000  
E26  23166225.351 2     10181.35003       -99.598          42.900  
E33  25052788.999 4    -74915.95909      2164.839          32.200  
> 2023 09 07 19 34 29.4487448  0 22
G02  23415132.831 2   -326322.96101      2837.984          43.000  
G08  22525224.094 4    105337.43104      -937.504          33.200  
G10  21166075.722 2    112296.07501      -972.967          44.600  
G18  24751497.291 4    400937.31509     -3481.506          33.100  
G21  22546859.816 3   -258745.86309      2246.155          39.500  
G23  23273869.427 5         0.00000     -2375.400          25.700  
G24  24526283.298 4    264511.93109     -2369.080          31.400  
G27  22769929.091 4    323520.84109     -2826.723          29.800  
G28  23635724.611 3    -28214.52009      3342.125          38.200  
G32  20556098.492 2    -36710.62701       299.988          43.900  
R02  20726823.116 4   -216017.86204      1867.744          32.300  
R01  19715076.331 5         0.00000     -1426.000          25.100  
R24  19260995.682 3     92627.91102      -852.844          36.900  
R23  22020265.084 4    461311.79209     -4074.825          31.500  
R17  21066440.598 2   -371916.08501      3223.887          42.000  
R08  23170532.762 4    393095.88209     -3446.200          35.900  
E07  23509799.494 4     23378.25309      -818.782          32.900  
E08  27027110.316 4      4155.71209     -2637.609          32.200  
E13  25813897.905 4     20529.67509     -2393.421          31.500  
E19  28618215.010 5         0.00000      2801.700          25.800  
E26  23166244.232 4     10280.82706       -98.833          36.200  
E33  25052379.181 3    -77081.38705      2166.767          37.400  
> 2023 09 07 19 34 30.4487448  0 22
G02  23414592.310 2   -329160.63501      2837.382          42.100  
G08  22525406.676 3    106275.31109      -938.039          36.300  
G10  21166258.286 2    113269.52201      -974.659          44.700  
G18  24752160.417 4    404418.78709     -3482.868          30.200  
G21  22546429.023 3   -260991.15201      2245.371          41.300  
G23  23274308.317 4    275304.42804     -2376.718          30.800  
G24  24526720.688 4    266882.86309     -2372.160          30.900  
G27  22770463.033 4    326347.91404     -2826.965          33.200  
G28  23635082.757 3    -31556.38102      3341.188          39.400  
G32  20556040.645 2    -37010.37601       298.755          42.700  
R02  20726475.351 4   -217885.58709      1868.131          32.200  
R01  19715303.865 5         0.00000     -1424.550          24.500  
R24  19261152.472 3     93481.16002      -854.386          37.500  
R23  22021048.145 4    465387.10209     -4076.556          35.800  
R17  21065839.525 2   -375139.36101      3222.645          44.000  
R08  23171173.115 3    396542.74202     -3448.188          37.000  
E07  23509961.973 4     24197.93806      -820.270          35.700  
E08  27027609.462 4      6794.08208     -2639.700          34.300  
E13  25814357.788 5         0.00000     -2395.700          27.700  
E19  28617676.287 6         0.00000      2806.200          24.300  
E26  23166262.520 4     10379.42208       -99.653          33.500  
E33  25051966.378 3    -79247.76304      2165.907          40.400  
> 2023 09 07 19 34 31.4487448  0 21
G02  23414050.882 2   -331997.89401      2836.414          41.600  
G08  22525577.862 3    107213.05402      -938.010          37.100  
G10  21166446.871 2    114245.96501      -978.064          43.100  
G18  24752829.563 4    407903.40909     -3486.144          33.600  
G21  22546005.419 2   -263236.21601      2244.400          41.900  
G23  23274761.307 4    277683.26409     -2380.926          35.200  
G24  24527181.478 4    269256.76209     -2376.929          30.500  
G27  22770993.659 3    329175.26102     -2827.053          39.200  
G28  23634449.000 4    -34896.62809      3339.082          35.100  
G32  20555983.670 2    -37307.96901       296.635          42.000  
R02  20726143.186 4   -219754.05209      1866.477          33.600  
R01  19715619.260 4    165400.25709     -1428.933          30.900  
R24  19261316.452 3     94336.61302      -856.307          36.600  
R23  22021799.412 3    469464.47209     -4078.038          37.300  
R17  21065239.935 2   -378361.19301      3220.640          44.100  
R08  23171825.771 3    399993.25702     -3452.480          38.900  
E07  23510119.078 3     25019.74504      -823.212          37.900  
E08  27028110.109 4      9435.74709     -2644.030          33.100  
E13  25814813.169 4     25320.28309     -2398.227          30.500  
E26  23166282.308 4     10480.24006      -101.718          35.800  
E33  25051552.651 2    -81413.36203      2164.896          42.900  
> 2023 09 07 19 34 32.4487448  0 21
G02  23413512.159 2   -334833.42201      2834.766          42.800  
G08  22525753.237 3    108151.16201      -938.207          41.300  
G10  21166628.231 2    115225.37701      -979.940          44.700  
G18  24753479.811 3    411389.25909     -3484.821          38.000  
G21  22545579.703 2   -265479.74901      2242.772          45.600  
G23  23275211.296 3    280065.41109     -2382.010          36.900  
G24  24527630.560 5         0.00000     -2378.700          28.500  
G27  22771533.289 3    332001.54602     -2825.408          39.300  
G28  23633823.340 4    -38236.60209      3341.768          31.700  
G32  20555927.916 3    -37604.10101       296.120          41.400  
R02  20725786.730 4   -221620.05209      1867.578          33.600  
R01  19715874.679 4    166831.33709     -1430.538          35.600  
R24  19261475.057 3     95193.47202      -856.785          37.500  
R23  22022572.282 4    473542.13809     -4075.966          34.600  
R17  21064640.939 3   -381580.75202      3218.802          38.300  
R08  23172467.625 3    403447.34202     -3455.151          36.100  
E07  23510276.758 4     25843.34109      -824.610          33.100  
E08  27028611.070 5         0.00000     -2645.050          27.700  
E13  25815268.847 4     27718.42809     -2396.823          32.900  
E26  23166301.800 3     10582.50504      -102.305          39.600  
E33  25051141.053 2    -83577.40502      2163.231          43.600  
> 2023 09 07 19 34 33.4487448  0 21
G02  23412970.435 2   -337666.85501      2832.697          42.200  
G08  22525936.115 3    109090.49401      -939.883          39.600  
G10  21166818.298 2    116205.31701      -979.834          41.600  
G18  24754148.049 4    414872.60009     -3481.513          30.500  
G21  22545152.801 2   -267721.24201      2240.728          44.600  
G23  23275668.178 4    282446.19009     -2379.777          31.100  
G24  24528085.644 4    274014.50009     -2379.589          32.200  
G27  22772071.419 3    334826.67601     -2825.264          39.600  
G28  23633178.781 4         0.00000      3344.400          31.200  
G32  20555872.163 2    -37900.27701       296.038          42.100  
R02  20725438.372 3   -223487.13102      1866.233          38.000  
R01  19716145.995 3    168262.45902     -1431.628          38.500  
R24  19261633.645 3     96050.43802      -857.201          37.900  
R23  22023333.164 5         0.00000     -4075.100          26.800  
R17  21064037.755 3   -384797.90702      3216.240          37.900  
R08  23173100.492 3    406902.31709     -3454.910          36.600  
E07  23510433.251 4     26668.07409      -824.580          32.000  
E08  27029122.222 4     14728.54906     -2646.336          36.000  
E13  25815721.244 4     30113.67009     -2393.903          34.400  
E26  23166318.884 3     10684.87304      -102.445          39.100  
E33  25050729.437 3    -85739.43304      2161.446          40.300  
> 2023 09 07 19 34 34.4487448  0 21
G02  23412432.305 3   -340500.50001      2840.858          40.600  
G08  22526111.490 3    110029.09601      -931.408          41.000  
G10  21167006.569 3    117185.43002      -976.632          38.100  
G18  24754812.990 5         0.00000     -3479.550          26.000  
G21  22544728.604 2   -269962.96101      2248.687          41.700  
G23  23276119.667 4    284827.23109     -2379.264          33.900  
G24  24528550.029 4    276395.50109     -2378.781          29.900  
G27  22772613.737 3    337650.17909     -2816.575          35.800  
G28  23632541.429 4    -44925.83909      3346.785          30.500  
G32  20555813.687 3    -38196.38401       301.304          40.300  
R02  20725095.405 3   -225354.52402      1874.417          38.900  
R01  19716415.199 3    169693.97201     -1426.134          41.400  
R24  19261795.530 4     96907.58603      -851.669          35.300  
R23  22024111.112 4    481689.87907     -4069.185          30.200  
R17  21063437.572 2   -388014.58301      3223.180          42.400  
R08  23173761.227 4    410357.82603     -3451.749          35.900  
E07  23510597.545 5         0.00000      -823.050          28.600  
E08  27029623.165 4     17374.88909     -2643.075          30.800  
E13  25816177.515 4     32507.61809     -2391.471          32.200  
E26  23166338.969 3     10787.10704       -97.534          39.000  
E33  25050320.805 4    -87901.82506      2168.931          35.700  
> 2023 09 07 19 34 35.4487448  0 22
G02  23411885.485 3   -343354.10602      2856.949          38.100  
G08  22526289.570 3    110947.34702      -914.577          39.500  
G10  21167190.651 2    118153.66401      -968.102          41.600  
G18  24755462.330 4    421830.47609     -3475.033          32.200  
G21  22544296.292 3   -272224.18601      2264.307          40.600  
G23  23276572.657 4    287200.53909     -2374.177          30.100  
G24  24528985.918 4    278767.09009     -2371.524          30.300  
G27  22773136.580 3    340455.14909     -2803.017          36.100  
G28  23631901.355 4    -48280.17509      3355.048          34.800  
G32  20555756.433 3    -38507.21201       311.454          39.800  
R02  20724736.262 3   -227241.95302      1890.824          37.200  
R01  19716674.527 3    171110.14201     -1415.210          41.300  
R24  19261964.623 5         0.00000      -844.000          26.000  
R23  22024852.816 5         0.00000     -4058.050          25.500  
R17  21062831.701 2   -391250.22001      3238.300          43.200  
R08  23174398.596 4         0.00000     -3445.300          30.700  
E07  23510748.036 4     28305.35809      -811.013          32.700  
E08  27030130.111 5         0.00000     -2635.750          28.400  
E13  25816631.098 4     34892.56709     -2386.517          30.900  
E19  28615009.335 6         0.00000      2824.300          20.400  
E26  23166355.756 3     10874.97204       -86.986          39.500  
E33  25049898.999 3    -90083.14405      2184.443          36.500  
> 2023 09 07 19 34 36.4487448  0 22
G02  23411348.245 3   -346202.43901      2840.071          39.800  
G08  22526464.334 3    111869.98902      -930.160          38.700  
G10  21167376.513 3    119133.34502      -989.152          39.300  
G18  24756132.977 4    425317.61209     -3496.872          33.000  
G21  22543865.795 3   -274479.65101      2247.110          40.100  
G23  23277010.344 5         0.00000     -2392.300          24.400  
G24  24529423.028 4    281151.41009     -2395.276          31.500  
G27  22773680.102 4    343266.51009     -2818.416          35.000  
G28  23631256.814 5         0.00000      3340.300          27.400  
G32  20555699.772 3    -38808.33701       292.294          40.500  
R02  20724371.116 4   -229124.32403      1874.846          34.700  
R01  19716939.247 3    172536.07602     -1435.637          39.600  
R24  19262132.197 5         0.00000      -862.150          26.000  
R23  22025633.173 4         0.00000     -4083.250          29.400  
R17  21062230.610 3   -394478.85001      3219.701          40.100  
R08  23175064.723 4    417256.21604     -3468.179          32.800  
E07  23510902.732 4     29127.46909      -831.457          32.400  
E08  27030635.574 5         0.00000     -2661.250          28.600  
E13  25817095.483 5         0.00000     -2407.950          28.800  
E19  28614474.207 5         0.00000      2814.600          25.200  
E26  23166374.637 3     10972.50604      -106.307          39.800  
E33  25049489.494 3    -92258.67604      2167.156          39.000  
> 2023 09 07 19 34 37.4487448  0 22
G02  23410808.318 3   -349032.15302      2819.148          36.200  
G08  22526641.226 2    112809.87701      -949.815          42.500  
G10  21167570.176 4    120132.74403     -1009.074          33.800  
G18  24756798.807 4    428822.91309     -3513.359          34.800  
G21  22543444.285 3   -276716.92209      2226.302          36.900  
G23  23277488.515 4         0.00000     -2414.000          29.600  
G24  24529896.994 3    283556.99809     -2415.934          35.800  
G27  22774214.027 3    346093.65001     -2836.036          40.500  
G28  23630630.246 4    -54946.78109      3319.234          34.900  
G32  20555647.317 3    -39091.26001       273.280          40.100  
R02  20724026.352 3   -230989.50902      1855.462          39.200  
R01  19717212.953 3    173982.07201     -1456.380          40.300  
R24  19262274.609 4     99455.42409      -879.211          34.000  
R23  22026390.442 5         0.00000     -4092.800          24.300  
R17  21061631.021 2   -397687.59801      3198.046          42.900  
R08  23175695.200 4    420734.11609     -3489.168          31.300  
E07  23511063.710 4     29969.60808      -851.296          33.200  
E08  27031146.709 5         0.00000     -2687.600          24.700  
E13  25817549.678 5         0.00000     -2423.400          29.200  
E19  28613941.766 4     -1485.23709      2799.115          30.700  
E26  23166397.427 3     11088.52604      -125.327          39.600  
E33  25049077.565 3    -94415.48404      2146.425          39.000  
> 2023 09 07 19 34 38.4487448  0 22
G02  23410277.988 4   -351846.82903      2815.149          34.900  
G08  22526823.791 2    113763.56101      -952.559          43.000  
G10  21167762.652 4    121146.40703     -1013.391          34.200  
G18  24757475.753 4    432337.55609     -3503.499          31.600  
G21  22543019.477 3   -278938.85309      2222.308          36.900  
G23  23277951.696 4    294380.67209     -2421.271          33.500  
G24  24530360.472 4         0.00000     -2420.700          29.100  
G27  22774753.954 2    348932.49901     -2836.936          41.900  
G28  23630001.585 3    -58264.31509      3319.602          38.500  
G32  20555592.750 3    -39361.00302       270.864          38.900  
R02  20723688.185 3   -232841.20301      1853.011          40.500  
R01  19717489.661 3    175442.82901     -1460.322          41.200  
R24  19262440.682 3    100339.36502      -882.338          39.300  
R23  22027150.417 4    497983.00403     -4095.462          33.900  
R17  21061026.947 2   -400880.68101      3193.153          43.200  
R08  23176343.947 4    424228.51609     -3494.716          34.200  
E07  23511222.315 4     30824.60909      -854.964          31.100  
E08  27031650.968 5         0.00000     -2686.550          27.900  
E13  25818014.953 4     42134.99209     -2425.010          30.100  
E19  28613413.233 4     -4280.51109      2798.699          29.500  
E26  23166420.217 3     11217.63404      -128.204          39.300  
E33  25048669.247 3    -96557.27005      2142.314          37.100  
> 2023 09 07 19 34 39.4487448  0 21
G02  23409733.262 3   -354667.04202      2822.907          35.700  
G08  22527004.871 2    114710.46901      -943.677          45.000  
G10  21167951.812 4    122153.77709     -1003.340          34.400  
G18  24758152.072 4         0.00000     -3498.900          30.100  
G21  22542590.481 3   -281166.25409      2230.434          37.900  
G23  23278405.576 3    296795.30309     -2410.008          37.300  
G24  24530817.964 4    288401.39009     -2412.231          30.800  
G27  22775290.583 2    351762.83301     -2826.095          42.000  
G28  23629374.407 4    -61591.56909      3332.933          31.400  
G32  20555538.480 3    -39637.86002       280.806          37.000  
R02  20723336.528 2   -234700.20401      1862.504          42.900  
R01  19717759.477 3    176897.75401     -1451.387          40.100  
R24  19262597.787 3    101215.58402      -872.298          38.900  
R23  22027907.686 4    502074.94009     -4086.784          35.500  
R17  21060436.658 3   -404078.78401      3201.056          41.200  
R08  23177012.482 5         0.00000     -3484.500          28.400  
E07  23511381.793 4     31674.04308      -844.774          32.600  
E08  27032164.807 4      4245.26409     -2676.905          31.400  
E13  25818473.335 4     44553.04309     -2412.873          34.000  
E26  23166444.490 3     11339.67104      -117.938          38.600  
E33  25048262.133 4    -98704.86506      2150.452          35.900  
> 2023 09 07 19 34 40.4487448  0 22
G02  23409195.132 4   -357488.81903      2821.388          34.500  
G08  22527183.248 2    115655.22701      -945.735          43.000  
G10  21168143.992 4    123156.70409     -1001.318          34.400  
G18  24758798.724 4    439321.11109     -3497.023          33.400  
G21  22542171.676 3   -283395.57909      2228.856          36.000  
G23  23278857.066 3    299203.83209     -2405.582          37.100  
G24  24531273.048 4    290813.37609     -2410.042          29.700  
G27  22775830.214 3    354588.80902     -2826.310          38.400  
G28  23628736.461 4    -64926.03409      3336.727          33.100  
G32  20555488.712 4    -39918.73803       281.532          35.300  
R02  20722982.777 3   -236562.01702      1861.118          39.800  
R01  19718030.793 3    178349.52102     -1450.933          37.300  
R24  19262766.862 3    102087.91202      -871.850          36.500  
R23  22028677.258 4    506160.39603     -4083.996          35.600  
R17  21059838.866 3   -407278.83001      3199.838          41.800  
R08  23177614.462 5         0.00000     -3479.200          28.200  
E07  23511541.288 5         0.00000      -842.650          26.200  
E08  27032670.566 4      6919.77309     -2672.606          31.300  
E13  25818931.421 4     46965.00909     -2408.515          33.900  
E19  28612334.286 6         0.00000      2805.550          24.300  
E26  23166464.872 3     11457.39204      -116.743          38.100  
E33  25047852.629 3   -100854.28204      2149.378          37.800  
> 2023 09 07 19 34 41.4487448  0 22
G02  23408666.304 4   -360309.87804      2821.443          33.100  
G08  22527365.812 2    116602.58201      -948.451          42.800  
G10  21168332.262 4    124155.01709      -995.442          34.300  
G18  24759471.465 4    442815.31109     -3491.988          31.400  
G21  22541744.163 3   -285624.61209      2229.306          38.800  
G23  23279319.060 3    301605.25609     -2397.555          37.000  
G24  24531724.224 4    293218.97909     -2401.850          31.300  
G27  22776367.733 3    357416.43501     -2828.556          40.600  
G28  23628100.000 3    -68264.48209      3338.706          35.700  
G32  20555428.456 4    -40201.87509       284.112          31.400  
R02  20722639.810 3   -238421.79202      1858.794          37.800  
R01  19718299.404 3    179798.66202     -1447.298          38.100  
R24  19262925.746 3    102959.40002      -871.078          37.500  
R23  22029427.339 4    510243.03103     -4081.510          34.900  
R17  21059233.885 3   -410478.89901      3200.624          40.500  
R08  23178300.692 4    434677.99909     -3472.695          30.800  
E07  23511705.267 4       524.62009      -838.947          31.000  
E08  27033176.605 4      9588.78808     -2664.778          33.200  
E13  25819388.896 4     49371.56409     -2404.486          34.000  
E19  28611801.252 5         0.00000      2803.250          24.600  
E26  23166488.570 3     11572.94504      -114.354          38.500  
E33  25047447.296 3   -103003.84704      2150.090          38.900  
> 2023 09 07 19 34 42.4487448  0 22
G02  23408130.285 3   -363131.24002      2821.110          37.700  
G08  22527547.486 2    117552.45501      -951.157          42.400  
G10  21168518.735 3    125148.99102      -991.904          36.800  
G18  24760125.307 4         0.00000     -3488.594          28.900  
G21  22541324.154 3   -287853.14901      2228.923          40.400  
G23  23279778.036 3    304000.07202     -2391.871          37.500  
G24  24532185.014 4    295619.17704     -2397.374          32.200  
G27  22776910.068 3    360246.20201     -2830.885          41.200  
G28  23627467.133 3    -71603.99802      3340.058          35.600  
G32  20555379.002 4    -40486.34509       284.450          29.700  
R02  20722290.562 3   -240279.33002      1856.511          37.200  
R01  19718570.109 3    181244.92702     -1445.330          38.600  
R24  19263085.538 3    103830.51502      -871.266          37.800  
R23  22030192.705 4    514323.93704     -4080.573          32.600  
R17  21058640.891 2   -413679.64501      3200.796          42.100  
R08  23178948.235 4    438148.03409     -3466.960          32.100  
E07  23511868.968 4      1363.12909      -836.497          29.700  
E08  27033683.551 4     12249.83409     -2659.296          33.400  
E13  25819840.385 5         0.00000     -2405.300          28.000  
E19  28611278.112 5         0.00000      2800.900          24.500  
E26  23166511.046 3     11686.53305      -113.069          37.200  
E33  25047035.086 4   -105153.93207      2149.840          34.600  
> 2023 09 07 19 34 43.4487448  0 22
G02  23407591.841 3   -365953.64302      2822.888          37.400  
G08  22527728.567 2    118503.39401      -951.152          43.000  
G10  21168710.897 3    126138.27602      -987.989          38.200  
G18  24760784.856 4    449791.33209     -3484.832          31.000  
G21  22540896.344 3   -290083.16701      2230.529          39.800  
G23  23280233.120 3    306388.60102     -2386.746          39.000  
G24  24532643.396 4    298013.05909     -2391.401          29.600  
G27  22777446.697 2    363076.83301     -2830.743          41.600  
G28  23626828.873 3    -74945.81802      3342.637          36.000  
G32  20555319.340 5         0.00000       287.550          28.200  
R02  20721944.594 3   -242136.12602      1856.768          37.700  
R01  19718842.629 3    182688.30902     -1442.467          37.200  
R24  19263258.522 3    104700.79102      -870.143          39.400  
R23  22030962.277 4         0.00000     -4078.366          29.000  
R17  21058035.927 3   -416881.79101      3202.597          41.900  
R08  23179606.282 4    441608.90409     -3456.913          30.400  
E07  23512024.257 4      2198.31608      -833.242          33.100  
E08  27034187.810 4     14905.68209     -2654.126          30.700  
E13  25820302.066 5         0.00000     -2399.900          25.800  
E19  28610745.374 6         0.00000      2805.800          23.800  
E26  23166532.631 3     11798.00504      -110.827          37.900  
E33  25046610.278 5         0.00000      2151.700          29.000  
> 2023 09 07 19 34 44.4487448  0 22
G02  23407054.322 3   -368775.27102      2820.641          39.000  
G08  22527909.037 2    119456.52801      -954.992          43.000  
G10  21168900.965 3    127126.46902      -988.042          38.400  
G18  24761446.201 5         0.00000     -3483.300          28.300  
G21  22540474.241 3   -292312.47401      2228.200          41.400  
G23  23280684.906 3    308775.14101     -2385.941          40.300  
G24  24533123.958 5         0.00000     -2393.550          24.800  
G27  22777984.513 2    365909.55301     -2834.487          42.700  
G28  23626193.319 4    -78287.33703      3340.782          35.000  
G32  20555281.264 4         0.00000       284.837          28.800  
R02  20721597.439 4   -243990.96903      1853.035          35.100  
R01  19719109.129 3    184131.64102     -1443.648          37.000  
R24  19263418.907 3    105572.39701      -872.885          40.300  
R23  22031734.833 4    522483.07409     -4080.974          31.600  
R17  21057443.527 3   -420083.24301      3200.579          41.300  
R08  23180237.945 4    445067.51709     -3460.095          31.300  
E07  23512175.341 5         0.00000      -835.600          25.700  
E08  27034697.461 5         0.00000     -2654.100          29.300  
E13  25820764.950 5         0.00000     -2397.900          26.500  
E19  28610192.569 5         0.00000      2802.550          25.700  
E26  23166554.217 3     11909.83204      -112.478          37.500  
E33  25046213.356 4         0.00000      2149.823          30.200  
> 2023 09 07 19 34 45.4487448  0 21
G02  23406516.489 3   -371595.51802      2821.313          37.500  
G08  22528091.008 3    120412.78701      -955.723          41.200  
G10  21169086.827 3    128113.80402      -985.734          36.400  
G18  24762124.928 5         0.00000     -3485.550          25.900  
G21  22540052.731 3   -294540.32401      2228.835          41.300  
G23  23281140.287 3    311159.79402     -2382.691          38.800  
G24  24533549.063 6         0.00000     -2390.100          23.300  
G27  22778523.550 2    368745.24201     -2835.120          42.200  
G28  23625556.264 4    -81627.91204      3341.810          32.600  
G32  20555222.805 4    -41340.19209       284.983          30.300  
R02  20721245.468 4   -245842.81803      1852.384          34.700  
R01  19719388.245 3    185575.09802     -1442.188          36.700  
R24  19263585.888 3    106445.89101      -872.667          40.400  
R23  22032499.607 5         0.00000     -4079.900          28.400  
R17  21056843.048 2   -423283.50501      3201.173          42.200  
R08  23180872.906 4         0.00000     -3456.661          29.700  
E07  23512342.340 5         0.00000      -833.500          28.300  
E08  27035191.809 4     20211.84909     -2650.010          30.100  
E19  28609666.724 5         0.00000      2800.150          26.500  
E26  23166577.007 3     12022.39105      -111.556          37.400  
E33  25045797.849 4   -111577.64309      2150.558          29.600  
> 2023 09 07 19 34 46.4487448  0 21
G02  23405977.766 3   -374418.19302      2821.350          35.800  
G08  22528275.980 2    121367.64701      -956.449          42.000  
G10  21169278.709 4    129097.89303      -985.007          33.800  
G18  24762775.472 5         0.00000     -3481.250          27.400  
G21  22539625.829 3   -296770.42701      2228.878          41.500  
G23  23281588.775 3    313540.81902     -2381.729          38.900  
G24  24534017.636 5         0.00000     -2392.350          24.800  
G27  22779062.570 2    371579.28001     -2835.588          42.600  
G28  23624924.287 4    -84971.14604      3342.064          30.700  
G32  20555156.844 4    -41626.27409       284.694          33.500  
R02  20720896.220 4   -247696.14903      1851.896          33.400  
R01  19719653.262 3    187015.91002     -1442.055          37.700  
R24  19263746.587 3    107317.62101      -873.335          40.100  
R17  21056244.662 2   -426485.87901      3201.093          43.600  
R08  23181530.064 4    451980.88009     -3455.349          31.200  
E07  23512500.631 4      1345.38309      -832.092          29.900  
E08  27035696.958 4     22859.47509     -2648.752          30.400  
E13  25821669.412 6         0.00000     -2394.950          23.800  
E19  28609142.694 5         0.00000      2797.450          26.100  
E26  23166595.888 3     12132.59804      -111.310          37.700  
E33  25045388.327 4   -113728.94609      2150.683          31.600  
> 2023 09 07 19 34 47.4487448  0 21
G02  23405440.544 3   -377237.67902      2819.306          36.400  
G08  22528455.857 2    122326.29001      -959.197          42.400  
G10  21169462.478 4    130084.63203      -986.639          33.700  
G18  24763456.013 5         0.00000     -3483.750          27.900  
G21  22539200.131 2   -298997.36201      2226.684          42.100  
G23  23282041.765 3    315923.84702     -2382.976          38.600  
G24  24534486.209 4    307568.84409     -2390.489          30.900  
G27  22779606.388 2    374416.97701     -2838.107          41.900  
G28  23624298.330 4    -88311.44707      3340.183          30.300  
G32  20555103.481 3    -41909.08409       282.491          35.700  
R02  20720547.250 4   -249545.78703      1849.077          34.000  
R01  19719926.672 3    188459.68202     -1443.967          37.200  
R24  19263913.271 3    108193.13402      -876.012          39.400  
R23  22034039.047 6         0.00000     -4080.950          21.500  
R17  21055645.666 2   -429684.90501      3198.622          43.000  
R08  23182128.135 5         0.00000     -3457.350          25.500  
E07  23512645.729 4      2179.33109      -834.070          30.800  
E08  27036205.405 4     25510.09909     -2650.114          30.200  
E19  28608613.551 5         0.00000      2795.150          26.400  
E26  23166618.975 3     12245.81004      -113.531          38.400  
E33  25044982.400 4   -115877.66608      2148.546          33.700  
> 2023 09 07 19 34 48.4487448  0 21
G02  23404902.414 3   -380057.45402      2820.194          36.600  
G08  22528636.938 2    123285.28201      -958.709          42.700  
G10  21169648.043 4    131070.75103      -985.763          34.900  
G18  24764107.447 4         0.00000     -3483.881          29.100  
G21  22538778.324 2   -301224.48001      2227.489          42.300  
G23  23282493.255 3    318306.15702     -2381.891          37.700  
G24  24534935.901 4    309958.88504     -2389.761          32.000  
G27  22780144.815 2    377254.67901     -2837.316          42.300  
G28  23623646.879 4    -91652.17404      3341.282          31.200  
G32  20555050.118 3    -42191.91402       283.042          36.000  
R02  20720208.489 4   -251395.21603      1849.749          33.600  
R01  19720193.189 3    189903.23802     -1443.235          37.200  
R24  19264073.063 3    109069.06102      -875.870          39.800  
R23  22034806.822 6         0.00000     -4081.200          22.200  
R17  21055049.689 2   -432883.89001      3199.293          42.400  
R08  23182818.274 5         0.00000     -3455.500          24.800  
E07  23512802.816 5         0.00000      -833.150          29.400  
E08  27036712.962 4     28159.41209     -2648.967          30.700  
E19  28608076.329 5         0.00000      2794.950          27.600  
E26  23166638.153 3     12358.91204      -112.727          38.300  
E33  25044575.583 4   -118026.77708      2149.513          33.800  
> 2023 09 07 19 34 49.4487448  0 21
G02  23404361.893 3   -382878.41802      2822.418          36.500  
G08  22528819.816 2    124243.45201      -956.884          42.900  
G10  21169843.817 4    132055.73103      -983.497          34.600  
G18  24764776.593 4    470696.51507     -3481.529          30.500  
G21  22538355.907 2   -303452.72701      2229.684          42.000  
G23  23282947.746 3    320687.21102     -2379.530          39.100  
G24  24535394.580 4    312348.06904     -2387.904          32.000  
G27  22780688.651 2    380091.36601     -2835.248          42.300  
G28  23623001.133 4    -94994.16104      3343.487          31.100  
G32  20554991.660 4    -42475.54103       284.930          35.500  
R02  20719855.332 4   -253245.64903      1851.814          34.000  
R01  19720466.302 3    191345.75902     -1441.188          37.300  
R24  19264243.028 3    109944.47402      -874.254          39.900  
R17  21054448.005 3   -436083.76101      3201.212          41.800  
R08  23183480.196 5         0.00000     -3452.300          24.100  
E07  23512968.000 4      3845.90709      -831.257          29.600  
E08  27037212.422 4     30807.60209     -2646.540          30.800  
E13  25823073.945 6         0.00000     -2393.600          21.000  
E19  28607547.203 5         0.00000      2797.900          27.700  
E26  23166661.850 3     12471.00504      -110.712          38.700  
E33  25044168.469 4   -120176.93308      2151.716          32.800  
> 2023 09 07 19 34 50.4487448  0 21
G02  23403823.764 3   -385701.95602      2824.185          36.200  
G08  22529003.288 2    125199.41001      -955.523          42.800  
G10  21170016.487 4    133038.07904      -981.806          33.300  
G18  24765426.544 5         0.00000     -3481.550          28.400  
G21  22537928.411 2   -305683.48301      2231.362          42.800  
G23  23283401.032 3    323065.62702     -2377.771          38.800  
G24  24535846.680 4    314735.06407     -2386.551          30.100  
G27  22781228.875 2    382925.52501     -2833.627          41.800  
G28  23622379.347 4    -98338.82909      3345.388          30.000  
G32  20554941.892 3    -42761.46802       286.399          35.600  
R02  20719503.081 4   -255098.45403      1853.333          34.600  
R01  19720733.709 3    192785.86902     -1439.494          36.900  
R24  19264401.337 3    110817.95402      -873.067          39.600  
R17  21053852.621 3   -439285.97001      3202.676          41.500  
R08  23184117.268 4         0.00000     -3451.317          29.200  
E07  23513123.586 4      4675.90609      -829.573          29.900  
E08  27037720.572 4     33452.97309     -2644.737          31.400  
E13  25823518.839 5         0.00000     -2391.550          24.500  
E19  28607007.869 5         0.00000      2801.350          27.300  
E26  23166681.936 3     12580.70204      -109.115          38.900  
E33  25043751.462 4   -122329.86509      2153.448          32.300  
> 2023 09 07 19 34 51.4487448  0 21
G02  23403297.325 3   -388526.90502      2825.596          37.800  
G08  22529184.665 2    126154.38201      -954.488          42.900  
G10  21170207.462 4    134019.20403      -980.431          34.500  
G18  24766092.671 5         0.00000     -3480.050          26.400  
G21  22537507.494 2   -307915.54801      2232.665          43.000  
G23  23283854.319 3    325442.55402     -2376.246          38.700  
G24  24536305.063 4    317120.92204     -2385.442          31.200  
G27  22781762.206 3    385758.46601     -2832.373          41.500  
G28  23621745.293 4   -101685.09609      3346.815          34.200  
G32  20554886.138 4    -43048.37704       287.414          33.000  
R02  20719159.225 4   -256952.37403      1854.350          33.900  
R01  19720999.336 3    194224.81502     -1438.376          36.900  
R24  19264556.626 3    111690.64002      -872.404          39.600  
R17  21053255.719 3   -442489.19101      3203.685          41.600  
R08  23184743.522 4         0.00000     -3449.630          29.100  
E07  23513282.174 5         0.00000      -828.750          28.200  
E08  27038225.110 4     36096.33909     -2643.293          30.800  
E13  25823934.346 6         0.00000     -2393.050          23.700  
E19  28606467.942 5         0.00000      2801.400          25.900  
E26  23166704.708 3     12689.20204      -107.960          38.700  
E33  25043335.954 4   -124484.08009      2154.867          31.000  
> 2023 09 07 19 34 52.4487448  0 21
G02  23402755.897 3   -391352.47302      2825.293          38.900  
G08  22529365.136 2    127109.16401      -955.262          42.500  
G10  21170389.730 4    134999.67103      -980.790          34.600  
G18  24766773.509 4         0.00000     -3478.755          28.900  
G21  22537078.202 2   -310148.13701      2232.249          42.500  
G23  23284306.105 3    327818.85802     -2376.522          38.300  
G24  24536758.943 4    319506.60004     -2386.110          30.900  
G27  22782300.632 2    388590.96401     -2832.837          41.700  
G28  23621101.939 4   -105031.84709      3346.625          32.500  
G32  20554844.764 4    -43335.42303       286.584          34.800  
R02  20718794.969 4   -258806.58503      1853.765          33.000  
R01  19721265.557 3    195663.44602     -1438.963          36.300  
R24  19264729.889 3    112563.49702      -873.465          39.400  
R17  21052663.040 2   -445692.61101      3202.948          42.200  
R08  23185385.096 4    472701.92404     -3449.932          31.400  
E07  23513443.763 5         0.00000      -829.850          27.200  
E08  27038729.369 4     38740.18409     -2643.359          30.800  
E13  25824395.433 5         0.00000     -2396.450          26.600  
E19  28605946.303 5         0.00000      2801.450          27.200  
E26  23166722.106 3     12797.37004      -108.512          38.900  
E33  25042928.230 5         0.00000      2154.350          29.400  
> 2023 09 07 19 34 53.4487448  0 22
G02  23402220.769 3   -394177.28402      2824.310          39.500  
G08  22529547.106 2    128065.06501      -956.572          42.900  
G10  21170582.799 4    135980.90703      -981.643          35.400  
G18  24767424.960 5         0.00000     -3481.300          27.500  
G21  22536656.692 2   -312379.89901      2231.275          42.700  
G23  23284760.876 3    330195.77102     -2377.354          38.500  
G24  24537220.030 4    321893.30504     -2387.370          30.900  
G27  22782837.261 2    391424.29701     -2833.860          41.600  
G28  23620462.790 4   -108378.02209      3345.619          32.100  
G32  20554789.010 4    -43621.51303       285.371          34.400  
R02  20718462.508 4   -260659.65304      1852.560          32.800  
R01  19721534.761 3    197102.94402     -1440.112          36.500  
R24  19264883.399 3    113437.76502      -875.120          39.800  
R23  22038606.694 6         0.00000     -4076.550          22.600  
R17  21052056.558 2   -448894.97401      3201.765          42.500  
R08  23186039.235 4    476151.98304     -3450.471          31.900  
E07  23513595.161 5         0.00000      -829.750          26.200  
E08  27039232.110 4     41383.85309     -2644.335          32.300  
E13  25824848.126 5         0.00000     -2395.450          25.000  
E19  28605411.471 5         0.00000      2799.900          26.200  
E26  23166743.081 3     12906.42604      -109.586          38.800  
E33  25042525.305 5         0.00000      2152.650          28.400  
> 2023 09 07 19 34 54.4487448  0 21
G02  23401681.435 3   -397001.96001      2825.068          39.900  
G08  22529729.688 2    129021.54901      -956.254          42.800  
G10  21170764.770 4    136962.34203      -981.120          33.800  
G18  24768090.494 4         0.00000     -3478.982          29.300  
G21  22536232.773 2   -314611.42201      2231.840          41.800  
G23  23285214.476 3    332572.82102     -2376.609          38.200  
G24  24537677.208 4    324280.53204     -2387.073          31.600  
G27  22783375.094 3    394257.90301     -2833.334          41.000  
G28  23619826.031 4   -111724.04404      3346.534          32.300  
G32  20554737.445 4    -43907.00003       285.714          35.000  
R02  20718106.349 4   -262512.34903      1852.980          33.100  
R01  19721805.467 3    198542.89602     -1439.666          36.600  
R24  19265051.881 3    114312.89602      -875.098          39.900  
R17  21051461.470 2   -452096.82301      3202.063          42.300  
R08  23186687.092 4    479602.00004     -3449.515          31.900  
E07  23513747.466 5         0.00000      -830.600          26.400  
E08  27039734.868 4     44027.83209     -2643.369          31.700  
E13  25825307.992 5         0.00000     -2395.300          24.700  
E19  28604880.234 5         0.00000      2802.100          26.800  
E26  23166764.370 3     13015.82504      -109.112          38.600  
E33  25042115.190 5         0.00000      2154.800          28.100  
> 2023 09 07 19 34 55.4487448  0 21
G02  23401147.214 3   -399826.45601      2824.010          39.800  
G08  22529911.048 2    129978.57001      -957.691          42.400  
G10  21170952.150 3    137943.94902      -982.138          35.800  
G18  24768749.135 4    491572.58709     -3480.442          30.000  
G21  22535804.667 2   -316842.69401      2230.763          41.700  
G23  23285664.465 3    334949.91902     -2377.557          38.300  
G24  24538121.194 4    326668.27104     -2388.383          32.100  
G27  22783915.004 3    397091.79701     -2834.434          41.100  
G28  23619200.650 4   -115070.00704      3345.435          32.400  
G32  20554687.380 3    -44192.02202       284.328          36.500  
R02  20717783.467 4   -264364.67503      1851.601          35.100  
R01  19722075.596 3    199983.24002     -1440.991          36.800  
R24  19265212.562 3    115188.92302      -876.835          39.500  
R17  21050856.489 2   -455298.13101      3200.666          42.200  
R08  23187346.326 4    483051.96803     -3450.362          33.300  
E07  23513909.352 5         0.00000      -829.350          26.300  
E08  27040237.626 4     46671.79008     -2644.375          32.800  
E13  25825759.482 5         0.00000     -2395.550          25.400  
E19  28604344.216 5         0.00000      2800.500          26.900  
E26  23166786.253 3     13125.62104      -110.377          39.100  
E33  25041702.980 5         0.00000      2152.050          28.700  
> 2023 09 07 19 34 56.4487448  0 21
G02  23400607.880 3   -402650.48601      2823.987          39.800  
G08  22530093.333 2    130936.42401      -958.091          42.300  
G10  21171139.217 4    138926.08003      -982.167          35.100  
G18  24769412.575 4    495053.04109     -3480.024          30.100  
G21  22535383.768 2   -319073.43701      2230.665          41.800  
G23  23286115.937 3    337327.43502     -2377.493          38.100  
G24  24538584.672 4    329056.79004     -2388.686          31.900  
G27  22784457.043 3    399926.31601     -2834.612          41.500  
G28  23618556.109 4   -118415.61204      3345.558          33.200  
G32  20554626.811 3    -44476.15102       283.976          36.300  
R02  20717428.216 4   -266216.20503      1851.363          35.300  
R01  19722348.692 3    201424.19802     -1441.125          36.900  
R24  19265375.949 3    116066.01902      -877.477          39.800  
R17  21050257.807 2   -458498.65201      3200.300          42.300  
R08  23187976.803 4    486502.16503     -3450.151          34.000  
E07  23514064.345 5         0.00000      -829.150          27.200  
E08  27040740.978 4     49316.02809     -2644.378          32.400  
E13  25826204.078 6         0.00000     -2394.450          23.300  
E19  28603805.492 5         0.00000      2800.600          27.000  
E26  23166803.947 3     13236.09104      -110.566          38.700  
E33  25041283.861 5         0.00000      2153.100          27.800  
> 2023 09 07 19 34 57.4487448  0 21
G02  23400068.564 3   -405473.92902      2822.644          39.500  
G08  22530273.803 2    131895.32501      -959.868          42.200  
G10  21171322.985 4    139908.80603      -983.550          34.400  
G18  24770071.530 4    498533.54609     -3481.168          30.000  
G21  22534956.866 2   -321303.48101      2229.242          42.100  
G23  23286572.836 3    339705.48802     -2378.718          38.000  
G24  24539033.177 4    331446.24304     -2390.438          31.100  
G27  22784994.562 2    402761.54901     -2836.090          41.600  
G28  23617925.336 4   -121760.65404      3344.397          32.700  
G32  20554576.746 3    -44759.33702       282.240          36.500  
R02  20717070.870 4   -268066.76403      1849.685          34.800  
R01  19722624.510 3    202866.03002     -1442.752          36.600  
R24  19265532.146 3    116944.46502      -879.533          39.300  
R17  21049669.315 2   -461698.18701      3198.596          42.600  
R08  23188627.033 4    489952.79903     -3451.280          34.600  
E07  23514219.338 5         0.00000      -833.650          25.800  
E08  27041247.331 4     51960.75008     -2645.532          33.000  
E13  25826672.948 6         0.00000     -2389.450          24.000  
E19  28603283.242 5         0.00000      2799.100          26.000  
E26  23166827.627 3     13347.35004      -112.118          38.700  
E33  25040881.843 5         0.00000      2151.050          28.800  
> 2023 09 07 19 34 58.4487448  0 21
G02  23399534.622 3   -408295.69401      2821.251          39.800  
G08  22530456.385 2    132856.27501      -961.688          42.500  
G10  21171516.054 4    140893.22203      -984.913          34.100  
G18  24770751.460 4    502015.75309     -3482.752          31.400  
G21  22534530.854 2   -323531.81201      2227.767          41.800  
G23  23287022.825 3    342085.09302     -2380.068          37.800  
G24  24539484.353 4    333837.72704     -2392.138          32.300  
G27  22785535.082 3    405598.55701     -2837.564          41.500  
G28  23617274.792 4   -125104.16504      3342.976          32.500  
G32  20554526.088 3    -45040.52002       280.439          37.300  
R02  20716722.197 4   -269915.36003      1847.925          34.900  
R01  19722879.929 3    204309.73802     -1444.419          36.300  
R24  19265704.222 3    117825.29502      -881.738          39.400  
R17  21049063.723 2   -464895.70001      3196.795          42.500  
R08  23189259.306 4    493404.91703     -3452.638          33.800  
E07  23514376.128 6         0.00000      -833.500          24.400  
E08  27041746.477 4     54607.07508     -2646.719          32.800  
E13  25827105.853 6         0.00000     -2401.250          23.300  
E19  28602744.816 5         0.00000      2798.000          26.100  
E26  23166850.417 3     13460.45204      -113.727          39.100  
E33  25040462.444 5         0.00000      2149.500          27.300  
> 2023 09 07 19 34 59.4487448  0 21
G02  23398996.196 3   -411116.85101      2821.567          39.700  
G08  22530641.357 2    133818.26901      -961.746          43.000  
G10  21171707.029 4    141878.31703      -984.597          34.300  
G18  24771410.398 4    505498.50209     -3482.210          30.100  
G21  22534106.360 2   -325759.42101      2227.995          41.900  
G23  23287470.406 3    344465.24402     -2379.645          37.900  
G24  24539942.735 4    336230.10204     -2392.168          31.900  
G27  22786071.415 3    408436.32601     -2837.408          41.400  
G28  23616639.534 4   -128447.12304      3343.316          31.900  
G32  20554470.020 3    -45320.74202       280.413          37.300  
R02  20716388.235 4   -271762.99503      1847.897          34.700  
R01  19723152.746 3    205754.35402     -1444.249          36.700  
R24  19265871.814 3    118707.44902      -882.037          39.600  
R17  21048474.342 2   -468092.18401      3196.741          42.700  
R08  23189921.839 4    496857.51004     -3452.096          32.200  
E07  23514547.611 5         0.00000      -837.200          27.300  
E08  27042252.533 4     57253.86508     -2646.329          33.300  
E13  25827560.641 6         0.00000     -2397.750          21.800  
E19  28602217.784 5         0.00000      2796.500          25.200  
E26  23166872.597 3     13574.42304      -113.587          39.200  
E33  25040057.111 5         0.00000      2149.400          28.100  
> 2023 09 07 19 35 00.4487448  0 21
G02  23398455.675 3   -413938.61001      2821.885          40.000  
G08  22530825.422 2    134780.06701      -961.829          43.000  
G10  21171900.395 4    142862.80903      -984.403          33.900  
G18  24772065.148 4    508980.70909     -3482.696          30.300  
G21  22533686.350 2   -327987.55001      2228.212          42.000  
G23  23287921.895 3    346844.72802     -2379.337          37.200  
G24  24540391.537 4    338622.29704     -2392.156          31.800  
G27  22786614.640 3    411273.63701     -2837.226          41.300  
G28  23616008.465 4   -131790.69604      3343.809          31.600  
G32  20554411.562 3    -45601.14902       280.379          37.300  
R02  20716045.583 4   -273611.00703      1847.981          35.100  
R01  19723427.656 3    207198.55102     -1444.126          36.800  
R24  19266032.496 3    119589.73002      -882.457          39.400  
R17  21047872.362 2   -471288.92801      3196.734          42.600  
R08  23190555.910 4    500309.26604     -3451.489          32.300  
E07  23514711.591 5         0.00000      -830.350          27.100  
E08  27042754.977 4     59899.96309     -2645.998          32.000  
E13  25828032.215 6         0.00000     -2404.450          23.500  
E19  28601685.361 5         0.00000      2800.050          27.300  
E26  23166892.682 3     13687.98204      -113.487          39.300  
E33  25039645.495 5         0.00000      2149.350          27.700  
> 2023 09 07 19 35 01.4487448  0 21
G02  23397923.548 3   -416760.94401      2822.581          40.100  
G08  22531008.894 2    135741.67901      -961.578          42.700  
G10  21172080.255 4    143846.78803      -983.773          34.200  
G18  24772732.775 4    512462.83709     -3481.439          30.400  
G21  22533259.134 2   -330216.17201      2228.825          42.200  
G23  23288379.073 3    349223.60202     -2378.619          36.900  
G24  24540841.823 4    341014.20804     -2391.945          32.400  
G27  22787155.475 2    414110.49101     -2836.688          41.600  
G28  23615353.715 4   -135134.95104      3344.420          31.700  
G32  20554360.904 3    -45881.79502       280.701          37.600  
R02  20715688.516 4   -275459.31403      1848.465          35.700  
R01  19723687.263 3    208642.37502     -1443.716          36.400  
R24  19266206.387 3    120472.08402      -882.482          39.900  
R17  21047277.868 2   -474485.90401      3197.037          42.500  
R08  23191177.382 4    503760.16009     -3450.632          30.400  
E07  23514868.678 5         0.00000      -836.150          27.800  
E08  27043256.235 4     62545.43609     -2645.111          32.200  
E13  25828498.695 6         0.00000     -2396.000          23.000  
E19  28601149.028 5         0.00000      2800.150          27.900  
E26  23166915.768 3     13801.15504      -113.046          39.100  
E33  25039238.992 4     -5441.64309      2151.759          29.600  
> 2023 09 07 19 35 02.4487448  0 21
G02  23397379.712 3   -419583.33502      2822.322          39.400  
G08  22531190.568 2    136703.64401      -962.197          42.500  
G10  21172275.121 4    144830.70103      -984.050          35.100  
G18  24773395.325 4         0.00000     -3481.570          29.500  
G21  22532832.529 3   -332444.79601      2228.505          41.500  
G23  23288827.265 3    351602.34302     -2378.806          37.300  
G24  24541296.907 4    343406.45604     -2392.476          31.900  
G27  22787692.994 3    416947.38501     -2837.052          41.400  
G28  23614732.243 4   -138479.33504      3344.300          30.600  
G32  20554307.541 3    -46162.11102       280.073          36.500  
R02  20715358.742 4   -277307.43003      1847.820          35.100  
R01  19723963.081 3    210086.36002     -1444.185          36.700  
R24  19266367.069 3    121355.07402      -883.449          39.800  
R17  21046679.482 2   -477682.59301      3196.410          42.800  
R08  23191850.402 4    507210.80109     -3450.449          32.400  
E07  23515018.279 5         0.00000      -832.150          27.900  
E08  27043764.682 4     65190.69908     -2645.344          32.600  
E13  25828958.281 6         0.00000     -2392.400          24.400  
E19  28600619.292 5         0.00000      2798.750          27.700  
E26  23166938.244 3     13914.46604      -113.491          39.200  
E33  25038831.268 4     -7592.53309      2151.463          30.400  
> 2023 09 07 19 35 03.4487448  0 21
G02  23396846.695 3   -422405.05302      2820.522          39.200  
G08  22531377.338 2    137666.64301      -964.382          42.600  
G10  21172464.299 3    145815.29902      -985.752          36.100  
G18  24774045.573 4    519426.58509     -3483.380          30.600  
G21  22532415.224 2   -334672.64401      2226.655          41.600  
G23  23289274.863 3    353981.64202     -2380.478          37.300  
G24  24541749.897 4    345799.62304     -2394.600          31.500  
G27  22788237.423 3    419785.08401     -2838.930          41.000  
G28  23614101.191 4   -141823.12004      3342.613          31.900  
G32  20554250.584 3    -46441.44602       277.937          37.600  
R02  20715000.803 3   -279154.54202      1845.831          36.600  
R01  19724228.988 3    211531.25002     -1446.243          36.700  
R24  19266534.661 3    122239.45601      -885.948          40.000  
R17  21046088.286 2   -480878.21601      3194.233          42.900  
R08  23192476.376 4    510661.87809     -3452.123          32.300  
E07  23515179.868 5         0.00000      -835.550          25.200  
E08  27044261.437 4     67836.05609     -2646.867          31.200  
E13  25829410.067 6         0.00000     -2399.700          24.400  
E19  28600089.556 5         0.00000      2797.050          27.300  
E26  23166957.143 3     14028.67004      -115.484          39.300  
E33  25038426.545 4     -9743.40309      2149.705          29.800  
> 2023 09 07 19 35 04.4487448  0 21
G02  23396310.066 3   -425224.64002      2820.361          38.000  
G08  22531561.106 2    138631.88801      -963.974          42.800  
G10  21172643.565 3    146802.51902      -987.482          36.800  
G18  24774704.510 5         0.00000     -3483.050          27.300  
G21  22531987.711 2   -336898.30001      2226.405          41.900  
G23  23289739.231 3    356363.55602     -2382.668          39.000  
G24  24542209.169 4    348195.95607     -2397.178          30.500  
G27  22788780.648 2    422624.79701     -2838.211          42.000  
G28  23613462.321 4   -145164.79904      3342.285          33.000  
G32  20554196.314 4    -46718.23303       277.168          34.800  
R02  20714662.339 4   -280999.46503      1846.158          35.900  
R01  19724507.197 3    212978.83602     -1447.507          36.900  
R24  19266698.640 3    123126.69702      -886.818          39.500  
R17  21045479.710 2   -484071.20801      3193.393          42.700  
R08  23193136.221 4    514115.59509     -3454.341          32.700  
E07  23515345.348 5         0.00000      -832.400          26.800  
E08  27044760.287 4     70484.99209     -2649.235          30.400  
E13  25829888.831 5         0.00000     -2398.300          26.700  
E19  28599557.132 5         0.00000      2798.300          28.000  
E26  23166979.322 3     14145.32204      -116.333          38.900  
E33  25038018.227 4    -11892.16209      2149.443          31.300  
> 2023 09 07 19 35 05.4487448  0 22
G02  23395772.530 3   -428046.76702      2822.910          38.600  
G08  22531743.687 2    139593.61101      -960.427          42.400  
G10  21172833.633 3    147789.29009      -987.849          35.900  
G18  24775361.965 4    526395.08809     -3483.964          29.700  
G21  22531565.905 2   -339126.28701      2228.700          42.100  
G23  23290190.720 3    358746.65702     -2384.075          37.000  
G24  24542659.751 5         0.00000     -2398.200          25.100  
G27  22789317.277 2    425460.51801     -2834.254          42.400  
G28  23612832.159 4   -148508.39503      3344.204          34.900  
G32  20554148.640 4    -46996.41203       278.498          34.400  
R02  20714311.572 3   -282847.90902      1849.746          36.800  
R01  19724777.012 3    214425.64002     -1446.979          37.200  
R24  19266861.730 3    124012.33001      -885.292          40.000  
R23  22047728.464 6         0.00000     -4087.750          23.400  
R17  21044884.919 2   -487265.86201      3195.011          42.200  
R08  23193775.370 4    517570.21109     -3455.166          31.300  
E07  23515512.347 4       506.25909      -836.525          30.300  
E08  27045269.938 4     73134.37209     -2650.686          29.900  
E13  25830337.319 4      1410.23009     -2398.929          29.500  
E19  28599026.489 5         0.00000      2801.650          27.300  
E26  23166999.407 3     14260.64804      -115.083          38.700  
E33  25037615.616 4    -14043.19908      2151.677          34.000  
> 2023 09 07 19 35 06.4487448  0 22
G02  23395237.698 3   -430870.15101      2824.356          40.600  
G08  22531925.955 2    140552.51801      -956.788          41.800  
G10  21173026.109 3    148779.06302      -990.925          37.300  
G18  24776031.704 4    529879.72509     -3485.471          35.000  
G21  22531139.003 2   -341355.54501      2230.037          41.600  
G23  23290648.806 3    361133.05402     -2389.089          36.700  
G24  24543114.539 4    352992.42604     -2404.744          32.200  
G27  22789860.799 2    428292.97401     -2830.107          42.200  
G28  23612207.999 4   -151852.62509      3343.934          32.500  
G32  20554089.292 4    -47274.59804       278.292          33.000  
R02  20713957.524 3   -284699.22102      1853.242          36.900  
R01  19725043.232 3    215873.50402     -1448.535          37.200  
R24  19267027.507 3    124897.64502      -884.994          39.900  
R23  22048556.494 5         0.00000     -4083.000          24.700  
R17  21044289.832 3   -490460.84101      3195.206          41.500  
R08  23194411.832 4         0.00000     -3459.069          29.900  
E07  23515661.040 4      1343.61209      -838.399          32.300  
E08  27045773.586 5         0.00000     -2654.600          26.600  
E13  25830806.189 5         0.00000     -2404.150          26.000  
E19  28598499.754 6         0.00000      2805.050          23.200  
E26  23167022.494 3     14376.02904      -115.492          38.100  
E33  25037200.999 4    -16195.23108      2152.777          32.800  
> 2023 09 07 19 35 07.4487448  0 22
G02  23394702.273 3   -433695.64801      2826.299          40.800  
G08  22532106.129 2    141506.81201      -952.255          42.600  
G10  21173207.190 3    149771.50802      -993.978          37.200  
G18  24776692.143 3    533366.70109     -3488.062          36.400  
G21  22530713.898 3   -343586.76501      2231.968          41.400  
G23  23291099.999 3    363524.82702     -2394.371          37.800  
G24  24543580.128 5         0.00000     -2402.200          23.800  
G27  22790395.631 2    431120.27201     -2824.999          42.500  
G28  23611561.643 4   -155197.27809      3345.319          33.600  
G32  20554038.320 4    -47553.11909       278.422          32.100  
R02  20713613.057 3   -286554.96902      1857.796          37.000  
R01  19725317.236 3    217322.67002     -1450.047          37.900  
R24  19267199.287 3    125782.08402      -884.122          39.700  
R23  22049293.382 5         0.00000     -4076.100          25.700  
R17  21043683.961 3   -493656.46101      3195.835          41.500  
R08  23195060.893 4    524489.64709     -3465.028          34.400  
E07  23515827.114 4      2182.81909      -840.093          31.700  
E08  27046279.939 5         0.00000     -2658.900          26.200  
E13  25831258.272 5         0.00000     -2406.350          26.100  
E19  28597954.434 5         0.00000      2811.150          25.900  
E26  23167043.172 3     14491.34604      -115.415          38.300  
E33  25036795.072 4    -18348.95908      2154.494          34.300  
> 2023 09 07 19 35 08.4487448  0 21
G02  23394164.754 3   -436522.42301      2826.864          40.700  
G08  22532287.803 3    142457.21901      -949.370          41.500  
G10  21173401.742 3    150767.86102      -998.297          37.100  
G18  24777357.676 4    536856.34009     -3491.258          34.500  
G21  22530290.590 3   -345819.08701      2232.453          40.500  
G23  23291560.178 3    365922.69202     -2400.746          36.300  
G24  24544103.251 5         0.00000     -2412.400          24.100  
G27  22790928.962 3    433943.17901     -2821.656          41.500  
G28  23610928.776 4   -158542.35609      3344.849          33.000  
G32  20553985.253 4    -47831.20009       277.484          31.500  
R02  20713272.185 3   -288414.47502      1860.493          36.700  
R01  19725588.255 3    218774.03802     -1452.670          38.100  
R24  19267353.687 3    126666.44602      -884.848          38.800  
R17  21043095.155 3   -496852.00501      3194.927          40.600  
R08  23195715.346 4    527958.29603     -3472.558          33.400  
E07  23515982.717 4      3024.61109      -843.276          31.800  
E08  27046784.198 4      1513.30609     -2667.277          31.500  
E13  25831727.753 6         0.00000     -2399.650          24.000  
E19  28597422.604 6         0.00000      2821.050          22.800  
E26  23167067.167 3     14607.47304      -116.869          38.300  
E33  25036382.566 4    -20504.05609      2154.471          33.300  
> 2023 09 07 19 35 09.4487448  0 22
G02  23393624.513 2   -439348.78101      2826.335          42.800  
G08  22532467.383 2    143406.51601      -948.322          41.700  
G10  21173592.124 3    151768.45002     -1002.711          37.900  
G18  24778023.228 4    540349.43909     -3494.922          35.100  
G21  22529867.580 3   -348050.86101      2231.683          40.900  
G23  23292017.060 3    368326.38402     -2406.778          37.600  
G24  24544537.360 5         0.00000     -2425.450          23.800  
G27  22791469.779 2    436764.54801     -2820.312          42.400  
G28  23610284.828 4   -161886.06209      3342.980          33.100  
G32  20553937.894 4         0.00000       275.193          29.100  
R02  20712920.249 3   -290275.09802      1861.577          37.900  
R01  19725860.461 3    220228.39502     -1455.829          38.200  
R24  19267526.356 3    127552.37902      -886.589          38.900  
R23  22050810.033 5         0.00000     -4081.400          24.800  
R17  21042499.475 3   -500045.86701      3193.377          41.100  
R08  23196359.294 4    531433.71103     -3478.487          35.200  
E07  23516146.994 4      3869.66008      -846.578          33.400  
E08  27047293.831 4      4183.72409     -2672.867          32.000  
E13  25832171.442 6         0.00000     -2404.400          23.400  
E19  28596876.674 5         0.00000      2815.400          24.600  
E26  23167091.736 3     14725.69305      -119.098          37.300  
E33  25035977.250 3    -22657.47004      2153.913          37.900  
> 2023 09 07 19 35 10.4487448  0 22
G02  23393087.883 3   -442175.77801      2827.874          40.500  
G08  22532649.354 3    144353.01901      -944.821          41.100  
G10  21173780.080 3    152773.37002     -1006.787          37.500  
G18  24778689.966 4    543845.84109     -3497.089          32.100  
G21  22529441.882 2   -350283.14101      2232.937          42.400  
G23  23292477.850 3    370736.64402     -2413.332          37.000  
G24  24544951.977 5         0.00000     -2430.600          26.700  
G27  22792004.908 2    439582.98101     -2816.812          41.900  
G28  23609656.463 4   -165228.32209      3341.725          34.100  
G32  20553892.628 5         0.00000       272.650          27.800  
R02  20712565.887 3   -292138.32102      1864.762          38.600  
R01  19726143.172 3    221685.47502     -1458.041          38.100  
R24  19267691.244 3    128439.21602      -887.065          38.900  
R23  22051573.305 4    628546.13604     -4083.075          31.100  
R17  21041901.700 2   -503239.18301      3193.354          42.200  
R08  23197020.326 4    534915.63103     -3484.778          35.400  
E07  23516309.193 4      4717.82807      -849.581          35.200  
E08  27047804.983 4      6860.67109     -2679.350          30.600  
E13  25832629.231 5         0.00000     -2411.250          28.700  
E19  28596346.641 6         0.00000      2822.350          23.100  
E26  23167112.136 3     14845.38405      -120.288          37.400  
E33  25035570.119 3    -24811.60804      2154.723          38.300  
> 2023 09 07 19 35 11.4487448  0 22
G02  23392551.254 3   -445005.64609      2830.964          37.900  
G08  22532826.229 3    145295.38301      -940.744          41.400  
G10  21173975.854 3    153781.64802     -1009.188          37.100  
G18  24779389.667 5         0.00000     -3499.250          26.400  
G21  22529016.184 3   -352517.61102      2235.634          39.000  
G23  23292935.622 3    373152.76602     -2417.855          37.100  
G24  24545406.451 4         0.00000     -2434.301          29.400  
G27  22792542.147 2    442397.70701     -2813.474          42.000  
G28  23609022.095 4   -168569.60909      3343.387          31.900  
G32  20553823.978 4    -48658.09509       274.468          30.400  
R02  20712216.324 3   -294005.20301      1868.368          40.000  
R01  19726412.987 3    223143.82702     -1458.502          37.100  
R24  19267863.320 3    129326.21002      -887.029          37.100  
R23  22052325.794 4    632630.99009     -4085.346          33.900  
R17  21041306.595 2   -506433.40701      3195.094          44.000  
R08  23197665.478 4    538402.61403     -3488.370          33.200  
E07  23516472.580 4      5568.30508      -851.111          33.500  
E08  27048311.633 4      9541.95409     -2682.918          29.500  
E13  25833084.315 5         0.00000     -2412.650          28.900  
E19  28595813.921 5         0.00000      2829.850          24.800  
E26  23167137.020 3     14965.86604      -120.581          38.300  
E33  25035160.004 3    -26967.62404      2157.155          40.300  
> 2023 09 07 19 35 12.4487448  0 22
G02  23392008.640 4   -447836.99609      2831.434          35.300  
G08  22533006.420 2    146235.66101      -939.200          43.000  
G10  21174163.514 3    154791.51702     -1010.658          37.700  
G18  24780045.917 5         0.00000     -3497.100          25.900  
G21  22528591.672 4   -354753.87303      2236.799          35.200  
G23  23293397.006 3    375571.90602     -2420.692          36.100  
G24  24545873.837 5         0.00000     -2432.850          28.300  
G27  22793071.570 3    445210.94301     -2812.042          40.300  
G28  23608381.742 5         0.00000      3337.600          26.400  
G32  20553777.509 4    -48931.34709       273.903          30.300  
R02  20711870.060 2   -295873.97701      1869.874          42.400  
R01  19726675.596 4    224602.70103     -1459.136          35.300  
R24  19268030.319 4    130213.75003      -887.384          35.500  
R23  22053070.167 4    636718.48707     -4087.482          30.900  
R17  21040709.414 2   -509628.70601      3195.488          44.600  
R08  23198331.326 4    541891.17709     -3489.003          31.900  
E07  23516632.371 4      6420.10206      -852.084          35.700  
E08  27048825.768 4     12225.87609     -2685.350          31.000  
E13  25833545.996 4      6244.39609     -2414.025          30.200  
E19  28595272.196 5         0.00000      2831.150          26.300  
E26  23167156.808 3     15086.93204      -121.136          38.100  
E33  25034748.999 3    -29125.21604      2158.079          40.100  
> 2023 09 07 19 35 13.4487448  0 21
G02  23391472.307 4   -450669.33709      2832.310          35.200  
G08  22533183.296 3    147173.11501      -936.310          41.300  
G10  21174356.880 3    155803.72902     -1014.040          36.600  
G18  24780698.276 5         0.00000     -3504.800          26.700  
G21  22528165.067 3   -356990.99602      2236.880          38.300  
G23  23293855.091 3    377995.25801     -2426.011          39.700  
G27  22793610.607 2    448020.89001     -2808.278          42.000  
G28  23607741.686 4   -175259.09809      3340.557          31.300  
G32  20553725.332 5         0.00000       272.450          27.000  
R02  20711520.497 2   -297745.73501      1872.931          42.200  
R01  19726952.304 3    226062.61102     -1461.470          36.500  
R24  19268201.191 3    131100.70902      -887.263          39.000  
R23  22053855.933 4    640805.70003     -4087.055          34.500  
R17  21040113.123 2   -512824.20101      3194.661          42.900  
R08  23198973.790 4    545382.80509     -3495.205          30.000  
E07  23516795.758 3      7273.09505      -854.376          36.500  
E08  27049334.215 4     14914.40609     -2690.853          29.500  
E13  25834003.488 4      8662.06209     -2417.974          32.200  
E19  28594722.968 5         0.00000      2835.500          28.100  
E26  23167179.581 3     15208.06304      -121.677          38.200  
E33  25034337.069 3    -31283.79303      2158.316          40.700  
> 2023 09 07 19 35 14.4487448  0 22
G02  23390929.379 3   -453500.49909      2830.783          40.500  
G08  22533363.172 3    148108.80001      -934.477          41.000  
G10  21174546.058 3    156820.61302     -1019.084          38.500  
G18  24781365.608 4    557849.23909     -3508.034          32.600  
G21  22527740.555 2   -359226.93601      2235.516          41.600  
G23  23294317.976 3    380424.57402     -2432.154          38.900  
G24  24546818.173 5         0.00000     -2448.900          24.500  
G27  22794144.828 3    450827.55001     -2804.604          40.600  
G28  23607104.631 4   -178599.47909      3341.347          33.900  
G32  20553675.582 5         0.00000       270.000          28.000  
R02  20711172.156 3   -299619.29001      1874.746          40.800  
R01  19727228.122 3    227526.37502     -1465.391          39.300  
R24  19268354.997 3    131988.73902      -888.106          39.700  
R23  22054606.903 4    644892.57304     -4086.136          32.400  
R17  21039512.643 3   -516016.99501      3191.739          41.900  
R08  23199609.345 4    548883.05203     -3503.772          35.000  
E07  23516959.441 4      8129.55906      -858.035          35.900  
E08  27049849.276 4     17611.17709     -2697.859          32.600  
E13  25834461.556 5         0.00000     -2423.650          27.400  
E19  28594187.247 6         0.00000      2836.300          23.400  
E26  23167204.168 3     15330.90804      -123.296          37.700  
E33  25033927.565 3    -33440.95704      2156.560          39.100  
> 2023 09 07 19 35 15.4487448  0 22
G02  23390393.954 3   -456330.71909      2830.272          39.500  
G08  22533539.751 3    149042.22901      -931.944          41.300  
G10  21174741.517 3    157842.47801     -1024.573          39.700  
G18  24782017.949 4    561357.53309     -3509.713          33.600  
G21  22527313.356 3   -361461.83101      2234.953          41.400  
G23  23294782.640 3    382860.19502     -2439.640          38.400  
G24  24547270.570 4    374855.51109     -2458.726          29.800  
G27  22794677.566 2    453630.16201     -2801.000          42.800  
G28  23606473.875 4   -181941.15409      3340.811          35.300  
G32  20553624.610 4    -49748.93109       270.197          30.800  
R02  20710822.593 3   -301495.28501      1877.377          41.600  
R01  19727496.733 3    228993.86902     -1469.213          38.300  
R24  19268526.167 3    132877.22801      -888.960          40.100  
R23  22055367.489 5         0.00000     -4082.900          26.900  
R17  21038915.758 3   -519207.35501      3189.780          40.600  
R08  23200269.486 4    552390.18609     -3511.697          33.200  
E07  23517120.733 4      8989.54906      -861.921          35.500  
E08  27050365.506 4     20313.21909     -2706.054          32.100  
E13  25834920.253 5         0.00000     -2423.950          29.200  
E19  28593639.816 6         0.00000      2848.850          24.300  
E26  23167227.255 3     15455.22805      -125.320          36.800  
E33  25033516.542 3    -35597.25809      2155.673          36.900  
> 2023 09 07 19 35 16.4487448  0 22
G02  23389851.025 3   -459163.35309      2834.826          37.700  
G08  22533716.923 3    149970.53102      -924.689          39.500  
G10  21174941.183 3    158868.75601     -1027.464          40.000  
G18  24782695.785 4    564869.04409     -3514.209          32.100  
G21  22526887.641 3   -363699.02601      2239.347          41.000  
G23  23295244.024 3    385303.50901     -2446.218          40.200  
G24  24547726.858 5         0.00000     -2463.250          27.100  
G27  22795206.988 2    456427.79001     -2794.143          42.200  
G28  23605836.209 4   -185281.84209      3341.162          35.200  
G32  20553569.153 4    -50019.51609       271.745          32.700  
R02  20710471.233 2   -303376.12701      1884.247          42.700  
R01  19727775.849 3    230463.23402     -1469.333          37.800  
R24  19268688.052 3    133765.29302      -886.824          39.600  
R23  22056142.453 4         0.00000     -4086.779          29.900  
R17  21038326.360 3   -522398.63601      3192.704          41.500  
R08  23200930.221 4    555905.66803     -3517.648          35.300  
E07  23517285.917 3      9852.30104      -863.075          38.600  
E08  27050878.158 4     23022.08609     -2711.958          31.900  
E13  25835393.921 5         0.00000     -2431.600          25.100  
E19  28593109.190 6         0.00000      2856.300          23.900  
E26  23167250.341 4     15580.24607      -124.361          35.000  
E33  25033107.631 3    -37754.44803      2159.651          40.600  
> 2023 09 07 19 35 17.4487448  0 22
G02  23389314.396 3   -461999.44009      2836.407          39.400  
G08  22533893.205 3    150892.16802      -919.334          39.300  
G10  21175136.643 3    159898.28101     -1031.345          39.700  
G18  24783362.523 4    568384.39009     -3514.987          34.800  
G21  22526466.148 2   -365939.55701      2240.905          41.600  
G23  23295711.097 3    387753.33202     -2452.686          39.200  
G24  24548207.420 4    379790.20509     -2473.906          29.800  
G27  22795743.320 2    459218.62401     -2787.527          42.900  
G28  23605198.247 3   -188623.39009      3342.943          36.700  
G32  20553521.776 4    -50291.48809       272.453          33.600  
R02  20710109.385 2   -305263.33601      1889.553          43.700  
R01  19728056.745 3    231933.36002     -1471.304          38.000  
R24  19268853.236 3    134651.36802      -885.179          39.400  
R23  22056888.624 4    657156.90509     -4084.206          30.600  
R17  21037726.474 3   -525591.71601      3192.587          41.700  
R08  23201602.055 3    559427.10102     -3524.967          36.500  
E07  23517451.397 3     10716.48904      -865.082          38.700  
E08  27051396.500 4     25738.38709     -2718.936          31.000  
E13  25835846.004 4      1446.05409     -2424.256          31.700  
E19  28592546.472 6         0.00000      2850.700          23.400  
E26  23167276.115 4     15704.41308      -124.064          33.200  
E33  25032696.312 3    -39915.22404      2160.958          40.200  
> 2023 09 07 19 35 18.4487448  0 22
G02  23388771.485 3   -464835.61401      2835.727          39.900  
G08  22534066.783 3    151809.33501      -915.564          41.500  
G10  21175333.010 3    160931.66501     -1035.512          40.600  
G18  24784026.260 3    571899.07002     -3514.330          39.000  
G21  22526035.337 2   -368180.28401      2240.379          42.200  
G23  23296182.078 3    390208.70502     -2457.903          38.500  
G24  24548672.102 4         0.00000     -2481.750          29.100  
G27  22796272.463 2    462002.44601     -2780.996          43.800  
G28  23604559.098 3   -191968.68102      3346.859          37.400  
G32  20553460.630 4    -50563.89104       272.819          33.100  
R02  20709756.227 2   -307155.31001      1893.668          42.100  
R01  19728323.263 3    233406.20002     -1474.484          39.600  
R24  19269019.921 3    135535.66701      -883.960          40.500  
R23  22057671.685 4    661238.89403     -4080.611          34.900  
R17  21037128.996 3   -528783.30201      3190.606          41.600  
R08  23202255.007 4    562955.91403     -3532.316          33.300  
E07  23517615.988 3     11582.74804      -867.535          38.300  
E08  27051918.139 4     28460.95209     -2725.917          30.600  
E13  25836304.683 4      3871.28509     -2424.088          34.800  
E19  28592017.347 5         0.00000      2865.900          25.400  
E26  23167302.203 4     15828.21508      -123.908          32.700  
E33  25032282.603 4    -42076.32709      2159.868          31.700  
> 2023 09 07 19 35 19.4487448  0 22
G02  23388232.448 3   -467671.18202      2835.775          37.900  
G08  22534238.859 2    152723.29901      -912.414          42.900  
G10  21175531.471 3    161969.02601     -1038.158          40.700  
G18  24784700.501 3    575413.02901     -3513.143          41.500  
G21  22525609.936 3   -370420.49301      2240.458          41.200  
G23  23296652.152 3    392668.94002     -2461.390          38.500  
G24  24549158.056 5         0.00000     -2489.800          26.800  
G27  22796795.289 2    464780.74201     -2775.881          43.100  
G28  23603923.526 4   -195317.22603      3350.181          35.500  
G32  20553420.146 4    -50836.63804       273.310          32.600  
R02  20709401.273 3   -309050.73901      1897.056          40.800  
R01  19728606.864 3    234882.07602     -1476.374          38.800  
R24  19269186.605 3    136419.31301      -882.816          40.800  
R23  22058419.375 4    665317.86003     -4077.353          34.000  
R17  21036539.597 2   -531973.07301      3189.584          42.500  
R08  23202928.045 4    566490.42309     -3536.671          34.300  
E07  23517779.077 3     12451.44304      -868.919          37.600  
E08  27052436.184 5         0.00000     -2731.450          28.900  
E13  25836765.177 4      6295.14008     -2423.061          33.300  
E19  28591466.932 5         0.00000      2873.150          27.900  
E26  23167321.085 4     15952.28708      -123.612          34.000  
E33  25031872.191 3    -44235.46805      2160.140          36.500  
> 2023 09 07 19 35 20.4487448  0 22
G02  23387694.021 4   -470506.47709      2833.759          34.100  
G08  22534412.733 2    153635.18001      -912.738          43.200  
G10  21175727.542 3    163008.47501     -1041.191          39.800  
G18  24785369.630 2    578925.99101     -3513.320          42.300  
G21  22525183.924 4   -372660.48203      2238.439          35.300  
G23  23297117.427 3    395131.63702     -2464.253          38.500  
G24  24549620.940 4    387240.53109     -2490.678          33.300  
G27  22797326.526 2    467555.23401     -2774.596          42.400  
G28  23603285.581 3   -198668.30502      3351.012          37.500  
G32  20553359.593 4    -51109.69704       271.845          31.600  
R02  20709049.616 3   -310948.46101      1897.085          40.500  
R01  19728879.070 3    236359.65602     -1479.434          36.300  
R24  19269349.398 3    137302.32801      -884.106          41.300  
R23  22059203.029 4    669394.38309     -4076.707          32.100  
R17  21035935.820 2   -535161.67801      3186.857          43.200  
R08  23203572.307 4    570029.50804     -3540.425          32.400  
E07  23517946.949 4     13321.36207      -871.464          35.400  
E08  27052953.024 5         0.00000     -2731.600          25.500  
E13  25837223.559 4      8717.84308     -2423.417          33.100  
E19  28590929.099 6         0.00000      2876.950          23.500  
E26  23167348.063 4     16076.32206      -125.269          35.600  
E33  25031462.966 3    -46395.06704      2158.163          40.100  
> 2023 09 07 19 35 21.4487448  0 21
G02  23387164.285 4   -473337.69609      2828.056          32.700  
G08  22534586.014 2    154550.20601      -918.674          42.400  
G10  21175920.908 3    164051.26301     -1044.593          39.800  
G18  24786036.368 3    582439.96301     -3515.231          40.000  
G21  22524768.713 4   -374897.90709      2233.875          31.900  
G23  23297580.312 3    397597.11202     -2466.526          37.400  
G24  24550110.506 4    389733.75809     -2494.819          34.100  
G27  22797853.261 2    470331.30001     -2779.161          41.800  
G28  23602650.009 3   -202018.69002      3348.642          37.600  
G32  20553304.433 4    -51380.08709       267.059          31.000  
R02  20708696.772 3   -312843.42702      1891.520          39.000  
R01  19729163.281 4    237841.19403     -1484.099          34.000  
R24  19269518.491 3    138188.30001      -888.869          40.700  
R23  22059945.623 4    673471.80709     -4079.411          30.400  
R17  21035345.828 2   -538345.89401      3181.025          43.200  
R08  23204227.632 4    573570.66309     -3542.492          31.600  
E07  23518115.134 4     14194.03809      -874.165          33.000  
E08  27053481.556 5         0.00000     -2739.350          25.400  
E13  25837687.630 4     11141.89507     -2425.522          35.000  
E26  23167372.650 3     16203.13805      -129.139          37.100  
E33  25031054.945 3    -48550.88804      2152.630          39.800  
> 2023 09 07 19 35 22.4487448  0 22
G02  23386625.858 4   -476162.43809      2822.671          35.400  
G08  22534759.591 2    155472.85301      -925.034          42.300  
G10  21176123.557 3    165097.44201     -1046.289          40.600  
G18  24786709.109 3    585956.17402     -3515.364          39.500  
G21  22524334.622 3   -377127.36209      2227.570          37.400  
G23  23298051.275 3    400064.28602     -2466.302          35.700  
G24  24550577.282 4    392229.92009     -2496.159          31.000  
G27  22798384.498 3    473113.80402     -2783.985          38.800  
G28  23602007.265 3   -205365.68202      3347.351          35.800  
G32  20553255.258 4    -51644.90609       264.325          31.300  
R02  20708337.612 3   -314731.11802      1885.628          38.400  
R01  19729432.503 4    239327.59603     -1487.401          34.200  
R24  19269684.268 3    139079.91001      -892.749          40.300  
R23  22060724.479 4    677553.17907     -4081.258          30.300  
R17  21034745.348 2   -541523.52701      3175.680          43.100  
R08  23204847.603 5         0.00000     -3547.650          27.600  
E07  23518278.817 4     15070.59908      -877.391          34.200  
E08  27053997.804 5         0.00000     -2736.900          28.900  
E13  25838149.311 3     13568.69405     -2426.223          37.000  
E19  28589825.861 5         0.00000      2867.100          26.200  
E26  23167394.236 4     16334.65306      -132.160          35.700  
E33  25030642.143 3    -50700.15904      2147.416          37.800  
> 2023 09 07 19 35 23.4487448  0 22
G02  23386076.944 4   -478984.03409      2822.011          33.000  
G08  22534936.781 3    156398.74301      -925.250          41.500  
G10  21176324.427 3    166143.37701     -1045.846          40.300  
G18  24787377.644 3    589470.05502     -3513.298          39.000  
G21  22523913.408 3   -379354.06509      2227.102          40.200  
G23  23298524.962 4    402529.58003     -2465.191          34.700  
G24  24551054.545 4    394725.98809     -2496.309          32.500  
G27  22798910.029 3    475897.85002     -2783.290          38.100  
G28  23601374.398 4   -208714.28103      3349.344          35.200  
G32  20553192.612 4    -51909.28009       264.421          30.900  
R02  20707987.159 3   -316616.05102      1885.447          37.700  
R01  19729708.007 4    240815.25003     -1487.613          34.400  
R24  19269852.453 3    139972.76901      -892.747          40.000  
R23  22061491.049 4         0.00000     -4079.618          29.700  
R17  21034155.653 3   -544698.17501      3174.875          41.100  
R08  23205562.015 5         0.00000     -3540.850          24.800  
E07  23518445.501 4     15947.74208      -877.058          34.300  
E08  27054515.831 5         0.00000     -2736.250          27.600  
E13  25838612.195 3     15993.52304     -2424.472          38.000  
E19  28589281.746 4     -1525.38009      2868.769          30.200  
E26  23167420.621 4     16466.64908      -131.631          34.200  
E33  25030232.027 4    -52846.78408      2146.979          33.800  
> 2023 09 07 19 35 24.4487448  0 22
G02  23385541.223 4   -481807.04007      2823.155          30.300  
G08  22535112.749 3    157322.71301      -923.206          41.400  
G10  21176523.185 3    167189.14102     -1046.013          39.400  
G18  24788048.273 3    592982.55402     -3511.650          37.400  
G21  22523488.897 3   -381581.48501      2228.134          39.800  
G23  23298996.536 4    404994.72109     -2465.253          35.000  
G24  24551532.123 4    397222.85903     -2497.087          35.500  
G27  22799444.267 3    478679.49902     -2780.286          37.800  
G28  23600737.046 4   -212064.73803      3351.723          34.800  
G32  20553159.038 4    -52174.41504       265.281          31.000  
R02  20707636.096 3   -318502.80402      1887.660          37.900  
R01  19729999.094 4    242302.52903     -1487.600          34.800  
R24  19270014.635 3    140864.97701      -891.916          40.400  
R23  22062239.035 5         0.00000     -4077.850          28.200  
R17  21033563.253 3   -547873.63002      3175.253          39.300  
R08  23206235.943 5         0.00000     -3542.250          25.700  
E07  23518613.093 4     16824.09209      -876.969          30.900  
E08  27055045.864 5         0.00000     -2740.650          27.100  
E13  25839074.765 3     18417.22204     -2422.988          38.200  
E19  28588735.816 5         0.00000      2872.350          28.400  
E26  23167447.005 3     16597.75905      -130.940          36.500  
E33  25029825.193 4    -54994.64708      2147.899          34.300  
> 2023 09 07 19 35 25.4487448  0 22
G02  23385007.281 5         0.00000      2821.100          27.500  
G08  22535288.141 2    158245.83301      -923.049          41.800  
G10  21176718.959 3    168236.42102     -1048.962          37.200  
G18  24788704.524 4    596493.98409     -3513.564          32.000  
G21  22523065.886 3   -383810.00809      2227.460          37.500  
G23  23299465.110 4    407461.15303     -2468.220          35.400  
G24  24552000.085 4    399721.60103     -2500.783          35.000  
G27  22799970.391 3    481458.92102     -2778.994          36.900  
G28  23600096.676 4   -215417.15703      3352.169          34.800  
G32  20553105.064 4    -52439.15904       263.643          31.700  
R02  20707272.451 3   -320390.62102      1887.748          37.100  
R01  19730270.114 4    243790.90409     -1490.175          32.200  
R24  19270185.525 3    141757.42601      -893.437          41.200  
R23  22062984.003 5         0.00000     -4076.350          26.000  
R17  21032973.575 3   -551048.93009      3174.444          36.000  
R08  23206863.121 5         0.00000     -3547.650          26.800  
E07  23518777.684 4     17702.70608      -879.500          32.700  
E08  27055559.720 4      1622.82109     -2741.450          32.300  
E13  25839534.055 3     20840.10704     -2423.724          38.900  
E19  28588190.497 5         0.00000      2876.500          25.900  
E26  23167470.075 3     16729.28004      -132.568          38.100  
E33  25029415.689 4    -57142.49609      2146.675          34.000  
> 2023 09 07 19 35 26.4487448  0 22
G02  23384463.759 4   -487449.54809      2820.352          31.200  
G08  22535467.110 2    159169.08501      -923.214          42.400  
G10  21176922.516 3    169287.12802     -1051.884          37.700  
G18  24789382.063 6         0.00000     -3516.400          22.000  
G21  22522642.282 3   -386035.71509      2225.289          38.000  
G23  23299931.275 4    409931.49903     -2471.617          34.900  
G24  24552481.258 4    402224.95403     -2505.333          34.600  
G27  22800498.033 3    484237.58902     -2778.005          37.200  
G28  23599460.214 4   -218769.02103      3352.286          33.900  
G32  20553054.703 4    -52701.81004       262.244          31.900  
R02  20706915.995 3   -322278.19202      1887.761          37.100  
R01  19730559.717 4    245283.22209     -1492.488          31.100  
R24  19270352.506 3    142651.75101      -894.742          41.500  
R23  22063812.033 5         0.00000     -4078.550          24.500  
R17  21032364.982 4   -554220.96509      3172.431          35.600  
R08  23207525.060 5         0.00000     -3553.750          27.100  
E07  23518947.055 4     18583.65807      -881.805          35.200  
E08  27056082.250 4      4366.44808     -2745.425          33.800  
E13  25839994.235 3     23264.86204     -2424.939          39.000  
E19  28587636.173 5         0.00000      2873.850          25.000  
E26  23167497.663 3     16862.95204      -134.151          38.400  
E33  25029007.965 4    -59288.12809      2144.047          35.100  
> 2023 09 07 19 35 27.4487448  0 22
G02  23383925.629 4   -490269.63509      2821.225          31.400  
G08  22535638.890 2    160091.96001      -922.041          42.700  
G10  21177118.272 3    170339.91602     -1052.760          37.500  
G18  24790059.882 5         0.00000     -3509.950          25.200  
G21  22522212.693 3   -388260.92509      2225.452          36.500  
G23  23300407.055 4    412403.83404     -2472.491          32.700  
G24  24552954.333 5         0.00000     -2507.100          28.000  
G27  22801031.958 3    487014.58502     -2775.582          38.300  
G28  23598821.361 4   -222122.08404      3354.097          31.500  
G32  20553007.640 4    -52963.81303       262.350          34.800  
R02  20706579.328 3   -324166.34402      1889.153          36.200  
R01  19730838.223 4    246776.09509     -1493.711          31.500  
R24  19270522.786 3    143546.67101      -894.411          40.500  
R23  22064509.658 5         0.00000     -4074.150          27.100  
R17  21031786.681 3   -557392.64109      3170.473          36.200  
R08  23208221.184 5         0.00000     -3554.700          28.700  
E07  23519114.944 4     19466.08807      -882.238          34.800  
E08  27056605.983 4      7112.94308     -2746.939          33.800  
E13  25840458.306 3     25689.50204     -2423.935          38.600  
E19  28587090.854 5         0.00000      2878.150          25.200  
E26  23167521.047 3     16997.35404      -133.892          39.000  
E33  25028598.757 3    -61431.44305      2145.256          37.300  
> 2023 09 07 19 35 28.4487448  0 22
G02  23383402.192 4   -493090.46809      2819.563          32.800  
G08  22535816.359 2    161013.28001      -921.300          41.600  
G10  21177320.328 3    171393.08502     -1054.302          37.700  
G18  24790718.837 4    607027.89109     -3512.976          30.800  
G21  22521786.977 4   -390486.60909      2226.538          33.500  
G23  23300875.925 4    414876.99704     -2474.431          32.900  
G24  24553436.692 5         0.00000     -2509.200          25.300  
G27  22801560.193 3    489789.18402     -2774.345          37.800  
G28  23598179.211 4   -225476.80404      3354.695          32.900  
G32  20552958.779 4    -53226.27704       261.688          33.400  
R02  20706221.372 4   -326056.19103      1889.685          34.900  
R01  19731113.727 4    248270.21904     -1495.243          31.100  
R24  19270691.878 3    144440.98401      -895.044          41.000  
R23  22065307.691 5         0.00000     -4075.300          26.400  
R17  21031191.908 4   -560562.43303      3168.963          35.800  
R08  23208890.313 5         0.00000     -3555.900          25.700  
E07  23519284.333 4     20348.59306      -883.593          36.100  
E08  27057128.233 4      9860.76507     -2749.004          34.500  
E13  25840919.393 3     28113.23404     -2424.292          39.000  
E19  28586544.627 6         0.00000      2880.000          23.800  
E26  23167546.838 3     17131.15004      -134.503          39.300  
E33  25028192.237 3    -63576.88004      2144.499          37.600  
> 2023 09 07 19 35 29.4487448  0 22
G02  23382858.967 4   -495910.92809      2821.712          33.900  
G08  22535991.140 2    161934.13001      -919.889          43.000  
G10  21177522.402 3    172448.26202     -1055.797          36.600  
G18  24791405.660 5         0.00000     -3509.550          26.700  
G21  22521367.265 4   -392713.22209      2225.699          35.400  
G23  23301336.715 4         0.00000     -2476.064          29.500  
G24  24553916.660 5         0.00000     -2513.700          25.200  
G27  22802086.631 3    492562.72002     -2772.376          37.700  
G28  23597540.952 4   -228831.81004      3355.468          32.900  
G32  20552913.810 4    -53487.65903       261.115          33.600  
R02  20705858.634 4   -327946.35903      1891.092          33.500  
R01  19731376.353 4    249765.99607     -1495.986          30.600  
R24  19270857.952 2    145336.40901      -895.490          42.000  
R23  22065987.325 5         0.00000     -4074.550          27.600  
R17  21030590.818 3   -563731.18909      3168.626          36.700  
R08  23209537.559 4    601952.94509     -3556.051          30.700  
E07  23519455.817 3     21232.80104      -884.639          38.700  
E08  27057652.874 4     12610.50507     -2750.424          34.800  
E13  25841378.072 3     30537.72504     -2424.543          38.600  
E19  28585997.214 5         0.00000      2882.050          27.600  
E26  23167573.519 3     17266.10904      -135.090          39.700  
E33  25027783.308 3    -65721.86704      2145.298          37.900  
> 2023 09 07 19 35 30.4487448  0 22
G02  23382319.651 4   -498733.09203      2822.998          35.300  
G08  22536165.922 2    162852.96901      -918.032          42.800  
G10  21177723.254 3    173504.95902     -1057.238          36.300  
G18  24792057.112 4    614057.84609     -3513.405          30.000  
G21  22520943.067 4   -394939.12603      2227.066          35.500  
G23  23301817.573 4    419829.49603     -2478.069          34.200  
G24  24554402.631 5         0.00000     -2514.850          25.400  
G27  22802609.178 3    495334.14401     -2770.806          40.300  
G28  23596900.302 4   -232187.09904      3354.952          32.800  
G32  20552856.538 4    -53748.40603       260.530          34.900  
R02  20705505.477 4   -329839.31609      1894.106          30.900  
R01  19731664.456 4         0.00000     -1496.331          29.200  
R24  19271020.745 3    146232.36601      -896.250          41.500  
R23  22066815.355 4    710169.74104     -4075.334          31.900  
R17  21030009.830 3   -566900.55902      3170.183          36.500  
R08  23210189.324 5         0.00000     -3557.100          28.900  
E07  23519621.890 3     22118.31404      -885.851          37.800  
E08  27058173.902 4     15361.81707     -2751.844          35.400  
E13  25841841.253 3     32963.03204     -2425.983          37.700  
E19  28585444.391 5         0.00000      2886.700          27.200  
E26  23167598.700 3     17401.68303      -135.832          40.700  
E33  25027372.897 3    -67867.66704      2146.597          38.000  
> 2023 09 07 19 35 31.4487448  0 21
G02  23381784.819 4   -501556.38804      2825.346          31.700  
G08  22536339.202 2    163770.99001      -916.587          42.100  
G10  21177925.920 4    174562.61603     -1056.420          35.500  
G18  24792722.052 4    617572.45509     -3513.470          33.800  
G21  22520513.460 4   -397166.42604      2229.086          33.200  
G23  23302286.443 3    422307.98802     -2477.015          38.300  
G27  22803142.806 2    498105.10701     -2769.795          42.500  
G28  23596269.232 3   -235541.42102      3355.379          36.400  
G32  20552807.974 3    -54008.31002       260.809          36.800  
R02  20705146.020 4   -331732.58709      1893.594          30.800  
R01  19731961.249 5         0.00000     -1496.950          25.600  
R24  19271191.932 3    147129.35702      -896.416          39.100  
R23  22067562.137 4    714245.25709     -4075.375          30.700  
R17  21029419.524 4   -570070.89503      3171.972          35.600  
R08  23210868.051 5         0.00000     -3554.500          27.400  
E07  23519793.967 4     23004.60808      -885.450          34.000  
E08  27058698.840 4     18113.34809     -2750.309          32.900  
E13  25842303.230 4     35389.82207     -2425.952          35.400  
E19  28584899.979 5         0.00000      2886.550          27.900  
E26  23167623.881 3     17538.00303      -135.543          40.900  
E33  25026964.282 3    -70014.47604      2148.480          37.900  
> 2023 09 07 19 35 32.4487448  0 22
G02  23381248.487 4         0.00000      2830.196          29.000  
G08  22536515.188 2    164686.12101      -918.683          42.800  
G10  21178120.473 4    175617.70404     -1059.112          33.100  
G18  24793386.679 3    621083.96709     -3515.968          37.800  
G21  22520090.746 4   -399398.66109      2228.646          35.300  
G23  23302758.925 3    424783.45102     -2479.608          39.500  
G24  24555342.482 5         0.00000     -2515.150          27.200  
G27  22803669.541 2    500873.52801     -2772.266          43.900  
G28  23595629.175 3   -238898.12802      3352.412          37.300  
G32  20552756.112 3    -54269.94601       257.089          41.000  
R02  20704777.279 4         0.00000      1892.324          29.400  
R01  19732243.646 5         0.00000     -1499.050          24.100  
R24  19271352.910 3    148025.00102      -900.342          37.400  
R23  22068338.009 4    718319.80404     -4078.671          31.600  
R17  21028821.750 4   -573244.19309      3170.179          33.300  
R08  23211542.868 5         0.00000     -3554.850          28.900  
E07  23519957.964 4     23888.92309      -888.550          32.100  
E08  27059224.981 5         0.00000     -2750.550          27.900  
E13  25842764.317 4     37814.63308     -2429.279          33.700  
E19  28584339.670 5         0.00000      2888.950          26.500  
E26  23167651.156 3     17672.37303      -138.617          41.700  
E33  25026558.059 4    -72165.44609      2147.102          36.200  
> 2023 09 07 19 35 33.4487448  0 22
G02  23380713.062 5         0.00000      2828.050          25.900  
G08  22536691.470 2    165606.45201      -917.668          42.800  
G10  21178325.530 4    176680.03703     -1061.433          35.400  
G18  24794060.920 3    624603.54009     -3519.659          39.200  
G21  22519677.036 3   -401624.45109      2227.943          38.000  
G23  23303230.500 3    427266.81202     -2483.676          39.200  
G24  24555823.951 3    419808.25709     -2517.340          36.100  
G27  22804193.867 2    503647.88501     -2771.936          43.700  
G28  23594992.120 3   -242247.19502      3349.966          37.700  
G32  20552707.548 3    -54524.07201       255.702          40.000  
R02  20704431.311 4   -335518.29509      1892.214          34.800  
R01  19732506.254 5         0.00000     -1501.300          28.400  
R24  19271523.189 3    148928.14402      -901.377          38.000  
R23  22069122.553 4    722401.50609     -4081.005          33.100  
R17  21028219.159 4   -576413.24809      3170.170          35.800  
R08  23212191.336 5         0.00000     -3560.450          28.700  
E07  23520133.042 4     24780.50208      -890.398          33.800  
E08  27059741.525 5         0.00000     -2756.800          28.400  
E13  25843228.092 4     40247.44108     -2432.368          34.400  
E19  28583804.524 6         0.00000      2884.250          23.500  
E26  23167677.244 3     17813.97803      -139.959          41.900  
E33  25026145.553 4    -74310.17308      2147.563          34.200  
> 2023 09 07 19 35 34.4487448  0 22
G02  23380174.932 3   -510047.70709      2828.660          36.000  
G08  22536865.937 2    166521.97501      -913.905          43.400  
G10  21178532.699 3    177741.73402     -1061.970          37.500  
G18  24794731.550 3    628124.79309     -3523.079          38.500  
G21  22519248.634 3   -403854.21009      2231.319          39.700  
G23  23303701.778 3    429752.05701     -2487.058          40.700  
G24  24556312.610 5         0.00000     -2520.950          27.200  
G27  22804723.307 2    506418.18401     -2769.501          43.900  
G28  23594351.453 3   -245596.54602      3347.917          36.800  
G32  20552661.079 3    -54780.50602       256.683          37.700  
R02  20704086.564 3   -337412.57302      1895.600          38.300  
R01  19732795.265 4    257250.48504     -1498.843          32.300  
R24  19271704.567 3    149828.79802      -900.455          39.200  
R23  22069863.350 4    726483.44209     -4082.816          31.500  
R17  21027635.170 3   -579584.34401      3172.804          41.300  
R08  23212861.668 4    619739.69704     -3563.077          31.600  
E07  23520300.616 3     25670.80905      -890.443          36.700  
E08  27060270.058 5         0.00000     -2757.750          28.800  
E13  25843685.584 4     42680.95109     -2435.146          32.000  
E19  28583254.109 5         0.00000      2887.550          25.200  
E26  23167702.721 3     17953.23804      -138.996          39.900  
E33  25025740.830 4    -76459.64808      2151.054          34.400  
> 2023 09 07 19 35 35.4487448  0 22
G02  23379630.799 3   -512879.26109      2835.980          36.900  
G08  22537040.422 2    167433.49701      -908.398          43.700  
G10  21178737.460 3    178803.09402     -1059.120          36.700  
G18  24795400.085 3    631649.90909     -3527.478          37.800  
G21  22518824.140 3   -406088.72009      2238.911          38.100  
G23  23304176.040 3    432240.23002     -2487.816          39.300  
G24  24556794.079 5         0.00000     -2520.950          28.400  
G27  22805249.448 2    509186.52901     -2767.081          43.600  
G28  23593718.900 3   -248943.20502      3345.327          36.800  
G32  20552612.218 4    -55038.27403       259.849          35.100  
R02  20703725.607 3   -339310.53402      1900.716          39.900  
R01  19733075.864 4    258747.44503     -1493.522          34.100  
R24  19271859.874 3    150728.24702      -897.690          39.600  
R23  22070627.512 5         0.00000     -4085.750          28.300  
R17  21027044.271 3   -582759.79701      3179.759          41.600  
R08  23213518.809 4    623302.61809     -3560.647          30.900  
E07  23520468.208 4     26560.30207      -887.270          35.400  
E08  27060788.992 5         0.00000     -2761.300          24.900  
E13  25844156.845 4     45117.07809     -2439.106          30.700  
E19  28582696.505 5         0.00000      2889.650          28.000  
E26  23167730.310 3     18091.11104      -135.786          39.100  
E33  25025329.808 3    -78613.23204      2157.861          38.300  
> 2023 09 07 19 35 36.4487448  0 22
G02  23379092.983 3   -515719.21502      2844.522          37.000  
G08  22537210.404 2    168340.43601      -905.449          42.900  
G10  21178933.217 3    179860.67102     -1055.535          38.800  
G18  24796061.134 4    635182.52509     -3538.588          30.600  
G21  22518393.922 3   -408330.59402      2246.420          38.700  
G23  23304653.321 3    434728.44602     -2487.267          36.400  
G24  24557264.449 5         0.00000     -2516.950          27.400  
G27  22805774.072 3    511955.33201     -2770.337          40.800  
G28  23593087.830 4   -252283.98509      3337.635          32.400  
G32  20552559.745 4    -55298.53303       260.446          34.800  
R02  20703376.341 3   -341212.19101      1902.535          40.700  
R01  19733354.370 3    260238.42102     -1488.018          37.300  
R24  19272032.840 4    151626.55503      -898.838          35.300  
R23  22071392.582 4    734654.50804     -4092.839          31.400  
R17  21026446.793 2   -585943.60101      3187.927          43.700  
R08  23214183.749 4    626861.09103     -3555.254          33.800  
E07  23520638.191 4     27446.57108      -884.890          32.800  
E08  27061319.025 4      1650.43409     -2751.100          29.900  
E13  25844617.932 5         0.00000     -2445.350          27.900  
E19  28582138.587 5         0.00000      2889.200          26.100  
E26  23167754.286 3     18226.52404      -134.983          39.300  
E33  25024920.897 3    -80775.27004      2165.723          40.400  
> 2023 09 07 19 35 37.4487448  0 21
G02  23378548.257 3   -518566.60802      2847.099          37.700  
G08  22537382.184 2    169246.00501      -907.797          45.200  
G10  21179133.772 3    180915.66802     -1056.985          38.800  
G18  24796751.255 3    638724.28709     -3545.225          37.100  
G21  22517970.021 3   -410579.36301      2248.281          40.400  
G23  23305124.285 3    437216.13002     -2490.925          38.700  
G24  24557748.920 5         0.00000     -2512.300          27.500  
G27  22806301.121 3    514728.59201     -2777.772          40.900  
G28  23592479.551 5         0.00000      3324.450          26.700  
G32  20552513.572 3    -55557.37602       255.302          37.300  
R02  20703021.089 2   -343114.10101      1899.184          43.800  
R01  19733618.496 3    261725.23802     -1488.124          36.000  
R24  19272194.133 3    152527.25102      -904.605          36.900  
R23  22072163.044 4    738752.52109     -4104.432          30.200  
R17  21025847.203 2   -589134.02801      3190.219          45.300  
R08  23214848.690 4    630413.82509     -3553.867          32.300  
E07  23520802.467 4     28331.69908      -887.826          33.500  
E08  27061836.162 5         0.00000     -2751.150          27.600  
E13  25845085.004 5         0.00000     -2452.800          25.900  
E26  23167781.875 3     18362.60904      -139.182          40.400  
E33  25024505.093 3    -82943.35204      2167.929          38.900  
> 2023 09 07 19 35 38.4487448  0 20
G02  23378009.831 3   -521416.86002      2853.388          39.500  
G08  22537554.872 2    170153.15101      -906.042          45.800  
G10  21179335.846 3    181972.18802     -1055.521          36.700  
G18  24797421.884 4    642273.48509     -3551.801          34.500  
G21  22517536.523 2   -412830.11401      2253.539          42.700  
G23  23305599.454 3    439707.72001     -2491.499          40.200  
G27  22806834.138 2    517508.06301     -2780.523          41.800  
G28  23591803.215 5         0.00000      3321.950          25.500  
G32  20552464.118 3    -55811.98202       254.407          37.600  
R02  20702663.429 2   -345013.36501      1899.892          42.400  
R01  19733914.086 4    263211.85503     -1484.883          35.500  
R24  19272364.115 4    153433.04503      -906.405          34.000  
R23  22072920.924 4    742861.12909     -4111.711          30.100  
R17  21025257.508 2   -592326.92001      3195.820          42.700  
R08  23215523.524 4    633966.52803     -3550.510          33.600  
E07  23520969.466 4     29218.94409      -887.192          29.500  
E08  27062361.710 5         0.00000     -2746.750          24.700  
E13  25845548.482 5         0.00000     -2459.400          29.200  
E26  23167806.742 3     18502.45104      -139.909          40.100  
E33  25024093.774 3    -85113.88504      2173.172          39.300  
> 2023 09 07 19 35 39.4487448  0 20
G02  23377465.105 3   -524274.01402      2860.674          38.800  
G08  22537729.950 2    171057.65001      -902.972          44.600  
G10  21179531.602 4    183026.39603     -1053.083          33.600  
G18  24798105.113 4    645827.22309     -3556.064          31.700  
G21  22517110.511 3   -415087.15501      2260.107          40.300  
G23  23306073.123 3    442199.01802     -2491.272          39.300  
G27  22807358.778 2    520289.51401     -2782.036          43.200  
G28  23591185.949 4         0.00000      3311.300          34.000  
G32  20552413.442 3    -56066.38702       254.343          38.300  
R02  20702310.586 3   -346914.25801      1901.901          40.800  
R01  19734189.607 3    264694.57002     -1480.896          38.700  
R24  19272527.205 5         0.00000      -908.800          27.000  
R23  22073724.978 5         0.00000     -4116.900          27.900  
R17  21024663.014 2   -595526.39001      3202.480          44.600  
R08  23216241.531 5         0.00000     -3545.350          25.000  
E07  23521142.432 4     30105.40609      -885.703          30.500  
E08  27062876.754 6         0.00000     -2741.450          22.200  
E13  25846023.058 4      3938.00109     -2464.707          33.700  
E26  23167832.533 3     18642.14404      -139.565          40.000  
E33  25023678.563 3    -87290.50803      2179.623          42.200  
> 2023 09 07 19 35 40.4487448  0 22
G02  23376925.474 3   -527137.33709      2866.692          35.600  
G08  22537898.135 2    171959.91801      -900.612          43.200  
G10  21179750.149 5         0.00000     -1054.700          24.300  
G18  24798780.558 4    649387.89209     -3562.769          34.600  
G21  22516675.826 4   -417349.57303      2265.309          35.200  
G23  23306546.809 3    444691.41102     -2492.555          36.600  
G24  24559157.030 6         0.00000     -2501.850          23.200  
G27  22807889.108 3    523073.16601     -2783.953          40.300  
G28  23590550.988 3   -265605.13709      3307.921          39.400  
G32  20552366.676 3    -56319.70202       253.450          39.300  
R02  20701958.022 3   -348816.38702      1903.265          39.700  
R01  19734458.812 3    266174.53901     -1478.173          40.100  
R24  19272707.082 4    155247.90504      -908.854          31.900  
R23  22074493.939 5         0.00000     -4122.500          27.500  
R17  21024059.236 2   -598731.16601      3207.612          47.200  
R08  23216850.107 5         0.00000     -3544.250          27.100  
E07  23521311.822 4     30992.16608      -885.940          34.000  
E08  27063414.883 5         0.00000     -2738.050          27.800  
E13  25846489.834 4      6406.66506     -2470.303          35.900  
E19  28579957.292 5         0.00000      2875.150          28.500  
E26  23167859.214 3     18782.62004      -140.257          38.500  
E33  25023263.335 3    -89472.45904      2184.846          40.300  
> 2023 09 07 19 35 41.4487448  0 21
G02  23376374.466 3   -530006.76409      2868.527          37.400  
G08  22538069.304 2    172858.87301      -900.483          44.900  
G10  21179961.209 5         0.00000     -1058.200          25.400  
G18  24799458.988 3    652951.99809     -3569.029          36.500  
G21  22516247.109 3   -419617.26102      2266.534          38.200  
G23  23307026.777 4    447184.23203     -2496.259          35.100  
G27  22808422.753 3    525856.74001     -2785.934          41.500  
G28  23589926.828 3   -268911.67409      3302.715          41.400  
G32  20552319.613 2    -56573.07301       250.386          43.100  
R02  20701589.578 3   -350720.91102      1902.782          39.300  
R01  19734736.427 3    267651.71401     -1479.511          41.600  
R24  19272875.267 4    156157.22503      -912.378          35.300  
R23  22075231.735 5         0.00000     -4130.450          26.700  
R17  21023462.352 2   -601941.11301      3208.619          46.600  
R08  23217528.834 6         0.00000     -3536.350          22.800  
E07  23521479.099 4     31877.84406      -888.539          35.800  
E08  27063924.517 5         0.00000     -2744.400          24.600  
E13  25846962.910 4      8877.94409     -2475.910          31.000  
E19  28579407.785 4     -4423.17409      2873.684          31.400  
E26  23167888.287 3     18922.84904      -142.911          38.800  
E33  25022847.532 3    -91659.64704      2186.029          39.800  
> 2023 09 07 19 35 42.4487448  0 21
G02  23375827.943 3   -532873.46402      2866.358          38.700  
G08  22538242.288 2    173761.54901      -903.298          44.800  
G10  21180134.786 4    186186.00104     -1060.228          30.900  
G18  24800134.119 3    656525.90201     -3576.512          39.700  
G21  22515816.019 3   -421881.78202      2264.012          39.400  
G23  23307509.433 4    449684.87003     -2503.277          34.300  
G27  22808955.177 3    528645.58401     -2789.898          41.200  
G28  23589301.151 3   -272209.92001      3295.964          40.400  
G32  20552272.846 2    -56820.09601       245.094          43.800  
R02  20701228.324 3   -352621.18502      1899.478          39.000  
R01  19735016.433 3    269134.19801     -1484.049          41.700  
R24  19273046.436 4    157073.21003      -917.954          34.200  
R23  22076002.790 4    759354.42107     -4135.691          30.300  
R17  21022859.167 2   -605147.47601      3205.597          45.300  
R08  23218194.071 4    648146.75007     -3550.738          30.500  
E07  23521651.194 4     32769.92506      -894.201          36.100  
E08  27064454.253 5         0.00000     -2748.350          29.000  
E13  25847437.172 4     11359.30209     -2483.310          29.800  
E19  28578863.355 5         0.00000      2869.600          29.200  
E26  23167915.282 3     19069.33104      -148.338          39.600  
E33  25022430.227 3    -93843.67704      2183.428          39.000  
> 2023 09 07 19 35 43.4487448  0 22
G02  23375283.514 3   -535739.84002      2866.144          38.000  
G08  22538414.661 2    174665.13601      -904.104          44.400  
G10  21180337.139 4    187248.19803     -1064.019          34.000  
G18  24800811.938 3    660105.17102     -3582.273          38.400  
G21  22515383.410 3   -424145.61501      2263.368          41.300  
G23  23307970.224 4    452190.79803     -2508.414          34.100  
G27  22809483.412 3    531436.45301     -2792.024          41.100  
G28  23588670.692 3   -275503.45501      3291.005          40.700  
G31  25601193.956 6         0.00000      3563.100          21.700  
G32  20552227.284 2    -57063.53401       241.685          43.900  
R02  20700879.668 3   -354520.15902      1898.229          39.200  
R01  19735293.735 3    270619.60401     -1486.775          41.700  
R24  19273219.124 4    157992.90404      -921.584          31.600  
R23  22076775.660 4    763492.68207     -4140.737          30.300  
R17  21022260.485 2   -608352.61701      3204.530          44.100  
R08  23218845.522 5         0.00000     -3553.150          25.400  
E07  23521819.972 3     33665.92605      -897.722          36.500  
E08  27064961.514 6         0.00000     -2752.700          23.400  
E13  25847902.150 5         0.00000     -2491.350          26.600  
E19  28578312.626 5         0.00000      2866.200          28.200  
E26  23167944.947 3     19219.32304      -151.665          40.000  
E33  25022015.313 3    -96026.84504      2182.741          38.700  
> 2023 09 07 19 35 44.4487448  0 20
G02  23374735.804 3   -538606.28502      2867.857          36.700  
G08  22538585.551 2    175569.42001      -903.526          44.300  
G10  21180539.806 3    188313.52602     -1064.786          35.600  
G18  24801495.167 3    663689.80502     -3585.149          37.100  
G21  22514956.212 2   -426409.16301      2264.764          41.600  
G23  23308451.082 4    454701.12803     -2510.299          34.400  
G27  22810016.447 3    534229.32401     -2792.634          40.600  
G28  23588044.718 3   -278792.42501      3288.491          40.200  
G32  20552179.610 2    -57303.93001       240.573          44.100  
R02  20700528.011 3   -356417.99802      1898.497          38.700  
R01  19735568.035 3    272107.18501     -1486.873          41.300  
R24  19273401.391 4    158915.92004      -922.995          31.100  
R23  22077555.720 4    767635.57504     -4143.382          31.300  
R17  21021661.192 2   -611557.02301      3205.484          43.400  
R08  23219518.560 5         0.00000     -3553.950          25.700  
E07  23521991.159 3     34564.96805      -898.770          36.700  
E13  25848387.528 5         0.00000     -2493.850          26.800  
E19  28577771.513 5         0.00000      2868.500          24.800  
E26  23167970.739 3     19372.27704      -152.703          39.700  
E33  25021600.993 3    -98209.78204      2184.054          38.200  
> 2023 09 07 19 35 45.4487448  0 21
G02  23374191.078 3   -541475.03702      2868.870          35.600  
G08  22538758.832 2    176472.68601      -903.605          43.900  
G10  21180739.768 3    189378.21002     -1065.763          35.900  
G18  24802184.101 3    667275.40202     -3587.841          37.100  
G21  22514525.401 2   -428674.68501      2265.514          41.800  
G23  23308929.549 4    457211.41703     -2511.841          34.100  
G27  22810545.572 3    537022.15101     -2793.689          39.800  
G28  23587417.853 3   -282080.26202      3285.964          39.400  
G31  25599824.201 4   -667742.12509      3554.388          31.500  
G32  20552134.640 2    -57544.35001       239.206          44.100  
R02  20700164.366 3   -358316.67902      1898.236          38.300  
R01  19735849.856 3    273593.66101     -1487.233          40.800  
R24  19273555.494 4    159839.30607      -924.756          30.900  
R23  22078351.380 4    771779.80607     -4146.081          30.100  
R17  21021061.010 2   -614763.24401      3205.951          43.100  
R08  23220130.138 5         0.00000     -3554.100          28.400  
E07  23522163.532 3     35463.61005      -899.798          37.100  
E13  25848849.505 6         0.00000     -2493.750          22.900  
E19  28577224.989 4     -1533.85609      2867.804          30.700  
E26  23168000.718 3     19524.99104      -153.836          39.700  
E33  25021184.578 3   -100394.67905      2184.873          36.900  
> 2023 09 07 19 35 46.4487448  0 22
G02  23373648.446 3   -544345.04702      2871.606          36.000  
G08  22538927.017 2    177375.34201      -901.107          43.100  
G10  21180942.732 3    190445.01402     -1067.447          36.800  
G18  24802864.625 3    670865.56102     -3592.223          38.900  
G21  22514093.700 3   -430941.13201      2267.924          41.500  
G23  23309405.329 4    459725.29504     -2515.754          32.200  
G27  22811078.013 3    539815.68601     -2792.759          39.800  
G28  23586793.397 3   -285364.61702      3283.091          38.300  
G31  25599141.269 4         0.00000      3554.416          28.600  
G32  20552088.170 2    -57782.90401       238.405          44.300  
R02  20699811.820 3   -360215.63202      1900.256          37.000  
R01  19736125.360 3    275081.21901     -1487.415          40.300  
R24  19273750.954 4    160764.76403      -925.631          33.900  
R23  22079119.137 4    775927.52809     -4148.891          30.200  
R17  21020465.329 2   -617969.85501      3207.777          43.900  
R08  23220835.842 4         0.00000     -3558.956          29.100  
E07  23522330.810 3     36364.29605      -901.065          36.900  
E08  27066558.209 6         0.00000     -2757.000          22.000  
E13  25849334.865 5         0.00000     -2494.000          26.400  
E19  28576683.858 4     -4401.65009      2869.366          31.600  
E26  23168030.401 3     19679.54704      -154.635          40.100  
E33  25020765.476 4   -102580.49307      2187.120          35.300  
> 2023 09 07 19 35 47.4487448  0 21
G02  23373099.828 3   -547218.21302      2874.614          36.900  
G08  22539099.391 2    178275.19501      -899.001          42.500  
G10  21181149.290 3    191513.41002     -1068.502          36.100  
G18  24803543.944 3    674460.64602     -3597.316          38.400  
G21  22513656.903 3   -433210.47601      2270.631          39.600  
G23  23309888.596 5         0.00000     -2519.550          27.200  
G27  22811608.046 3    542608.21802     -2792.545          39.200  
G28  23586168.924 3   -288645.55402      3279.252          36.000  
G31  25598479.627 4   -674849.40209      3548.360          29.600  
G32  20552043.812 2    -58020.96401       238.012          43.600  
R02  20699449.064 3   -362116.92802      1901.999          36.000  
R01  19736392.767 3    276568.48602     -1486.768          39.200  
R24  19273920.640 4    161690.81103      -926.255          35.900  
R23  22079859.323 5         0.00000     -4154.400          25.000  
R17  21019866.944 2   -621178.69301      3209.956          44.300  
R08  23221497.188 6         0.00000     -3557.000          22.900  
E07  23522504.701 4     37266.04106      -901.865          35.700  
E13  25849810.035 6         0.00000     -2504.750          23.700  
E19  28576131.942 4     -7271.81609      2869.471          30.000  
E26  23168060.066 3     19834.50304      -154.979          39.700  
E33  25020349.969 4   -104769.14306      2189.938          36.400  
> 2023 09 07 19 35 48.4487448  0 22
G02  23372550.914 3   -550093.60502      2875.875          39.500  
G08  22539271.170 2    179174.76801      -901.144          42.300  
G10  21181346.844 4    192581.69304     -1067.854          33.100  
G18  24804230.471 4    678060.32303     -3602.523          33.900  
G21  22513229.111 3   -435481.86102      2271.669          38.600  
G23  23310357.762 5         0.00000     -2520.800          28.500  
G27  22812142.878 3    545402.54502     -2797.338          38.300  
G28  23585544.154 4   -291922.29803      3273.468          34.500  
G31  25597800.307 6         0.00000      3535.550          23.000  
G32  20551999.733 2    -58258.22501       235.955          43.900  
R02  20699093.516 4   -364018.18304      1899.515          32.500  
R01  19736674.274 3    278054.80401     -1485.952          40.500  
R24  19274087.917 4    162618.27603      -929.380          35.700  
R23  22080651.668 6         0.00000     -4161.950          23.800  
R17  21019265.260 2   -624389.44601      3211.274          43.200  
R08  23222172.912 5         0.00000     -3560.100          26.700  
E07  23522674.980 4     38168.00907      -902.276          34.800  
E08  27067594.577 6         0.00000     -2756.950          21.500  
E13  25850279.219 5         0.00000     -2506.850          27.500  
E19  28575588.717 5         0.00000      2865.800          25.600  
E26  23168090.657 3     19990.12204      -156.627          40.100  
E33  25019938.039 3   -106959.75704      2190.977          40.100  
> 2023 09 07 19 35 49.4487448  0 21
G02  23372004.094 2   -552970.39301      2877.859          41.600  
G08  22539445.359 3    180077.57101      -903.999          41.400  
G10  21181546.509 4    193648.25909     -1065.968          32.600  
G18  24804919.109 4    681665.32304     -3606.747          32.300  
G21  22512799.208 2   -437754.05201      2273.052          41.900  
G23  23310842.529 6         0.00000     -2523.150          22.400  
G27  22812678.896 4    548203.27803     -2803.628          35.100  
G28  23584919.087 4   -295192.39003      3267.334          34.400  
G31  25597124.862 4         0.00000      3538.830          29.500  
G32  20551953.874 2    -58493.08201       234.201          43.900  
R02  20698737.654 5         0.00000      1897.700          28.100  
R01  19736959.689 3    279539.90101     -1483.774          41.000  
R24  19274268.388 4    163549.44503      -932.497          35.100  
R23  22081413.753 5         0.00000     -4164.000          25.700  
R17  21018663.280 2   -627601.69301      3213.453          45.500  
R08  23222850.749 5         0.00000     -3554.650          24.800  
E07  23522849.762 4     39070.17506      -901.618          36.000  
E08  27068122.516 5         0.00000     -2750.750          27.000  
E13  25850770.268 5         0.00000     -2511.850          28.700  
E26  23168123.027 3     20147.62503      -157.873          40.600  
E33  25019517.437 3   -109151.46404      2192.775          38.000  
> 2023 09 07 19 35 50.4487448  0 21
G02  23371455.459 2   -555848.41901      2879.050          42.800  
G08  22539618.936 2    180984.20801      -908.237          42.200  
G10  21181760.553 3    194713.63209     -1063.760          36.700  
G18  24805604.431 4    685274.83003     -3611.580          34.700  
G21  22512363.912 3   -440027.12602      2273.870          39.400  
G23  23311328.797 5         0.00000     -2513.750          27.400  
G27  22813209.226 4    551011.19103     -2811.142          35.200  
G28  23584303.321 3   -298455.66702      3260.460          37.200  
G31  25596437.742 4   -685470.29409      3532.711          33.400  
G32  20551910.091 2    -58725.63301       231.811          44.000  
R02  20698395.298 4         0.00000      1892.050          34.600  
R01  19737238.195 3    281023.23002     -1482.031          38.900  
R24  19274433.886 3    164484.36502      -936.501          37.300  
R23  22082213.288 5         0.00000     -4175.650          28.900  
R17  21018059.502 2   -630815.55101      3215.031          43.900  
R08  23223485.116 5         0.00000     -3548.000          26.500  
E07  23523022.135 4     39972.15506      -901.422          36.400  
E08  27068659.145 6         0.00000     -2746.950          23.800  
E13  25851239.749 4      6554.25109     -2515.403          31.700  
E26  23168150.616 3     20306.83904      -159.686          40.300  
E33  25019100.132 3   -111344.46504      2193.797          38.700  
> 2023 09 07 19 35 51.4487448  0 21
G02  23370907.453 3   -558729.39901      2884.436          40.000  
G08  22539791.309 2    181893.01801      -907.380          43.400  
G10  21181965.611 3    195775.28409     -1058.729          39.000  
G18  24806296.943 3    688887.69602     -3612.723          36.100  
G21  22511927.412 3   -442302.69202      2278.725          36.400  
G23  23311807.561 6         0.00000     -2515.100          23.500  
G27  22813748.559 3    553824.42402     -2813.315          38.300  
G28  23583681.552 3   -301713.95102      3257.850          36.600  
G31  25595787.791 5         0.00000      3529.200          27.900  
G32  20551865.436 2    -58957.44301       233.465          43.300  
R02  20698031.950 3   -369683.95909      1892.127          36.700  
R01  19737517.887 3    282503.37301     -1476.836          40.800  
R24  19274613.152 3    165421.44602      -935.990          37.600  
R23  22083031.738 5         0.00000     -4176.450          25.600  
R17  21017459.320 2   -634032.62901      3220.336          42.800  
R08  23224118.873 5         0.00000     -3544.550          24.500  
E07  23523186.725 5         0.00000      -901.700          29.200  
E08  27069166.091 4         0.00000     -2738.437          31.800  
E13  25851720.607 5         0.00000     -2517.800          29.300  
E26  23168182.096 3     20466.24604      -157.714          39.700  
E33  25018684.608 3   -113540.07803      2198.818          40.500  
> 2023 09 07 19 35 52.4487448  0 22
G02  23370358.225 3   -561619.59601      2890.184          41.200  
G08  22539961.902 2    182796.49801      -904.987          44.200  
G10  21182162.275 3    196829.03609     -1054.503          39.200  
G18  24806981.079 3    692498.81002     -3614.918          37.000  
G21  22511493.006 3   -444587.03502      2284.200          36.300  
G23  23312271.336 5         0.00000     -2508.450          27.800  
G27  22814284.595 3    556635.48902     -2814.021          36.000  
G28  23583062.471 3   -304973.07002      3255.231          36.500  
G31  25595093.482 4         0.00000      3526.781          28.700  
G32  20551821.060 2    -59194.35401       234.793          42.900  
R02  20697687.186 3   -371579.80502      1894.098          39.100  
R01  19737787.109 3    283974.93901     -1472.283          41.000  
R24  19274791.231 3    166354.42102      -935.545          38.800  
R23  22083777.019 5         0.00000     -4177.450          28.500  
R17  21016848.632 3   -637258.89201      3226.195          41.900  
R08  23224803.288 4    683666.46304     -3534.251          31.900  
E07  23523371.401 5         0.00000      -898.000          25.500  
E08  27069687.137 3         0.00000     -2733.965          38.600  
E13  25852195.183 4     11585.04608     -2517.862          33.600  
E19  28573431.120 6         0.00000      2851.950          20.200  
E26  23168210.575 3     20620.18904      -155.647          40.200  
E33  25018265.802 3   -115744.57404      2204.427          39.400  
> 2023 09 07 19 35 53.4487448  0 21
G02  23369806.902 3   -564508.40501      2891.277          41.400  
G08  22540132.478 2    183705.01101      -908.077          43.000  
G10  21182358.642 3    197886.23409     -1055.832          37.000  
G18  24807673.591 4         0.00000     -3623.108          29.200  
G21  22511062.806 3   -446869.43502      2284.562          36.800  
G23  23312767.794 4    477335.11409     -2510.691          34.700  
G27  22814817.926 3    559454.95802     -2820.611          36.800  
G28  23582439.498 4         0.00000      3246.800          29.000  
G31  25594416.850 5         0.00000      3516.650          26.600  
G32  20551775.794 2    -59425.35301       230.980          42.700  
R02  20697322.633 3   -373470.01301      1890.401          40.800  
R01  19738065.911 3    285449.36001     -1472.639          41.900  
R24  19274966.309 3    167294.37702      -940.477          39.300  
R23  22084584.057 4    805100.81109     -4186.784          32.300  
R17  21016255.045 3   -640483.32401      3226.791          41.500  
R08  23225493.724 5         0.00000     -3535.350          26.700  
E07  23523534.177 4       583.56708      -896.914          33.800  
E08  27070205.775 3      7139.48905     -2733.494          37.200  
E13  25852673.354 4     14108.69306     -2525.457          35.800  
E26  23168239.647 3     20779.67504      -159.338          39.800  
E33  25017846.090 4   -117947.44707      2205.029          35.200  
> 2023 09 07 19 35 54.4487448  0 20
G02  23369257.692 3   -567402.07601      2895.411          40.800  
G08  22540309.964 3    184612.67301      -907.749          41.400  
G10  21182564.904 4    198940.08709     -1053.665          30.900  
G18  24808371.512 5         0.00000     -3621.350          27.000  
G21  22510621.804 3   -449156.10802      2288.067          38.100  
G23  23313241.166 4    479844.77009     -2509.791          29.900  
G27  22815353.055 3    562276.80001     -2823.385          40.400  
G32  20551733.216 2    -59656.27001       230.428          43.200  
R02  20696977.573 3   -375360.49701      1890.159          40.700  
R01  19738336.337 2    286920.36501     -1470.008          42.200  
R24  19275143.795 3    168235.48101      -942.038          40.000  
R23  22085343.124 4    809290.60604     -4191.866          32.100  
R17  21015650.954 3   -643712.43601      3230.562          40.800  
R08  23226138.579 4    690734.57204     -3529.655          31.600  
E07  23523704.770 4      1479.88006      -896.050          35.500  
E08  27070723.820 4      9871.04608     -2730.118          33.400  
E13  25853152.729 4     16635.94607     -2529.142          34.600  
E19  28572339.277 6         0.00000      2837.350          21.100  
E26  23168270.237 3     20938.92004      -159.538          40.200  
E33  25017420.985 4   -120155.20109      2208.822          31.400  
> 2023 09 07 19 35 55.4487448  0 21
G02  23368707.277 3   -570299.80101      2900.728          41.000  
G08  22540479.633 3    185519.27501      -904.595          40.800  
G10  21182766.367 4         0.00000     -1051.921          29.100  
G18  24809051.146 4         0.00000     -3626.313          28.700  
G21  22510193.105 3   -451446.38902      2293.003          38.700  
G23  23313715.446 5         0.00000     -2508.900          28.100  
G27  22815891.778 3    565100.29002     -2822.503          39.500  
G28  23581211.858 5         0.00000      3241.750          28.100  
G32  20551689.747 2    -59887.02101       231.705          43.000  
R02  20696618.726 3   -377251.55902      1892.835          39.700  
R01  19738614.529 2    288388.95601     -1466.687          42.400  
R24  19275304.774 3    169177.51601      -941.310          40.300  
R23  22086127.685 4    813483.83904     -4193.581          32.600  
R17  21015048.973 3   -646945.21201      3235.382          41.600  
R08  23226772.039 4         0.00000     -3527.905          29.500  
E07  23523874.753 4      2375.17507      -894.108          35.400  
E08  27071241.550 5         0.00000     -2728.950          28.100  
E13  25853637.496 4     19166.20407     -2530.642          35.300  
E19  28571830.516 6         0.00000      2838.100          22.900  
E26  23168301.106 3     21098.07904      -158.147          40.100  
E33  25017001.272 4   -122365.69009      2213.531          30.800  
> 2023 09 07 19 35 56.4487448  0 21
G02  23368152.360 3   -573203.02102      2904.321          39.500  
G08  22540650.820 3    186422.62801      -903.757          40.400  
G10  21182967.533 3    201044.85909     -1051.534          37.900  
G18  24809752.348 4         0.00000     -3632.463          29.200  
G21  22509754.214 3   -453741.55501      2296.089          40.200  
G23  23314192.413 4    484865.28709     -2511.514          32.800  
G27  22816435.300 3    567923.06702     -2824.846          35.600  
G28  23580595.778 4     -4656.98309      3234.957          29.900  
G32  20551644.481 2    -60118.73201       230.343          43.200  
R02  20696260.770 3   -379145.36302      1893.078          38.400  
R01  19738888.253 2    289854.44001     -1465.376          42.200  
R24  19275487.355 3    170119.06001      -943.362          40.400  
R23  22086918.529 4         0.00000     -4199.543          29.200  
R17  21014442.194 3   -650182.80601      3238.447          41.300  
R08  23227463.051 6         0.00000     -3530.150          22.900  
E07  23524045.625 4      3268.33809      -894.576          31.700  
E08  27071759.892 6         0.00000     -2731.200          23.200  
E13  25854118.354 4     21698.64009     -2535.700          31.500  
E19  28571296.592 6         0.00000      2837.000          22.100  
E26  23168331.993 3     21256.03204      -159.180          39.900  
E33  25016583.060 4   -124582.13009      2216.732          32.600  
> 2023 09 07 19 35 57.4487448  0 20
G02  23367598.333 3   -576108.63402      2906.733          38.300  
G08  22540820.506 3    187327.39902      -905.987          37.700  
G10  21183164.493 2    202096.33109     -1050.207          41.700  
G18  24810439.485 4         0.00000     -3639.165          29.200  
G21  22509319.809 3   -456038.51801      2297.949          40.500  
G23  23314667.879 3    487377.14209     -2510.831          36.800  
G27  22816966.833 4    570750.88104     -2830.487          33.100  
G28  23579986.312 4     -7888.22209      3228.437          34.400  
G32  20551601.606 2    -60347.76701       228.295          43.300  
R02  20695915.116 3   -381037.08502      1890.377          39.300  
R01  19739168.259 3    291319.28801     -1463.618          41.700  
R24  19275663.026 3    171064.41802      -946.820          39.500  
R23  22087707.890 6         0.00000     -4209.950          22.600  
R17  21013835.415 3   -653422.37802      3241.146          38.300  
R08  23228100.420 4    701317.27209     -3521.528          34.500  
E07  23524214.421 5         0.00000      -895.900          26.800  
E08  27072283.328 4         0.00000     -2722.786          32.200  
E13  25854616.907 6         0.00000     -2544.250          23.500  
E26  23168361.973 3     21416.40603      -160.849          40.700  
E33  25016162.458 3   -126799.27705      2218.926          36.600  
> 2023 09 07 19 35 58.4487448  0 22
G02  23367047.622 3   -579017.51302      2911.222          39.300  
G08  22540998.585 3    188234.43802      -907.460          37.900  
G10  21183360.861 3    203143.75909     -1044.467          40.800  
G18  24811122.714 4    714274.16109     -3640.639          31.900  
G21  22508881.215 3   -458338.40101      2302.001          39.700  
G23  23315142.455 4    489885.01309     -2504.436          33.100  
G27  22817508.261 4    573584.19603     -2835.535          35.300  
G28  23579368.138 4    -11114.36909      3224.564          34.500  
G31  25591093.037 5         0.00000      3489.500          24.700  
G32  20551558.748 2    -60576.06801       228.738          43.200  
R02  20695559.550 3   -382926.32002      1888.587          39.700  
R01  19739435.369 3    292780.41701     -1458.418          41.500  
R24  19275849.796 3    172012.00402      -947.928          39.200  
R23  22088460.378 4    826081.90904     -4209.965          31.400  
R17  21013235.233 3   -656665.90902      3245.807          39.400  
R08  23228737.178 5         0.00000     -3511.600          28.600  
E07  23524387.388 4       574.59908      -890.983          33.500  
E08  27072798.075 4      4382.22607     -2713.807          34.500  
E13  25855085.183 5         0.00000     -2543.400          26.800  
E19  28570195.762 6         0.00000      2822.650          22.200  
E26  23168393.750 3     21576.97004      -159.811          40.100  
E33  25015738.854 3   -129020.13704      2223.150          39.800  
> 2023 09 07 19 35 59.4487448  0 21
G02  23366490.297 3   -581930.74402      2915.004          38.300  
G08  22541166.770 3    189142.52901      -908.881          40.800  
G10  21183565.307 3    204185.70709     -1039.597          39.700  
G18  24811815.819 4    717915.33209     -3641.741          32.000  
G21  22508434.821 3   -460642.09502      2305.211          38.900  
G23  23315632.021 5         0.00000     -2498.200          27.700  
G27  22818046.077 3    576422.04502     -2839.972          39.200  
G28  23578756.857 4    -14337.29609      3221.401          31.700  
G31  25590437.397 6         0.00000      3491.500          23.000  
G32  20551513.168 2    -60804.91901       229.034          42.200  
R02  20695206.707 3   -384813.93002      1886.786          39.300  
R01  19739719.581 3    294236.58601     -1453.999          40.800  
R24  19276019.482 3    172960.58202      -949.126          39.600  
R23  22089244.626 5         0.00000     -4214.250          25.500  
R17  21012616.762 3   -659913.87801      3249.843          40.100  
R08  23229409.605 5         0.00000     -3506.250          27.100  
E07  23524556.184 4      1463.78007      -887.916          35.100  
E08  27073311.617 4      7091.78007     -2705.919          34.800  
E13  25855572.341 4      1579.58607     -2543.254          34.800  
E26  23168424.619 3     21736.34804      -158.906          39.100  
E33  25015315.250 3   -131245.15404      2226.629          39.700  
> 2023 09 07 19 36 00.4487448  0 20
G02  23365936.584 3   -584847.82302      2919.027          38.800  
G08  22541343.035 3    190052.13901      -909.886          41.400  
G10  21183756.283 3    205222.31802     -1033.928          39.500  
G18  24812519.743 5         0.00000     -3641.250          26.300  
G21  22508002.823 2   -462949.12901      2308.774          41.600  
G23  23316097.889 5         0.00000     -2494.250          27.400  
G27  22818584.207 3    579264.28601     -2843.742          39.600  
G28  23578151.578 4    -17556.80509      3219.286          30.500  
G32  20551467.309 2    -61034.41601       230.211          42.300  
R02  20694837.059 3   -386699.80202      1885.542          36.900  
R01  19739982.783 3    295688.01702     -1449.010          39.300  
R24  19276207.752 3    173910.06002      -949.501          39.700  
R23  22090059.167 4    834507.02207     -4216.719          30.100  
R17  21012013.875 3   -663166.10202      3254.357          39.700  
R08  23230048.772 4    711841.98303     -3495.995          33.000  
E07  23524720.757 4      2349.70107      -883.977          34.500  
E08  27073829.069 4      9792.77809     -2697.854          33.800  
E13  25856054.107 4      4122.90906     -2543.555          35.900  
E26  23168452.208 3     21894.56404      -157.259          39.200  
E33  25014890.738 3   -133473.90704      2230.654          39.500  
> 2023 09 07 19 36 01.4487448  0 20
G02  23365384.668 3   -587765.43501      2917.041          40.400  
G08  22541517.223 2    190965.60801      -916.152          43.000  
G10  21183953.836 2    206256.82101     -1034.373          41.900  
G18  24813211.958 4    725202.48509     -3647.254          31.500  
G21  22507563.619 2   -465256.35001      2306.442          44.200  
G23  23316578.154 4    497376.68709     -2493.118          33.600  
G27  22819126.542 2    582112.79001     -2852.183          42.400  
G28  23577528.606 4    -20771.77303      3211.896          33.700  
G32  20551426.231 2    -61262.05601       226.022          43.200  
R02  20694497.687 4   -388581.55709      1879.217          34.300  
R01  19740244.518 3    297138.01002     -1449.998          37.500  
R24  19276378.328 3    174862.89102      -955.135          39.900  
R23  22090851.215 4         0.00000     -4223.856          29.600  
R17  21011409.504 3   -666419.20001      3252.635          40.400  
R08  23230701.706 4    715335.83009     -3495.232          32.200  
E07  23524888.942 4      3234.92808      -885.644          33.000  
E08  27074337.516 4     12489.92109     -2695.577          32.800  
E13  25856536.186 4      6669.62208     -2548.652          32.900  
E26  23168483.077 3     22054.13903      -160.941          41.000  
E33  25014464.133 3   -135703.18904      2228.687          39.700  
> 2023 09 07 19 36 02.4487448  0 20
G02  23364826.157 3   -590684.55101      2920.899          41.300  
G08  22541692.004 2    191882.02801      -917.034          42.100  
G10  21184150.204 3    207288.10901     -1028.368          41.100  
G18  24813902.987 4    728849.00609     -3646.055          35.100  
G21  22507121.727 2   -467564.68001      2309.869          45.500  
G23  23317053.620 4    499866.24609     -2486.156          32.600  
G27  22819671.861 3    584966.41501     -2855.277          41.300  
G28  23576910.135 4    -23983.32704      3210.901          32.500  
G32  20551380.058 2    -61489.02001       227.684          43.500  
R02  20694136.136 4         0.00000      1880.000          31.700  
R01  19740517.021 4    298585.34803     -1444.871          34.800  
R24  19276553.110 3    175817.80402      -954.916          38.900  
R23  22091657.363 4         0.00000     -4225.623          29.700  
R17  21010803.021 3   -669674.20701      3256.976          41.500  
R08  23231360.662 4    718826.64309     -3484.119          32.300  
E07  23525058.331 4      4118.36208      -881.539          33.200  
E08  27074851.058 4     15181.72709     -2687.731          31.100  
E13  25857019.453 4      9217.76809     -2547.744          31.300  
E26  23168516.651 3     22213.89103      -158.770          41.900  
E33  25014042.030 3   -137933.93604      2232.523          39.700  
> 2023 09 07 19 36 03.4487448  0 20
G02  23364270.943 3   -593606.86101      2923.197          41.500  
G08  22541865.582 3    192800.52701      -920.175          40.600  
G10  21184340.568 3    208313.28202     -1022.790          39.300  
G18  24814589.513 3    732494.91109     -3645.955          37.700  
G21  22506684.337 2   -469875.82501      2311.917          46.400  
G23  23317518.005 4         0.00000     -2476.913          29.200  
G27  22820212.975 3    587824.39801     -2860.818          40.400  
G28  23576297.650 5         0.00000      3206.150          28.100  
G32  20551340.184 2    -61716.98801       227.796          44.000  
R02  20693795.874 5         0.00000      1879.950          27.800  
R01  19740788.337 3    300027.82502     -1440.689          38.500  
R24  19276725.500 3    176773.29202      -956.455          37.900  
R23  22092420.635 4    847179.19709     -4228.788          35.000  
R17  21010191.444 2   -672932.96901      3260.009          45.000  
R08  23232015.114 4    722305.33709     -3474.484          33.000  
E07  23525228.907 4      4997.85309      -878.153          32.400  
E08  27075363.100 5         0.00000     -2676.350          25.600  
E13  25857506.907 4     11765.43807     -2547.954          35.300  
E26  23168545.130 3     22372.08003      -157.998          42.200  
E33  25013614.831 3   -140167.90103      2234.866          40.900  
> 2023 09 07 19 36 04.4487448  0 20
G02  23363714.525 2   -596529.76401      2923.169          41.900  
G08  22542040.956 3    193723.55101      -924.836          41.100  
G10  21184540.234 2    209334.99801     -1020.261          44.600  
G18  24815285.620 3    736142.27809     -3647.856          37.700  
G21  22506242.742 2   -472187.29501      2311.605          46.800  
G23  23317992.582 3         0.00000     -2475.250          39.800  
G27  22820762.500 3    590689.20901     -2867.441          40.400  
G28  23575701.062 4    -30398.50109      3203.700          30.400  
G32  20551299.717 2    -61943.56501       226.172          44.100  
R02  20693455.316 5         0.00000      1873.250          28.400  
R01  19741066.528 3    301468.01001     -1439.093          40.000  
R24  19276902.969 3    177731.83602      -959.655          38.400  
R23  22093219.576 3    851411.38002     -4233.362          37.000  
R17  21009579.866 2   -676192.91601      3260.385          46.800  
R08  23232668.049 4    725777.93209     -3469.841          33.900  
E07  23525392.590 5         0.00000      -877.450          27.700  
E08  27075876.346 5         0.00000     -2672.450          27.200  
E13  25857991.971 4     14314.81807     -2549.995          35.400  
E26  23168574.813 2     22531.00803      -159.129          42.600  
E33  25013191.523 2   -142402.54303      2234.909          43.200  
> 2023 09 07 19 36 05.4487448  0 19
G02  23363157.514 2   -599454.41601      2925.468          42.200  
G08  22542216.331 3    194649.12801      -926.648          40.500  
G10  21184732.709 2    210352.41701     -1015.473          45.100  
G18  24815984.746 3    739789.40009     -3646.899          35.600  
G21  22505805.038 2   -474500.21301      2313.588          46.500  
G23  23318461.155 3    507292.42109     -2469.977          40.700  
G27  22821303.631 3    593558.18502     -2870.817          37.600  
G32  20551251.450 2    -62170.37501       226.940          43.600  
R02  20693081.777 5         0.00000      1872.200          26.200  
R01  19741333.953 3    302904.87202     -1435.370          39.200  
R24  19277086.737 3    178691.51602      -960.260          38.800  
R23  22094014.329 4    855644.67009     -4235.144          33.200  
R17  21008973.680 2   -679455.07901      3263.113          47.200  
R08  23233309.310 4    729242.58309     -3461.490          35.300  
E07  23525553.289 5         0.00000      -875.350          27.700  
E08  27076379.401 5         0.00000     -2665.700          28.900  
E13  25858474.033 4     16864.14308     -2549.097          33.800  
E26  23168606.590 3     22689.25003      -157.877          42.300  
E33  25012767.309 2   -144638.92902      2237.242          44.300  
> 2023 09 07 19 36 06.4487448  0 21
G02  23362602.894 2   -602382.06001      2929.780          42.000  
G08  22542393.817 3    195575.32501      -925.626          41.200  
G10  21184923.371 2    211364.60801     -1009.174          45.800  
G18  24816673.959 4    743434.44304     -3643.595          31.500  
G21  22505361.942 2   -476815.86501      2317.656          45.200  
G23  23318931.525 3    509759.17001     -2462.909          39.900  
G24  24571470.707 5         0.00000     -2417.000          26.300  
G27  22821848.951 4    596429.31403     -2871.162          34.900  
G28  23574478.517 5         0.00000      3205.750          27.800  
G32  20551207.091 2    -62398.89101       230.046          43.200  
R02  20692732.511 4   -397967.49404      1869.838          32.900  
R01  19741595.375 3    304337.46802     -1429.910          38.000  
R24  19277272.617 3    179650.74302      -958.241          38.600  
R23  22094807.284 4    859879.26003     -4232.773          35.000  
R17  21008365.400 2   -682720.53901      3267.716          47.100  
R08  23233953.869 4    732699.73203     -3452.982          35.100  
E07  23525719.380 4      7622.05209      -868.988          30.900  
E08  27076888.144 5         0.00000     -2655.200          25.300  
E13  25858959.707 4     19411.59409     -2545.874          32.100  
E26  23168633.271 3     22845.39203      -154.393          42.100  
E33  25012341.000 2   -146878.37102      2241.584          44.800  
> 2023 09 07 19 36 07.4487448  0 21
G02  23362043.178 3   -605311.69901      2930.714          41.500  
G08  22542569.488 3    196502.82101      -928.388          39.900  
G10  21185115.846 2    212373.11001     -1006.734          46.400  
G18  24817359.282 4    747079.33407     -3645.045          29.800  
G21  22504923.052 2   -479133.25801      2318.309          44.600  
G23  23319401.006 3    512221.14902     -2459.914          38.400  
G24  24571942.892 4      3540.42609     -2415.573          33.000  
G27  22822399.662 3    599303.03601     -2875.454          39.700  
G28  23573872.942 4         0.00000      3201.353          29.100  
G32  20551163.606 2    -62627.99501       229.251          43.600  
R02  20692387.153 3   -399835.40602      1867.073          36.800  
R01  19741866.080 4    305767.03703     -1428.038          34.200  
R24  19277452.791 3    180610.53602      -960.249          38.200  
R23  22095579.840 4    864113.97909     -4239.863          30.700  
R17  21007749.635 2   -685988.21301      3268.797          46.900  
R08  23234600.818 4    736150.94303     -3448.313          35.900  
E07  23525888.455 4      8490.30009      -867.711          34.800  
E08  27077387.011 4         0.00000     -2654.045          30.500  
E13  25859447.458 4     21958.24609     -2547.456          30.900  
E26  23168665.048 3     23000.50103      -154.814          42.300  
E33  25011913.208 2   -149119.82602      2242.466          45.000  
> 2023 09 07 19 36 08.4487448  0 21
G02  23361484.963 2   -608244.88601      2934.860          41.600  
G08  22542749.662 3    197431.33202      -929.469          37.400  
G10  21185307.712 2    213376.55001     -1001.216          44.000  
G18  24818045.512 5         0.00000     -3646.100          27.500  
G21  22504479.363 2   -481453.83701      2321.992          44.000  
G23  23319862.983 4    514677.01909     -2454.075          30.500  
G24  24572394.975 4      5951.64509     -2407.559          33.800  
G27  22822947.093 3    602180.05801     -2879.396          40.800  
G28  23573260.160 3     -7804.01609      3198.613          35.800  
G32  20551124.639 2    -62858.18201       230.172          44.100  
R02  20692041.203 3   -401702.24302      1865.869          38.700  
R01  19742159.279 4         0.00000     -1423.074          29.500  
R24  19277632.371 3    181570.63202      -960.878          38.000  
R23  22096387.489 4    868354.73509     -4240.136          34.800  
R17  21007137.167 2   -689259.76101      3273.356          46.400  
R08  23235231.888 3    739594.43202     -3439.685          38.600  
E07  23526052.435 4      9356.12707      -863.948          35.300  
E08  27077897.552 4         0.00000     -2644.913          34.900  
E13  25859936.134 4     24506.04109     -2548.030          31.200  
E26  23168691.729 3     23154.07503      -153.343          42.300  
E33  25011486.899 2   -151364.80402      2246.545          44.200  
> 2023 09 07 19 36 09.4487448  0 21
G02  23360924.654 2   -611181.75701      2939.726          42.100  
G08  22542923.850 4    198361.95403      -931.106          34.200  
G10  21185498.669 2    214375.23801      -995.664          42.500  
G18  24818751.530 4    754371.21609     -3648.466          32.100  
G21  22504039.861 2   -483777.59901      2326.270          44.200  
G23  23320328.555 3    517128.38109     -2448.631          36.000  
G24  24572839.572 5         0.00000     -2400.300          27.500  
G27  22823491.522 3    605062.68902     -2885.290          37.500  
G28  23572648.879 4    -10999.78309      3193.367          33.600  
G32  20551076.983 2    -63088.08801       230.315          44.100  
R02  20691692.827 3   -403566.64402      1863.655          37.200  
R01  19742385.329 5         0.00000     -1416.700          25.900  
R24  19277811.654 3    182532.66102      -962.582          37.400  
R23  22097181.334 3    872597.88502     -4245.766          37.000  
R17  21006528.573 2   -692535.39101      3278.665          46.300  
R08  23235883.025 3    743029.67701     -3430.337          41.700  
E07  23526217.322 4     10218.63207      -860.587          35.100  
E08  27078399.106 4      6924.47806     -2636.077          35.900  
E13  25860421.791 5         0.00000     -2550.800          28.900  
E26  23168723.524 3     23307.37003      -152.627          42.300  
E33  25011057.885 2   -153613.25503      2251.115          43.000  
> 2023 09 07 19 36 10.4487448  0 21
G02  23360368.237 2   -614124.43001      2944.682          42.100  
G08  22543104.914 4    199293.22303      -931.310          35.400  
G10  21185689.645 2    215368.16201      -991.426          43.700  
G18  24819450.045 4    758021.60109     -3652.270          34.800  
G21  22503594.078 2   -486106.52701      2330.716          44.100  
G23  23320797.442 3    519574.76609     -2445.338          39.400  
G24  24573306.941 5         0.00000     -2390.600          26.400  
G27  22824038.028 4    607950.42404     -2889.533          33.300  
G28  23572039.709 3    -14190.43509      3188.322          36.000  
G32  20551035.312 2    -63318.78201       230.655          44.700  
R02  20691339.076 3   -405429.89502      1862.945          36.400  
R01  19742622.756 5         0.00000     -1411.150          26.400  
R24  19277999.017 3    183495.73702      -963.753          37.300  
R23  22097970.380 3    876846.53302     -4251.206          38.300  
R17  21005915.198 2   -695817.18801      3283.842          46.700  
R08  23236523.692 2    746455.81301     -3423.429          42.100  
E07  23526383.117 3     11077.31305      -857.737          37.400  
E08  27078897.659 4      9556.28308     -2629.476          32.500  
E13  25860904.464 5         0.00000     -2553.500          28.800  
E26  23168749.298 3     23459.36703      -151.910          42.200  
E33  25010630.093 3   -155867.22503      2255.845          41.500  
> 2023 09 07 19 36 11.4487448  0 22
G02  23359808.538 3   -617070.56301      2947.587          39.900  
G08  22543277.601 3    200224.50002      -930.402          36.700  
G10  21185878.508 2    216357.86401      -987.365          42.400  
G18  24820144.668 4    761673.25709     -3649.163          33.900  
G21  22503153.076 2   -488438.52101      2333.412          42.700  
G23  23321266.906 3    522018.09609     -2440.421          37.700  
G24  24573762.322 5         0.00000     -2388.250          27.900  
G27  22824589.647 4    610840.64704     -2889.168          31.400  
G28  23571430.819 4    -17378.51709      3190.124          34.500  
G32  20550991.826 2    -63549.84801       232.820          42.900  
R02  20690991.921 4   -407292.77003      1863.688          34.900  
R01  19742918.066 5         0.00000     -1412.000          26.700  
R24  19278178.894 3    184459.54802      -962.509          37.300  
R23  22098770.839 3    881098.02202     -4249.538          37.100  
R17  21005300.322 2   -699102.51901      3286.705          46.600  
R08  23237156.856 3    749876.42402     -3417.764          39.300  
E07  23526543.205 4     11933.85706      -854.497          35.500  
E08  27079406.699 5         0.00000     -2621.900          29.300  
E13  25861395.217 5         0.00000     -2552.200          28.400  
E19  28563278.339 5         0.00000      2758.850          26.000  
E26  23168779.277 3     23610.64603      -149.524          41.500  
E33  25010199.596 3   -158124.49004      2258.729          40.000  
> 2023 09 07 19 36 12.4487448  0 21
G02  23359243.116 3   -620019.41401      2944.895          39.600  
G08  22543457.478 3    201153.76702      -933.081          37.400  
G10  21186064.981 2    217343.29001      -988.736          43.100  
G18  24820829.380 4    765319.86604     -3649.393          32.900  
G21  22502706.996 2   -490773.18801      2330.809          42.000  
G23  23321729.790 3    524456.77802     -2441.210          39.000  
G27  22825143.674 4    613727.97904     -2890.810          30.700  
G28  23570829.135 4    -20570.69003      3189.943          33.700  
G32  20550945.059 2    -63784.27701       230.707          42.800  
R02  20690640.858 4   -409158.02803      1861.683          34.800  
R01  19743181.565 5         0.00000     -1414.300          26.000  
R24  19278353.658 4    185420.54303      -964.799          35.800  
R23  22099558.088 3    885345.24802     -4250.154          36.900  
R17  21004688.151 2   -702390.39901      3283.923          46.200  
R08  23237803.491 3    753292.05402     -3418.903          39.300  
E07  23526706.295 4     12786.53507      -855.949          35.400  
E08  27079903.158 4     14804.38609     -2624.892          30.400  
E13  25861876.982 5         0.00000     -2550.150          29.100  
E19  28562752.512 5         0.00000      2760.100          26.800  
E26  23168810.461 3     23758.46303      -151.131          42.000  
E33  25009770.286 3   -160384.49704      2256.359          39.100  
> 2023 09 07 19 36 13.4487448  0 21
G02  23358684.011 3   -622956.31301      2933.561          39.800  
G08  22543635.557 3    202094.71902      -944.122          38.500  
G10  21186253.845 2    218339.59601      -998.965          43.000  
G18  24821532.397 4    768975.85804     -3657.658          33.000  
G21  22502265.401 2   -493096.00201      2319.540          42.700  
G23  23322194.769 3    526905.17702     -2450.597          39.300  
G27  22825693.792 4    616625.89504     -2900.349          31.200  
G28  23570224.154 4    -23753.98503      3181.522          34.000  
G32  20550902.795 2    -64007.75701       220.808          43.000  
R02  20690283.512 4   -411011.82103      1850.834          33.500  
R01  19743489.456 5         0.00000     -1423.550          27.700  
R24  19278535.943 4    186392.92903      -975.266          35.900  
R23  22100354.935 3    889602.23502     -4259.062          37.500  
R17  21004072.682 2   -705665.92401      3271.995          46.400  
R08  23238435.154 3    756718.57902     -3429.403          38.900  
E07  23526868.774 4     13650.04906      -866.200          36.000  
E08  27080402.321 4     17437.61809     -2635.458          32.400  
E13  25862366.252 5         0.00000     -2561.450          29.100  
E19  28562240.766 5         0.00000      2751.150          28.100  
E26  23168839.829 3     23917.05503      -161.250          42.100  
E33  25009343.384 3   -162632.82804      2245.040          40.200  
> 2023 09 07 19 36 14.4487448  0 21
G02  23358127.890 3   -625889.06801      2931.731          40.000  
G08  22543814.823 3    203039.65702      -945.802          37.800  
G10  21186444.227 2    219338.44301      -999.031          43.100  
G18  24822233.616 4    772632.47204     -3655.878          33.400  
G21  22501823.195 2   -495414.68801      2317.728          42.200  
G23  23322659.154 3    529355.14302     -2449.898          37.600  
G27  22826239.705 4    619526.35304     -2900.628          31.800  
G28  23569616.782 4    -26936.46803      3183.128          34.100  
G32  20550859.919 2    -64228.44001       220.382          43.200  
R02  20689945.048 4   -412862.01603      1849.559          34.600  
R01  19743731.386 5         0.00000     -1423.300          26.800  
R24  19278714.616 4    187368.48203      -976.002          35.800  
R23  22101155.673 3    893860.52802     -4257.819          37.900  
R17  21003463.495 2   -708936.95101      3269.974          46.400  
R08  23239075.507 4    760147.63609     -3430.592          33.100  
E07  23527033.661 4     14516.14707      -866.325          35.300  
E08  27080903.876 5         0.00000     -2637.850          27.000  
E13  25862852.816 4     39829.25809     -2559.112          29.500  
E19  28561703.230 6         0.00000      2751.300          22.000  
E26  23168868.919 2     24078.37703      -161.534          42.500  
E33  25008916.168 3   -164877.16504      2243.477          40.100  
> 2023 09 07 19 36 15.4487448  0 22
G02  23357568.175 3   -628820.87402      2933.013          39.400  
G08  22543997.702 3    203985.21502      -944.163          36.600  
G10  21186633.387 2    220336.79701      -996.590          42.900  
G18  24822934.836 4    776286.46204     -3651.309          32.600  
G21  22501384.898 2   -497732.49201      2319.032          41.600  
G23  23323124.132 3    531803.67302     -2445.939          36.900  
G27  22826797.030 4    622426.14909     -2897.605          31.700  
G28  23569014.208 4    -30121.34904      3187.556          33.300  
G31  25579893.400 6         0.00000      3437.100          23.000  
G32  20550820.046 2    -64449.54401       222.912          41.800  
R02  20689596.078 4   -414712.00103      1851.560          35.800  
R01  19744001.515 5         0.00000     -1420.750          26.900  
R24  19278896.290 3    188344.00502      -973.755          36.300  
R23  22101953.428 3    898116.67602     -4253.508          37.300  
R17  21002853.121 2   -712206.82001      3270.991          46.100  
R08  23239721.567 3    763579.46909     -3428.457          36.400  
E07  23527203.050 4     15381.85906      -863.948          35.800  
E08  27081404.819 5         0.00000     -2630.100          28.900  
E13  25863333.674 5         0.00000     -2558.200          26.700  
E19  28561186.093 5         0.00000      2751.200          26.200  
E26  23168902.493 3     24239.18403      -159.008          41.900  
E33  25008490.470 3   -167120.68304      2244.775          39.200  
> 2023 09 07 19 36 16.4487448  0 22
G02  23357012.664 3   -631753.45101      2932.096          40.200  
G08  22544178.172 3    204929.62002      -944.623          35.900  
G10  21186822.565 2    221333.14601      -996.334          42.400  
G18  24823614.155 4    779936.64503     -3649.168          34.100  
G21  22500940.005 2   -500051.17201      2318.228          42.300  
G23  23323593.002 3    534248.86509     -2445.339          37.600  
G27  22827349.538 4    625323.13209     -2896.581          34.900  
G28  23568397.221 4    -33310.23504      3189.951          32.900  
G31  25579246.747 4   -776391.43109      3442.206          30.000  
G32  20550775.984 3    -64672.65401       223.354          40.700  
R02  20689254.926 4   -416563.69503      1851.639          33.800  
R01  19744259.028 4    318536.37307     -1422.259          30.600  
R24  19279080.076 3    189317.67902      -973.627          36.600  
R23  22102744.882 3    902369.06602     -4251.500          38.200  
R17  21002240.042 2   -715477.22401      3269.714          46.200  
R08  23240354.137 4    767007.38509     -3426.999          32.900  
E07  23527363.732 4     16245.45608      -863.514          34.400  
E08  27081905.780 5         0.00000     -2633.800          24.500  
E13  25863829.836 5         0.00000     -2551.500          26.900  
E19  28560669.846 5         0.00000      2757.900          24.600  
E26  23168930.065 3     24397.92103      -158.505          41.800  
E33  25008062.067 3   -169365.09703      2244.046          40.800  
> 2023 09 07 19 36 17.4487448  0 22
G02  23356454.746 3   -634685.76301      2931.337          41.000  
G08  22544358.363 3    205873.70802      -944.807          36.000  
G10  21187012.633 2    222328.44401      -995.617          42.900  
G18  24824309.669 4    783583.79504     -3646.608          33.500  
G21  22500504.412 2   -502369.72601      2317.617          42.700  
G23  23324059.481 3         0.00000     -2444.050          36.300  
G27  22827895.172 4    628218.44909     -2895.378          34.200  
G28  23567797.649 4    -36502.12503      3192.473          34.000  
G31  25578593.201 4   -779835.50609      3444.813          31.200  
G32  20550737.907 3    -64897.08401       224.174          41.400  
R02  20688927.543 4   -418416.04803      1851.809          34.000  
R01  19744513.854 4    319957.89307     -1422.135          30.700  
R24  19279264.141 3    190290.32602      -973.021          36.400  
R23  22103537.244 3    906618.68702     -4249.148          37.700  
R17  21001626.981 2   -718747.11701      3268.821          46.100  
R08  23241001.383 3    770433.11909     -3426.428          36.900  
E07  23527528.322 4     17107.85307      -862.631          35.400  
E08  27082405.222 5         0.00000     -2630.550          26.400  
E13  25864316.994 5         0.00000     -2550.350          27.000  
E19  28560138.312 5         0.00000      2752.350          26.000  
E26  23168960.044 3     24555.22903      -157.504          41.400  
E33  25007633.664 3   -171609.60703      2243.670          40.600  
> 2023 09 07 19 36 18.4487448  0 22
G02  23355900.440 3   -637615.42601      2928.091          39.700  
G08  22544535.238 3    206819.94502      -947.340          36.200  
G10  21187200.903 2    223325.39301      -997.992          42.300  
G18  24825006.700 4    787230.32404     -3646.810          31.800  
G21  22500059.816 2   -504685.64301      2314.495          42.200  
G23  23324523.849 3    539143.33202     -2445.763          38.900  
G27  22828448.291 4    631114.33004     -2896.343          30.600  
G28  23567187.868 4    -39694.79503      3192.624          35.400  
G31  25577925.259 5         0.00000      3442.600          27.000  
G32  20550692.938 2    -65120.00801       221.989          43.100  
R02  20688567.807 4   -420266.61203      1849.711          34.900  
R01  19744781.261 5         0.00000     -1422.550          27.500  
R24  19279444.314 4    191264.70903      -975.371          35.300  
R23  22104336.482 3    910867.93602     -4249.302          37.700  
R17  21001018.388 2   -722013.94101      3265.166          46.500  
R08  23241636.955 3    773860.76302     -3428.350          39.300  
E07  23527693.209 4     17971.89707      -864.816          35.000  
E08  27082909.778 4      1617.05209     -2634.578          30.500  
E13  25864790.663 5         0.00000     -2551.350          27.900  
E19  28559605.592 5         0.00000      2754.200          25.200  
E26  23168989.727 3     24714.01603      -159.578          41.800  
E33  25007208.856 3   -173851.51004      2240.528          40.000  
> 2023 09 07 19 36 19.4487448  0 23
G02  23355338.019 3   -640543.54501      2929.605          41.100  
G08  22544719.006 3    207767.13602      -945.700          36.600  
G10  21187392.158 2    224322.81901      -995.327          42.800  
G18  24825694.413 4    790875.60409     -3642.198          32.600  
G21  22499620.925 2   -507000.12301      2315.967          43.100  
G23  23324987.344 3    541588.14901     -2442.293          39.600  
G24  24577418.893 5         0.00000     -2395.500          25.400  
G27  22828995.408 4    634009.89307     -2893.471          30.000  
G28  23566582.276 4    -42889.01503      3196.909          34.600  
G31  25577257.928 5         0.00000      3445.650          28.200  
G32  20550649.470 2    -65342.75301       224.729          43.800  
R02  20688207.442 4   -422116.62303      1851.747          35.600  
R01  19745038.198 5         0.00000     -1421.200          28.300  
R24  19279622.987 4    192239.48003      -972.935          35.800  
R23  22105130.624 3    915115.90502     -4245.458          37.500  
R17  21000407.421 2   -725278.92801      3266.396          46.300  
R08  23242278.495 3    777288.61001     -3425.506          40.100  
E07  23527856.892 4     18836.18806      -862.297          36.000  
E08  27083409.535 4      4250.71409     -2631.869          31.200  
E13  25865272.428 4      4148.81309     -2546.961          29.500  
E19  28559074.948 6         0.00000      2760.200          22.400  
E26  23169019.706 3     24872.91603      -156.959          42.300  
E33  25006781.360 3   -176092.09403      2242.075          40.500  
> 2023 09 07 19 36 20.4487448  0 22
G02  23354784.307 3   -643472.90601      2928.356          40.700  
G08  22544892.880 3    208713.07202      -946.901          36.600  
G10  21187579.241 2    225317.76601      -995.751          42.700  
G18  24826387.536 4    794517.11709     -3641.684          32.000  
G21  22499176.625 2   -509315.92101      2314.778          42.700  
G23  23325452.009 3    544029.89701     -2442.229          40.200  
G24  24577847.906 5         0.00000     -2397.750          24.700  
G27  22829548.528 4    636903.11609     -2893.854          30.300  
G28  23565971.606 4    -46086.63803      3197.507          34.700  
G31  25576619.669 5         0.00000      3450.800          23.600  
G32  20550606.595 2    -65567.67001       224.030          43.300  
R02  20687858.490 4   -423968.34103      1850.809          35.100  
R01  19745317.890 5         0.00000     -1427.500          27.600  
R24  19279809.163 4    193212.48003      -974.044          35.400  
R23  22105910.683 3    919360.67302     -4244.983          37.300  
R17  20999793.435 2   -728545.02701      3264.940          45.800  
R08  23242922.164 3    780713.92102     -3425.834          39.700  
E07  23528020.279 4     19698.10106      -862.779          35.900  
E08  27083907.791 4      6882.36809     -2632.412          30.700  
E13  25865764.088 5         0.00000     -2545.950          28.900  
E26  23169050.890 3     25029.49703      -157.375          41.900  
E33  25006355.645 3   -178334.06604      2241.028          40.300  
> 2023 09 07 19 36 21.4487448  0 23
G02  23354222.497 3   -646400.76101      2927.532          41.000  
G08  22545076.352 3    209660.42102      -947.629          37.100  
G10  21187774.405 2    226313.73901      -995.773          42.800  
G18  24827092.350 4    798158.31309     -3640.463          33.100  
G21  22498738.328 2   -511630.16501      2313.947          42.700  
G23  23325919.692 3    546472.03001     -2441.716          40.800  
G24  24578332.359 5         0.00000     -2401.150          26.200  
G27  22830096.238 4    639796.84209     -2893.502          30.100  
G28  23565362.122 4    -49284.74403      3198.894          34.200  
G31  25575992.491 6         0.00000      3452.750          23.400  
G32  20550562.533 2    -65791.48501       223.984          43.600  
R02  20687512.522 4   -425818.86103      1850.437          35.900  
R01  19745579.923 5         0.00000     -1423.450          27.200  
R24  19279994.432 4    194186.82903      -974.368          35.600  
R23  22106708.437 3    923605.29202     -4244.076          37.400  
R17  20999187.860 2   -731809.21301      3263.765          46.000  
R08  23243557.421 3    784139.84302     -3425.838          38.900  
E07  23528184.258 4     20561.06906      -862.768          36.200  
E08  27084411.142 4      9515.42209     -2632.487          31.200  
E13  25866247.058 4      9241.07209     -2545.368          30.900  
E19  28558045.472 6         0.00000      2761.400          21.900  
E26  23169081.759 3     25187.10403      -157.457          42.400  
E33  25005928.743 3   -180574.54003      2240.285          40.800  
> 2023 09 07 19 36 22.4487448  0 23
G02  23353667.580 3   -649328.14301      2927.646          39.900  
G08  22545256.229 3    210608.24602      -947.721          37.500  
G10  21187959.970 2    227309.13701      -994.368          42.800  
G18  24827783.379 4    801797.45309     -3637.673          29.700  
G21  22498298.234 3   -513943.94001      2314.083          41.400  
G23  23326381.966 3    548912.83702     -2439.255          38.000  
G24  24578784.756 5         0.00000     -2402.200          27.700  
G27  22830646.059 4    642689.96009     -2892.745          32.800  
G28  23564754.750 4    -52485.25509      3201.410          33.100  
G31  25575303.574 6         0.00000      3457.250          23.300  
G32  20550520.565 2    -66015.67501       224.800          43.500  
R02  20687175.855 4   -427669.24703      1850.562          34.800  
R01  19745854.519 4         0.00000     -1423.879          29.200  
R24  19280171.604 4    195161.22703      -974.079          35.300  
R23  22107510.973 3    927848.36502     -4241.963          36.900  
R17  20998579.580 2   -735072.65801      3263.566          46.200  
R08  23244199.572 3    787564.99302     -3423.889          38.500  
E07  23528351.257 4     21423.57506      -861.594          36.300  
E08  27084909.992 4     12147.14209     -2630.391          31.400  
E13  25866734.216 4     11785.45609     -2542.973          30.500  
E19  28557509.733 5         0.00000      2764.800          27.000  
E26  23169112.349 3     25344.26703      -156.426          42.100  
E33  25005502.731 3   -182814.70904      2240.485          39.500  
> 2023 09 07 19 36 23.4487448  0 22
G02  23353113.867 3   -652256.12001      2928.699          41.300  
G08  22545439.107 3    211556.04202      -947.306          37.500  
G10  21188150.038 2    228302.71801      -993.020          42.800  
G18  24828474.093 4    805434.43309     -3636.737          32.300  
G21  22497859.343 2   -516258.32101      2315.087          42.700  
G23  23326846.944 3    551351.23502     -2438.060          39.200  
G24  24579236.245 5         0.00000     -2399.750          26.500  
G27  22831192.879 4    645582.42309     -2892.030          31.000  
G28  23564149.768 4    -55687.14309      3202.136          34.500  
G32  20550477.986 2    -66240.84901       225.727          43.900  
R02  20686834.703 3   -429520.00502      1851.380          36.300  
R01  19746143.826 5         0.00000     -1423.150          28.900  
R24  19280348.776 3    196135.06902      -973.535          36.100  
R23  22108306.040 3    932089.83902     -4241.291          37.200  
R17  20997963.797 2   -738336.52601      3264.454          46.200  
R08  23244833.329 3    790987.28209     -3422.766          36.100  
E07  23528512.846 3     22284.52005      -860.423          36.700  
E08  27085412.453 4     14776.13609     -2630.441          31.100  
E13  25867215.685 4     14327.75609     -2542.191          30.700  
E19  28556992.893 5         0.00000      2764.300          27.200  
E26  23169138.420 2     25500.24003      -155.507          42.700  
E33  25005077.033 3   -185055.57803      2241.619          40.900  
> 2023 09 07 19 36 24.4487448  0 22
G02  23352553.558 3   -655186.74201      2932.305          41.300  
G08  22545615.982 3    212501.83902      -944.521          37.400  
G10  21188338.902 2    229294.37701      -990.328          42.900  
G18  24829164.214 4    809070.22804     -3634.982          33.400  
G21  22497416.247 2   -518575.20301      2318.472          42.400  
G23  23327313.423 4    553787.60409     -2435.300          34.700  
G27  22831751.094 4    648473.00009     -2889.526          31.200  
G28  23563534.892 4    -58889.96903      3204.174          33.900  
G31  25573995.278 4         0.00000      3457.597          29.300  
G32  20550437.519 2    -66467.77101       228.073          43.300  
R02  20686484.251 4   -431372.89703      1854.195          34.900  
R01  19746399.542 5         0.00000     -1419.750          27.900  
R24  19280543.050 4    197107.55103      -971.580          35.800  
R23  22109095.697 3    936330.07102     -4239.466          37.900  
R17  20997358.222 2   -741602.60701      3267.523          46.000  
R08  23245480.278 4    794408.35409     -3418.357          35.600  
E07  23528678.326 3     23143.57005      -857.852          36.500  
E08  27085904.707 5         0.00000     -2624.700          28.100  
E13  25867701.952 4     16868.34609     -2540.298          30.300  
E19  28556455.060 5         0.00000      2762.250          27.600  
E26  23169170.511 3     25654.42903      -153.027          42.100  
E33  25004648.926 3   -187298.98704      2245.056          39.900  
> 2023 09 07 19 36 25.4487448  0 23
G02  23351994.139 3   -658120.68401      2936.495          40.500  
G08  22545797.360 3    213445.24102      -941.326          38.100  
G10  21188525.671 2    230283.55101      -987.142          43.300  
G18  24829850.444 4    812704.53104     -3632.856          31.400  
G21  22496977.357 2   -520895.19401      2322.422          42.600  
G23  23327772.399 3    556222.25109     -2432.956          38.900  
G24  24580128.719 6         0.00000     -2397.700          20.300  
G27  22832299.415 4    651361.69204     -2886.731          32.500  
G28  23562923.018 4    -62094.70703      3206.343          35.300  
G31  25573329.448 4   -807448.51609      3460.609          33.300  
G32  20550393.144 2    -66696.62001       230.788          44.100  
R02  20686134.374 4   -433228.19003      1857.335          35.600  
R01  19746655.571 5         0.00000     -1417.900          28.900  
R24  19280711.846 4    198078.55303      -969.321          35.900  
R23  22109886.837 3    940569.08102     -4237.530          37.800  
R17  20996745.754 2   -744871.57601      3271.298          46.500  
R08  23246105.956 4    797826.10509     -3415.780          34.900  
E07  23528839.305 3     24000.42405      -854.830          36.500  
E08  27086410.152 5         0.00000     -2621.850          29.200  
E13  25868183.421 4     19408.10209     -2538.054          30.600  
E19  28555935.828 5         0.00000      2763.600          28.900  
E26  23169198.379 2     25806.54303      -150.229          42.700  
E33  25004221.134 3   -189545.57404      2249.031          40.200  
> 2023 09 07 19 36 26.4487448  0 22
G02  23351436.517 3   -661060.57001      2942.737          40.800  
G08  22545976.940 3    214383.53502      -935.952          37.300  
G10  21188714.849 2    231267.75301      -981.967          43.100  
G18  24830543.864 4         0.00000     -3628.986          29.200  
G21  22496533.371 2   -523220.95901      2328.487          41.700  
G23  23328237.988 3    558653.22009     -2428.561          38.900  
G27  22832853.738 4    654245.78904     -2882.085          31.300  
G28  23562317.443 3    -65303.37402      3210.458          36.100  
G31  25572675.292 4   -810911.51009      3464.893          31.700  
G32  20550348.471 2    -66930.05301       235.441          43.400  
R02  20685789.924 4   -435088.66803      1862.710          35.700  
R01  19746934.077 5         0.00000     -1413.400          28.200  
R24  19280900.709 4    199045.33703      -964.998          35.400  
R23  22110684.295 3    944804.30902     -4233.622          37.700  
R17  20996132.379 2   -748146.25301      3277.293          46.600  
R08  23246759.798 4    801238.34709     -3409.853          34.900  
E07  23529002.394 3     24852.38305      -849.840          36.500  
E08  27086903.016 5         0.00000     -2616.700          29.200  
E13  25868663.093 4     21943.93509     -2534.157          29.800  
E19  28555413.282 5         0.00000      2771.750          27.900  
E26  23169226.561 3     25954.01103      -145.410          42.400  
E33  25003793.325 3   -191798.01503      2255.163          40.600  
> 2023 09 07 19 36 27.4487448  0 22
G02  23350873.817 3   -664005.74701      2946.702          41.300  
G08  22546155.910 3    215317.50602      -932.689          37.700  
G10  21188903.416 2    232247.89201      -979.329          43.300  
G18  24831243.582 5         0.00000     -3626.850          26.700  
G21  22496089.664 2   -525551.76501      2332.254          42.700  
G23  23328696.964 4    561079.75309     -2425.621          31.200  
G27  22833401.152 4    657126.17104     -2879.281          31.200  
G28  23561707.052 3    -68514.97802      3212.080          35.700  
G31  25572009.461 4   -814377.96609      3467.130          32.900  
G32  20550300.204 2    -67167.05801       237.891          43.900  
R02  20685433.468 4   -436953.39203      1866.037          35.800  
R01  19747177.507 5         0.00000     -1409.800          28.300  
R24  19281076.381 3    200008.97902      -962.906          36.100  
R23  22111469.136 3    949036.78902     -4232.087          38.300  
R17  20995521.395 2   -751425.79401      3280.859          45.700  
R08  23247405.543 4    804644.89709     -3405.958          35.700  
E07  23529163.093 4     25700.46206      -847.217          36.000  
E08  27087406.664 5         0.00000     -2616.450          28.300  
E13  25869142.747 4     24476.95109     -2532.625          29.600  
E19  28554884.156 5         0.00000      2771.950          28.200  
E26  23169254.743 3     26097.77303      -142.906          42.200  
E33  25003361.624 3   -194055.54204      2258.992          40.000  
> 2023 09 07 19 36 28.4487448  0 22
G02  23350313.212 3   -666952.63501      2947.044          41.100  
G08  22546332.192 3    216250.42202      -933.215          37.400  
G10  21189086.294 2    233227.83801      -980.220          43.000  
G18  24831926.811 5         0.00000     -3632.500          28.000  
G21  22495641.176 2   -527884.08401      2332.330          42.000  
G23  23329156.254 3    563505.92309     -2427.288          39.100  
G27  22833941.672 4    660005.95407     -2880.548          30.400  
G28  23561095.474 4    -71726.02403      3210.212          35.300  
G31  25571360.400 4   -817844.35909      3465.550          30.800  
G32  20550259.440 2    -67404.22101       236.642          43.600  
R02  20685082.719 4   -438819.16703      1865.495          35.300  
R01  19747456.920 5         0.00000     -1408.600          28.700  
R24  19281252.069 4    200972.79803      -964.576          35.700  
R23  22112252.511 3    953270.02702     -4234.204          37.800  
R17  20994898.736 2   -754706.52801      3280.646          45.800  
R08  23248019.826 3    808052.01102     -3407.098          36.800  
E07  23529325.276 4     26548.29306      -848.243          35.900  
E08  27087905.514 4     27977.73809     -2614.830          31.000  
E13  25869630.219 4     27011.35209     -2534.650          30.400  
E19  28554344.525 5         0.00000      2770.650          25.800  
E26  23169280.535 3     26241.32303      -144.027          42.100  
E33  25002935.018 3   -196314.63704      2259.144          39.900  
> 2023 09 07 19 36 29.4487448  0 22
G02  23349753.199 3   -669900.29801      2948.485          41.000  
G08  22546511.772 3    217183.53802      -932.552          38.000  
G10  21189275.455 2    234207.55601      -978.741          43.300  
G18  24832624.418 5         0.00000     -3626.800          27.200  
G21  22495202.879 2   -530217.01101      2333.732          42.600  
G23  23329621.232 3    565932.73909     -2425.782          39.500  
G27  22834496.903 4    662886.28004     -2879.517          31.800  
G28  23560483.006 4    -74936.21803      3211.155          35.200  
G31  25570699.369 4   -821310.27209      3467.023          30.000  
G32  20550211.766 2    -67641.06101       237.634          43.800  
R02  20684744.848 3   -440684.88302      1866.441          36.000  
R01  19747696.459 4         0.00000     -1406.978          29.200  
R24  19281449.623 3    201937.48902      -964.082          36.000  
R23  22113050.859 3    957504.33502     -4233.557          37.900  
R17  20994296.738 2   -757987.60901      3281.751          46.400  
R08  23248668.276 3    811458.59702     -3405.442          39.200  
E07  23529486.865 3     27396.18105      -846.888          36.600  
E08  27088405.270 4     30592.47209     -2613.218          31.300  
E13  25870113.189 4     29546.09909     -2533.799          30.300  
E19  28553830.390 5         0.00000      2775.600          28.000  
E26  23169309.903 2     26385.14203      -142.944          42.600  
E33  25002503.021 3   -198574.36103      2260.527          40.600  
> 2023 09 07 19 36 30.4487448  0 22
G02  23349186.277 3   -672850.03801      2950.941          40.500  
G08  22546687.147 3    218114.82802      -929.968          38.500  
G10  21189458.630 2    235184.61201      -975.487          43.000  
G18  24833300.754 5         0.00000     -3623.150          28.000  
G21  22494756.189 2   -532551.97201      2336.154          42.500  
G23  23330080.801 3    568356.55702     -2421.897          39.200  
G27  22835047.615 4    665764.24404     -2876.101          31.200  
G28  23559871.132 4    -78149.58803      3215.765          34.600  
G31  25570015.844 5         0.00000      3466.550          23.600  
G32  20550166.203 2    -67880.20201       240.787          43.300  
R02  20684387.485 4   -442552.71003      1869.320          35.400  
R01  19747973.464 5         0.00000     -1403.850          28.600  
R24  19281623.201 4    202900.23103      -961.109          35.400  
R23  22113844.390 3    961735.69902     -4229.100          37.400  
R17  20993681.862 2   -761270.47601      3283.923          46.500  
R08  23249301.736 3    814862.12002     -3401.943          39.900  
E07  23529646.656 3     28241.42805      -843.720          36.500  
E08  27088897.227 4     33203.48409     -2609.884          30.700  
E13  25870596.141 4     32077.75809     -2529.459          30.300  
E19  28553294.354 5         0.00000      2776.500          25.300  
E26  23169336.899 2     26526.51203      -139.730          42.500  
E33  25002072.210 3   -200836.19803      2263.123          40.700  
> 2023 09 07 19 36 31.4487448  0 22
G02  23348628.376 3   -675801.99301      2954.786          40.800  
G08  22546861.614 3    219043.65402      -926.094          37.100  
G10  21189645.103 2    236158.57701      -971.030          42.100  
G18  24834004.364 4    834468.32609     -3618.441          29.700  
G21  22494310.702 2   -534889.22601      2340.041          42.000  
G23  23330543.092 3    570776.72302     -2417.019          38.300  
G24  24582883.219 6         0.00000     -2377.200          21.300  
G27  22835584.837 4    668638.53304     -2871.306          30.700  
G28  23559258.350 4    -81367.57603      3221.336          35.100  
G32  20550118.844 2    -68122.41001       245.222          43.100  
R02  20684032.530 4   -444423.37303      1873.480          35.100  
R01  19748205.796 5         0.00000     -1400.200          26.700  
R24  19281800.984 4    203860.12303      -957.077          34.900  
R23  22114637.048 3    965962.75402     -4223.849          37.000  
R17  20993069.395 2   -764555.33101      3287.524          45.400  
R08  23249934.289 3    818262.56302     -3397.305          38.500  
E07  23529805.244 4     29083.58807      -839.326          35.200  
E08  27089398.188 4     35811.79409     -2605.323          29.500  
E13  25871074.922 4     34605.12909     -2524.198          29.700  
E19  28552772.715 5         0.00000      2782.350          27.600  
E26  23169362.673 3     26664.68703      -135.353          41.900  
E33  25001640.805 3   -203100.47404      2267.016          39.700  
> 2023 09 07 19 36 32.4487448  0 23
G02  23348063.268 3   -678761.02201      2956.481          40.300  
G08  22547037.006 3    219965.61702      -924.473          37.700  
G10  21189830.668 2    237125.31201      -968.871          43.000  
G18  24834686.388 4    838082.39409     -3615.952          32.100  
G21  22493866.716 2   -537233.48001      2341.796          42.300  
G23  23331000.881 3    573189.37302     -2414.715          39.300  
G24  24583328.409 5         0.00000     -2374.000          25.200  
G27  22836128.970 4    671505.49107     -2868.932          30.100  
G28  23558649.180 4    -84593.35003      3224.016          35.200  
G31  25568727.634 5         0.00000      3480.500          27.000  
G32  20550075.375 2    -68371.68601       246.843          43.800  
R02  20683686.579 4   -446301.17603      1875.484          34.900  
R01  19748503.794 5         0.00000     -1401.250          27.500  
R24  19281981.750 4    204813.22303      -955.657          35.900  
R23  22115424.298 3    970182.06702     -4221.285          37.800  
R17  20992452.721 2   -767847.05001      3289.101          46.400  
R08  23250565.952 3    821655.31502     -3395.237          39.200  
E07  23529965.332 4     29918.57506      -837.103          36.000  
E08  27089895.851 4     38412.77609     -2603.505          31.300  
E13  25871557.281 4     37124.29609     -2521.487          29.700  
E19  28552245.980 5         0.00000      2784.800          26.800  
E26  23169384.852 2     26795.76403      -133.198          42.500  
E33  25001210.012 3   -205371.78104      2268.960          40.100  
> 2023 09 07 19 36 33.4487448  0 23
G02  23347505.053 3   -681711.60001      2949.231          40.100  
G08  22547213.271 3    220896.04102      -931.840          38.000  
G10  21190015.937 2    238099.77301      -975.128          42.700  
G18  24835369.913 4    841703.08709     -3620.742          30.100  
G21  22493424.807 2   -539569.24601      2334.462          41.800  
G23  23331462.562 3    575609.33102     -2420.217          36.300  
G24  24583768.800 6         0.00000     -2388.550          22.600  
G27  22836673.382 4    674380.05707     -2875.368          30.500  
G28  23558034.304 4    -87812.53003      3219.017          35.300  
G31  25568058.784 5         0.00000      3477.350          28.400  
G32  20550027.108 2    -68613.03201       240.504          43.700  
R02  20683321.434 4   -448170.61703      1868.307          35.300  
R01  19748784.097 5         0.00000     -1405.900          28.300  
R24  19282154.141 4    205774.70203      -962.549          35.600  
R23  22116213.065 3    974408.46502     -4226.737          38.300  
R17  20991841.440 2   -771129.80401      3281.369          46.300  
R08  23251195.835 4    825055.94109     -3402.536          32.300  
E07  23530126.921 3     30761.34805      -843.538          36.600  
E08  27090389.011 5         0.00000     -2609.700          26.700  
E13  25872036.656 4     39650.84309     -2526.778          29.700  
E19  28551711.148 5         0.00000      2780.250          26.900  
E26  23169414.535 2     26934.63903      -139.689          42.500  
E33  25000779.812 3   -207634.73504      2261.646          39.700  
> 2023 09 07 19 36 34.4487448  0 23
G02  23346942.929 3   -684660.91401      2948.790          40.700  
G08  22547389.553 3    221827.76002      -932.062          38.300  
G10  21190200.910 2    239074.01501      -974.240          42.800  
G18  24836069.632 4    845322.36809     -3618.406          33.200  
G21  22492976.319 2   -541903.85001      2334.129          42.500  
G23  23331921.537 3    578028.14502     -2418.496          38.800  
G24  24584233.482 5         0.00000     -2386.500          24.900  
G27  22837232.801 4    677254.71004     -2874.373          31.800  
G28  23557420.632 4    -91033.02903      3221.386          35.200  
G31  25567389.359 4   -838679.48909      3477.984          31.800  
G32  20549982.732 2    -68854.31101       241.235          43.900  
R02  20682988.658 4   -450039.25503      1868.518          35.700  
R01  19749023.339 5         0.00000     -1405.650          28.700  
R24  19282337.909 4    206736.66803      -962.073          35.900  
R23  22117006.020 3    978633.85602     -4224.699          38.100  
R17  20991226.268 2   -774411.18001      3280.747          46.300  
R08  23251835.281 3    828458.08802     -3400.216          39.400  
E07  23530286.416 3     31604.04305      -842.662          36.500  
E08  27090884.266 4      1678.32209     -2608.379          32.100  
E13  25872515.420 4     42176.60609     -2524.609          29.600  
E19  28551188.305 5         0.00000      2781.450          27.300  
E26  23169436.714 2     27073.50703      -138.802          42.600  
E33  25000351.112 3   -209896.59703      2261.450          40.500  
> 2023 09 07 19 36 35.4487448  0 23
G02  23346385.325 3   -687610.09001      2951.167          40.200  
G08  22547567.929 3    222759.32602      -929.573          37.000  
G10  21190383.788 3    240047.56001      -971.573          41.200  
G18  24836752.267 4    848939.25609     -3614.604          33.200  
G21  22492534.427 2   -544238.34501      2336.458          42.100  
G23  23332375.417 4    580445.67309     -2415.356          35.400  
G24  24584671.168 6         0.00000     -2384.550          21.900  
G27  22837777.823 4    680128.08109     -2871.029          30.900  
G28  23556804.256 4    -94255.98803      3225.222          35.300  
G31  25566732.812 4   -842159.33309      3482.290          33.000  
G32  20549935.965 2    -69096.27401       244.064          43.600  
R02  20682636.704 4   -451908.43603      1871.284          35.400  
R01  19749272.162 5         0.00000     -1400.300          27.400  
R24  19282514.191 4    207698.19003      -959.544          35.900  
R23  22117793.863 3    982857.08302     -4220.992          37.800  
R17  20990612.299 2   -777692.07201      3282.639          46.500  
R08  23252462.756 4    831858.41709     -3405.547          34.500  
E07  23530446.801 4     32446.00706      -839.922          36.000  
E08  27091387.617 5         0.00000     -2603.650          26.500  
E13  25873001.374 5         0.00000     -2519.550          28.600  
E19  28550650.489 5         0.00000      2784.400          26.000  
E26  23169465.804 3     27211.55503      -135.960          42.200  
E33  24999917.614 3   -212158.46104      2263.805          40.100  
> 2023 09 07 19 36 36.4487448  0 23
G02  23345821.421 3   -690561.54201      2949.741          41.000  
G08  22547746.916 3    223688.82002      -931.511          37.100  
G10  21190571.168 2    241019.02801      -973.310          42.800  
G18  24837439.684 4    852554.54409     -3617.152          31.800  
G21  22492090.738 2   -546575.06401      2334.957          42.500  
G23  23332841.600 3    582860.79209     -2416.879          37.000  
G24  24585152.934 6         0.00000     -2383.600          23.200  
G27  22838324.050 4    682999.00804     -2872.955          30.600  
G28  23556190.881 3    -97481.10702      3223.027          35.600  
G31  25566055.569 4   -845641.07704      3480.200          32.600  
G32  20549892.200 2    -69340.27901       241.962          44.100  
R02  20682279.952 4   -453779.89403      1869.535          35.000  
R01  19749529.378 5         0.00000     -1406.800          28.200  
R24  19282691.957 4    208657.96903      -962.047          35.700  
R23  22118590.116 3    987078.24002     -4223.525          37.300  
R17  20989999.517 2   -780974.91801      3280.913          46.000  
R08  23253101.609 3         0.00000     -3398.600          39.100  
E07  23530608.094 3     33285.79805      -841.654          36.500  
E08  27091874.182 4      1676.51709     -2607.362          30.800  
E13  25873475.950 5         0.00000     -2522.900          29.100  
E19  28550123.754 5         0.00000      2782.400          26.500  
E26  23169490.984 3     27347.46803      -137.883          42.100  
E33  24999486.803 3   -214422.61004      2262.412          40.300  
> 2023 09 07 19 36 37.4487448  0 21
G02  23345257.500 3   -693511.75301      2950.534          41.000  
G08  22547921.383 3    224619.87902      -930.515          36.600  
G10  21190756.734 2    241991.73301      -971.970          43.100  
G21  22491645.251 2   -548910.49901      2335.796          43.100  
G23  23333301.780 3    585277.75109     -2416.015          37.400  
G27  22838877.763 4    685871.40804     -2871.219          33.200  
G28  23555577.802 4   -100705.00903      3225.315          33.900  
G31  25565395.427 4   -849122.32104      3482.789          33.400  
G32  20549843.933 2    -69582.90101       243.399          44.500  
R02  20681928.592 4   -455649.87303      1870.739          35.400  
R01  19749804.585 4    348203.74009     -1403.257          30.500  
R24  19282877.243 3    209619.56302      -960.906          36.700  
R23  22119366.878 4    991301.02503     -4221.385          35.500  
R17  20989382.251 2   -784256.11401      3281.465          46.200  
R08  23253740.461 3    838666.09009     -3397.881          37.200  
E07  23530766.681 3     34126.90205      -840.278          37.300  
E08  27092372.438 4      4283.69409     -2606.325          30.900  
E13  25873959.827 4     49743.34109     -2521.137          30.500  
E19  28549586.514 5         0.00000      2784.150          25.600  
E26  23169519.760 3     27484.76503      -136.444          42.000  
E33  24999058.697 3   -216685.58503      2263.395          41.300  
> 2023 09 07 19 36 38.4487448  0 22
G02  23344698.691 2   -696460.07701      2947.351          41.800  
G08  22548097.368 3    225552.29202      -932.933          35.900  
G10  21190942.596 2    242965.36501      -974.107          43.700  
G18  24838827.133 5         0.00000     -3617.650          27.400  
G21  22491204.546 2   -551244.15501      2332.767          44.100  
G23  23333760.459 4    587695.29709     -2417.850          32.500  
G27  22839420.692 3    688743.85302     -2872.295          36.800  
G28  23554965.020 3   -103929.69402      3225.403          35.900  
G31  25564743.993 3   -852604.58202      3482.901          36.100  
G32  20549797.166 2    -69824.87501       241.787          45.000  
R02  20681572.747 4   -457518.87003      1868.616          35.500  
R01  19750069.898 4    349609.41007     -1405.918          30.800  
R24  19283054.415 3    210581.98002      -962.690          37.600  
R23  22120149.939 4    995523.16603     -4221.565          33.500  
R17  20988769.766 2   -787535.15001      3277.928          46.600  
R08  23254370.937 3    842065.83802     -3400.569          38.300  
E07  23530927.363 3     34968.70104      -842.175          37.800  
E08  27092867.692 4      6892.37508     -2608.988          32.600  
E13  25874436.183 4     52265.48909     -2521.690          31.900  
E19  28549069.970 5         0.00000      2780.900          25.800  
E26  23169543.754 3     27622.58603      -138.035          41.200  
E33  24998625.792 2   -218946.82303      2260.423          42.700  
> 2023 09 07 19 36 39.4487448  0 23
G02  23344136.271 3   -699407.95801      2948.741          40.700  
G08  22548273.040 3    226484.07102      -930.025          35.700  
G10  21191125.178 2    243938.84001      -972.855          42.300  
G18  24839510.361 4      5266.74109     -3610.306          29.800  
G21  22490756.354 2   -553577.47801      2334.203          43.700  
G23  23334226.641 3    590112.17609     -2416.093          35.900  
G24  24586503.511 6         0.00000     -2381.450          20.900  
G27  22839964.214 3    691614.01502     -2867.527          37.900  
G28  23554353.443 3   -107157.58202      3230.500          36.300  
G31  25564079.943 3   -856090.42502      3489.278          36.100  
G32  20549752.197 2    -70067.71901       244.149          45.100  
R02  20681227.687 4   -459388.89203      1871.916          35.800  
R01  19750322.630 5         0.00000     -1402.850          28.700  
R24  19283241.185 3    211543.61502      -960.242          37.900  
R23  22120958.774 4    999742.37103     -4216.553          33.600  
R17  20988161.800 2   -790813.28401      3278.666          46.600  
R08  23255016.979 3    845465.92701     -3399.823          40.900  
E07  23531088.359 3     35810.10604      -840.550          38.800  
E08  27093365.949 4      9500.89907     -2608.126          35.400  
E13  25874920.060 4     54785.08709     -2517.319          30.500  
E19  28548539.641 6         0.00000      2786.800          23.500  
E26  23169569.231 3     27759.48403      -135.649          41.500  
E33  24998197.703 2   -221207.78703      2261.826          43.400  
> 2023 09 07 19 36 40.4487448  0 22
G02  23343574.775 3   -702355.39201      2944.655          41.300  
G08  22548449.915 3    227414.54702      -932.868          37.500  
G10  21191308.650 3    244913.50801      -978.186          39.900  
G18  24840189.977 5         0.00000     -3609.600          24.900  
G21  22490312.665 2   -555910.39201      2330.044          44.000  
G23  23334683.523 3    592529.72309     -2421.211          37.200  
G24  24586959.188 5         0.00000     -2391.100          24.700  
G27  22840510.126 3    694481.08802     -2868.974          39.300  
G28  23553733.785 3   -110388.52802      3228.703          38.200  
G31  25563410.814 4   -859580.95803      3488.909          33.600  
G32  20549703.319 2    -70310.76301       239.995          46.100  
R02  20680880.515 4   -461260.43603      1869.299          35.600  
R01  19750593.946 5         0.00000     -1407.250          26.400  
R24  19283414.466 3    212504.87502      -964.319          38.400  
R23  22121731.330 4   1003958.71503     -4218.690          35.600  
R17  20987549.612 2   -794090.27601      3273.801          46.700  
R08  23255629.447 3    848867.62502     -3405.515          39.100  
E07  23531246.353 3     36652.16404      -845.376          39.500  
E08  27093862.704 3     12110.96505     -2613.931          37.400  
E13  25875394.619 5         0.00000     -2520.600          28.200  
E26  23169594.412 3     27896.21203      -139.714          42.400  
E33  24997766.299 2   -223468.26802      2257.632          44.100  
> 2023 09 07 19 36 41.4487448  0 23
G02  23343015.950 2   -705298.17801      2943.537          41.700  
G08  22548630.996 3    228348.91002      -933.175          37.300  
G10  21191495.716 3    245895.32809      -982.353          37.800  
G18  24840875.614 5         0.00000     -3618.750          24.800  
G21  22489870.477 2   -558238.42601      2328.716          44.400  
G23  23335146.704 4    594955.12909     -2427.469          34.200  
G24  24587392.983 5         0.00000     -2402.100          25.800  
G27  22841056.650 3    697351.60502     -2869.521          39.000  
G28  23553121.893 3   -113614.44501      3225.226          39.600  
G31  25562755.454 4   -863067.49009      3485.933          31.600  
G32  20549658.664 2    -70548.02801       236.916          45.600  
R02  20680526.467 4   -463128.08903      1868.719          35.700  
R01  19750831.077 5         0.00000     -1414.600          25.700  
R24  19283593.435 3    213471.98002      -967.339          37.800  
R23  22122529.381 4   1008180.38403     -4222.371          35.400  
R17  20986933.235 2   -797361.55401      3271.543          47.000  
R08  23256279.101 3    852277.27202     -3411.253          39.000  
E07  23531411.240 3     37500.73609      -848.286          38.100  
E08  27094362.147 4     14728.92407     -2619.580          35.400  
E13  25875881.480 5         0.00000     -2524.400          27.300  
E19  28547464.882 6         0.00000      2786.500          20.200  
E26  23169624.985 3     28038.85103      -143.022          42.100  
E33  24997337.599 2   -225723.79602      2256.124          44.400  
> 2023 09 07 19 36 42.4487448  0 20
G02  23342450.545 2   -708244.98901      2951.304          41.900  
G08  22548803.073 3    229278.51802      -924.740          37.400  
G10  21191684.597 2    246877.07101      -979.056          41.800  
G21  22489426.787 2   -560570.29101      2336.225          44.500  
G23  23335595.785 4    597381.65309     -2424.330          29.600  
G27  22841603.470 3    700217.79101     -2861.497          39.900  
G28  23552511.816 3   -116841.41101      3230.138          40.400  
G31  25562090.827 4         0.00000      3493.474          29.200  
G32  20549613.695 2    -70786.98601       242.488          45.000  
R02  20680172.716 4   -465000.28503      1876.842          35.600  
R01  19751140.766 6         0.00000     -1407.750          23.100  
R24  19283779.018 3    214437.25302      -961.564          37.000  
R23  22123324.133 3   1012401.02902     -4217.365          36.000  
R17  20986327.957 2   -800635.94601      3278.359          46.600  
R08  23256917.971 3    855687.57409     -3412.463          36.500  
E07  23531569.217 3     38348.73505      -845.083          36.700  
E08  27094858.012 4     17347.22409     -2616.685          33.300  
E13  25876356.964 4      1554.02409     -2521.534          29.700  
E26  23169651.073 3     28179.88103      -137.713          42.100  
E33  24996906.788 2   -227982.99902      2263.460          44.900  
> 2023 09 07 19 36 43.4487448  0 21
G02  23341893.534 2   -711199.60601      2952.465          41.700  
G08  22548982.060 3    230199.44302      -922.587          38.100  
G10  21191872.553 2    247854.80501      -981.724          44.300  
G21  22488978.893 2   -562909.73701      2337.124          45.000  
G23  23336069.157 5         0.00000     -2431.350          27.900  
G24  24588327.146 5         0.00000     -2398.050          24.000  
G27  22842146.695 3    703075.54901     -2859.491          39.900  
G28  23551892.752 3   -120073.71701      3229.204          40.200  
G31  25561398.298 6         0.00000      3492.900          23.300  
G32  20549569.319 2    -71031.49901       241.092          45.100  
R02  20679824.654 4   -466880.98503      1878.990          33.700  
R24  19283950.187 3    215396.74802      -962.849          37.000  
R23  22124098.801 4   1016616.29603     -4218.456          33.500  
R17  20985717.583 2   -803917.16101      3278.548          47.000  
R08  23257548.133 3         0.00000     -3411.150          37.800  
E07  23531728.415 3     39192.11805      -847.039          37.200  
E08  27095352.063 4         0.00000     -2621.350          32.300  
E13  25876830.632 4      4074.26609     -2523.898          30.900  
E19  28546402.722 5         0.00000      2798.150          24.500  
E26  23169675.363 2     28315.42203      -138.819          42.800  
E33  24996475.087 2   -230249.68902      2264.323          44.400  
> 2023 09 07 19 36 44.4487448  0 22
G02  23341332.614 2   -714149.54001      2950.311          42.300  
G08  22549160.122 3    231123.74201      -922.910          40.100  
G10  21192057.840 2    248841.10601      -987.624          44.700  
G21  22488535.203 2   -565244.25701      2334.863          46.200  
G23  23336529.948 4    602237.75509     -2436.445          34.700  
G24  24588761.848 6         0.00000     -2405.000          22.300  
G27  22842694.719 3    705936.59901     -2859.318          39.600  
G28  23551280.285 3   -123299.76402      3226.388          39.000  
G31  25560757.037 5         0.00000      3493.600          28.000  
G32  20549522.552 2    -71269.44801       237.853          45.500  
R02  20679472.404 4   -468757.89903      1878.282          33.800  
R01  19751653.401 5         0.00000     -1415.750          27.900  
R24  19284138.458 3    216362.61802      -965.788          37.200  
R23  22124861.480 4         0.00000     -4221.245          29.600  
R17  20985103.004 2   -807192.48401      3275.166          47.000  
R08  23258184.892 4    862519.74503     -3419.193          34.900  
E07  23531890.894 3     40043.20104      -851.945          39.000  
E08  27095852.116 4     22591.42509     -2627.557          29.800  
E13  25877310.601 4      6602.49909     -2528.161          32.300  
E19  28545865.203 5         0.00000      2798.400          24.900  
E26  23169704.139 2     28457.70503      -142.457          43.100  
E33  24996045.184 2   -232511.21502      2261.792          44.500  
> 2023 09 07 19 36 45.4487448  0 21
G02  23340771.712 3   -717100.29601      2952.934          41.500  
G08  22549334.310 3    232045.24701      -918.516          40.700  
G10  21192247.297 2    249830.31801      -988.800          41.900  
G21  22488094.498 2   -567579.45401      2337.274          46.300  
G23  23336996.724 3    604676.36909     -2438.404          36.800  
G27  22843237.648 4    708793.98603     -2854.037          35.100  
G28  23550662.111 3   -126526.64502      3229.068          35.900  
G31  25560095.098 5         0.00000      3498.150          25.000  
G32  20549479.677 2    -71507.01601       239.156          44.700  
R02  20679142.316 4   -470638.13409      1882.495          31.500  
R01  19751920.826 4    359492.41909     -1414.795          33.800  
R24  19284313.239 3    217328.53702      -964.129          37.400  
R23  22125660.421 5         0.00000     -4217.600          26.400  
R17  20984487.831 2   -810467.43501      3276.579          46.900  
R08  23258826.153 4    865940.79409     -3431.214          33.700  
E07  23532055.485 3     40896.24004      -852.179          38.700  
E08  27096372.569 6         0.00000     -2630.050          22.300  
E13  25877794.460 4      9131.29108     -2527.378          32.900  
E19  28545333.966 5         0.00000      2811.200          25.800  
E26  23169730.227 2     28600.52503      -141.430          42.700  
E33  24995614.390 2   -234773.28803      2264.015          42.700  
> 2023 09 07 19 36 46.4487448  0 19
G02  23340206.901 2   -720056.66601      2957.225          42.000  
G08  22549511.778 2    232959.46401      -912.690          42.000  
G10  21192435.864 2    250817.28501      -987.480          43.300  
G21  22487648.122 2   -569920.07601      2341.383          46.200  
G23  23337458.997 3    607113.38609     -2437.817          38.700  
G27  22843773.369 3    711643.29202     -2847.375          36.800  
G28  23550051.423 4   -129759.32604      3233.918          33.000  
G31  25559410.683 4         0.00000      3504.818          29.500  
G32  20549431.410 2    -71748.93801       242.217          45.300  
R02  20678768.776 4         0.00000      1888.695          29.000  
R01  19752170.852 3    360904.94702     -1412.807          36.000  
R24  19284503.307 3    218289.70002      -960.752          36.800  
R23  22126491.749 5         0.00000     -4214.400          27.700  
R17  20983874.159 2   -813746.97801      3279.948          46.600  
R08  23259464.412 4         0.00000     -3420.050          34.200  
E07  23532215.573 3     41746.16804      -850.228          38.800  
E13  25878273.539 4     11655.84007     -2524.129          35.300  
E26  23169757.798 2     28739.15503      -138.382          42.800  
E33  24995183.283 3   -237040.58403      2267.942          41.900  
> 2023 09 07 19 36 47.4487448  0 22
G02  23339641.793 2   -723015.32601      2959.794          41.800  
G08  22549682.075 2    233869.98401      -908.552          43.100  
G10  21192620.539 2    251804.61001      -987.219          44.100  
G18  24845008.244 5         0.00000     -3615.350          27.500  
G21  22487203.525 2   -572262.82701      2343.940          46.200  
G23  23337926.070 3    609551.36109     -2438.480          39.700  
G27  22844315.390 3    714488.12701     -2842.456          39.900  
G28  23549443.440 4   -132995.34109      3236.919          30.400  
G31  25558755.637 5         0.00000      3507.300          25.300  
G32  20549386.144 2    -71992.19301       244.314          45.700  
R02  20678385.954 5         0.00000      1893.700          27.300  
R01  19752439.760 3    362317.23902     -1411.908          37.100  
R24  19284678.385 3    219249.26502      -958.414          37.700  
R23  22127254.708 4   1033489.51909     -4211.196          31.300  
R17  20983263.175 2   -817027.82101      3281.617          46.100  
R08  23260112.862 4    872795.82509     -3421.807          34.000  
E07  23532377.162 3     42595.91504      -849.216          38.900  
E08  27097356.778 5         0.00000     -2629.150          26.100  
E13  25878755.601 3     14178.94505     -2522.308          36.800  
E19  28544273.307 6         0.00000      2820.000          22.500  
E26  23169783.886 2     28876.59502      -136.401          43.700  
E33  24994750.378 3   -239309.86203      2270.433          41.400  
> 2023 09 07 19 36 48.4487448  0 22
G02  23339081.484 2   -725971.75001      2949.777          41.700  
G08  22549855.356 2    234780.86201      -916.460          43.600  
G10  21192812.701 2    252796.32001      -999.244          41.700  
G18  24845695.975 5         0.00000     -3625.150          27.300  
G21  22486756.538 2   -574603.37201      2333.891          45.300  
G23  23338392.549 3    611994.51209     -2450.751          37.300  
G27  22844862.228 3    717332.23801     -2848.860          40.600  
G28  23548813.592 4   -136229.31609      3228.941          30.000  
G31  25558093.087 4   -887556.25904      3503.313          33.500  
G32  20549340.285 2    -72233.02801       234.225          45.700  
R02  20678071.762 4   -476305.69507      1884.777          30.300  
R01  19752705.684 3    363733.43602     -1423.835          36.300  
R24  19284851.666 3    220210.99202      -968.190          37.600  
R23  22128049.460 4   1037703.54203     -4219.097          35.400  
R17  20982651.911 2   -820305.52401      3270.447          45.300  
R08  23260725.923 4         0.00000     -3436.868          29.200  
E07  23532539.955 3     43449.14404      -860.405          38.100  
E08  27097871.525 5         0.00000     -2640.450          25.000  
E13  25879234.662 3     16704.41104     -2531.400          38.700  
E19  28543736.974 4     -1530.54109      2815.998          29.500  
E26  23169809.067 2     29016.37802      -146.412          43.500  
E33  24994320.177 3   -241576.90103      2260.267          41.000  
> 2023 09 07 19 36 49.4487448  0 21
G02  23338520.861 2   -728919.92201      2950.004          41.900  
G08  22550027.432 2    235697.54301      -913.665          43.600  
G10  21193003.676 3    253798.12901     -1000.746          39.600  
G18  24846399.882 4      8896.78509     -3623.175          29.600  
G21  22486309.236 2   -576935.71001      2334.182          44.700  
G23  23338848.541 5         0.00000     -2453.300          28.200  
G27  22845401.841 3    720180.26401     -2844.024          40.400  
G31  25557420.957 4   -891060.74903      3509.185          33.600  
G32  20549295.001 2    -72466.30201       235.459          45.400  
R02  20677679.324 4   -478190.37204      1887.819          31.500  
R01  19752972.795 4    365159.37603     -1424.764          35.800  
R24  19285039.343 3    221179.98802      -966.551          37.900  
R23  22128837.024 3   1041922.46002     -4215.270          37.200  
R17  20982039.426 2   -823573.81601      3269.754          43.800  
R08  23261406.761 4         0.00000     -3437.500          33.900  
E07  23532707.529 3     44311.57204      -860.864          38.700  
E08  27098357.182 5         0.00000     -2644.500          27.900  
E13  25879717.335 3     19236.49904     -2529.243          39.100  
E19  28543202.736 5         0.00000      2821.450          28.600  
E26  23169837.842 2     29164.05003      -145.510          43.200  
E33  24993888.180 3   -243835.47304      2260.410          40.300  
> 2023 09 07 19 36 50.4487448  0 21
G02  23337959.662 2   -731871.43101      2954.322          41.700  
G08  22550200.713 2    236608.83901      -908.222          43.400  
G10  21193194.041 2    254798.17401      -998.127          42.400  
G18  24847078.015 4     12516.87409     -3617.321          35.100  
G21  22485870.642 2   -579271.31801      2338.293          43.600  
G23  23339332.697 4    616899.24509     -2449.333          29.700  
G27  22845941.175 3    723021.09001     -2837.437          40.900  
G31  25556762.002 4   -894571.96609      3513.360          30.000  
G32  20549251.236 2    -72703.07101       239.163          43.900  
R02  20677354.960 4   -480080.71004      1893.445          31.500  
R01  19753245.611 3    366583.43502     -1421.911          36.100  
R24  19285221.924 3    222145.07702      -962.679          37.300  
R23  22129618.584 4   1046134.79903     -4209.477          35.600  
R17  20981424.254 2   -826844.62801      3273.243          43.400  
R08  23262039.017 4    883115.82604     -3435.899          31.200  
E07  23532867.618 3     45171.55604      -857.897          39.000  
E08  27098872.836 5         0.00000     -2644.800          27.400  
E13  25880195.209 3     21763.49304     -2524.560          38.800  
E19  28542662.809 5         0.00000      2827.750          26.000  
E26  23169862.726 3     29308.24703      -141.881          41.300  
E33  24993459.777 3   -246097.25103      2264.453          41.600  
> 2023 09 07 19 36 51.4487448  0 21
G02  23337394.240 2   -734829.52401      2964.052          41.800  
G08  22550373.383 2    237513.46201      -899.087          42.900  
G10  21193382.015 2    255793.56901      -990.501          42.400  
G18  24847766.042 3     16131.87609     -3610.814          36.300  
G21  22485425.156 2   -581613.24901      2347.733          43.800  
G23  23339818.372 5         0.00000     -2445.950          27.400  
G27  22846481.399 3    725855.13301     -2828.944          40.000  
G31  25556089.279 5         0.00000      3525.200          28.500  
G32  20549203.266 2    -72944.92801       246.863          42.300  
R02  20676979.623 4   -481977.69307      1902.431          30.100  
R01  19753513.018 3    368002.31102     -1413.506          36.600  
R24  19285405.692 3    223105.07202      -955.184          37.100  
R23  22130408.834 4   1050341.68303     -4202.587          33.700  
R17  20980821.366 2   -830121.39801      3282.391          43.400  
R08  23262668.882 4    886547.81809     -3426.957          34.100  
E07  23533032.208 3     46026.73204      -850.353          38.200  
E08  27099377.374 6         0.00000     -2640.150          22.800  
E13  25880677.271 3     24285.62604     -2517.977          38.100  
E19  28542111.190 5         0.00000      2835.550          25.000  
E26  23169889.704 3     29447.33104      -134.259          39.800  
E33  24993026.279 3   -248365.34803      2273.843          41.100  
> 2023 09 07 19 36 52.4487448  0 22
G02  23336831.243 2   -737796.58601      2963.052          42.300  
G08  22550546.664 2    238409.96201      -900.830          42.500  
G10  21193570.878 2    256782.05801      -993.304          41.700  
G18  24848446.862 3     19741.79309     -3616.001          36.000  
G21  22484975.167 2   -583963.85701      2346.594          44.600  
G23  23340261.468 4    621789.06309     -2446.630          30.000  
G27  22847015.026 3    728682.04002     -2831.700          38.900  
G28  23546345.991 5         0.00000      3242.550          26.500  
G31  25555413.536 5         0.00000      3524.250          25.900  
G32  20549157.703 2    -73193.62101       243.716          41.900  
R02  20676642.049 5         0.00000      1900.900          27.300  
R01  19753766.047 3    369413.49602     -1415.900          37.100  
R24  19285570.580 3    224058.53902      -958.643          37.800  
R23  22131197.881 4   1054543.06203     -4207.135          33.300  
R17  20980197.207 2   -833406.65301      3281.006          44.500  
R08  23263305.938 4    889972.83609     -3430.010          34.200  
E07  23533198.596 4     46875.01506      -853.095          36.300  
E08  27099875.037 5         0.00000     -2636.100          24.500  
E13  25881155.442 3     26802.54204     -2522.410          38.700  
E19  28541587.753 6         0.00000      2843.450          22.600  
E26  23169913.995 3     29579.55304      -136.925          38.700  
E33  24992593.984 3   -250642.13703      2272.793          41.200  
> 2023 09 07 19 36 53.4487448  0 22
G02  23336266.432 2   -740755.90001      2958.382          41.700  
G08  22550717.554 2    239314.96801      -906.293          42.200  
G10  21193760.649 3    257780.04801      -999.617          40.700  
G18  24849147.174 4     23363.60509     -3624.202          32.300  
G21  22484528.476 2   -586306.58701      2341.749          44.800  
G23  23340717.738 4    624241.08709     -2454.119          32.300  
G27  22847557.362 3    731518.31102     -2837.939          39.000  
G28  23545731.726 5         0.00000      3234.150          28.100  
G31  25554768.698 5         0.00000      3515.450          24.000  
G32  20549112.734 2    -73432.91701       237.597          42.500  
R02  20676260.726 5         0.00000      1892.050          26.500  
R01  19754025.374 4    370833.59703     -1421.565          35.700  
R24  19285754.644 3    225021.95102      -965.335          38.400  
R23  22131971.641 4   1058755.82604     -4215.241          32.200  
R17  20979590.724 2   -836683.48301      3275.644          45.100  
R08  23263936.100 4    893407.36509     -3436.726          34.900  
E07  23533358.684 4     47732.60806      -859.283          35.800  
E08  27100366.697 6         0.00000     -2645.100          23.400  
E13  25881635.410 3     29330.64304     -2530.474          38.700  
E19  28541049.937 6         0.00000      2825.850          23.600  
E26  23169942.474 3     29721.03304      -143.182          39.900  
E33  24992162.266 3   -252911.09703      2267.990          41.000  
> 2023 09 07 19 36 54.4487448  0 19
G02  23335707.310 2   -743716.35201      2963.094          41.700  
G08  22550886.629 2    240219.58301      -902.350          41.800  
G10  21193948.920 3    258778.12702      -995.728          39.500  
G18  24849836.702 4         0.00000     -3622.104          29.400  
G21  22484085.084 2   -588650.35201      2346.372          45.500  
G23  23341184.828 4         0.00000     -2451.594          29.500  
G27  22848096.381 3    734354.87302     -2834.562          39.000  
G31  25554082.469 5         0.00000      3514.350          28.200  
G32  20549066.857 2    -73671.96301       241.423          43.200  
R02  20675937.548 5         0.00000      1900.050          27.600  
R01  19754310.476 4    372253.39103     -1417.152          35.700  
R24  19285930.612 3    225986.07402      -961.951          38.200  
R23  22132777.195 4   1062970.28204     -4212.787          31.700  
R17  20978975.848 2   -839960.99001      3280.044          44.700  
R08  23264604.653 4         0.00000     -3431.250          29.500  
E07  23533521.774 4     48590.37007      -855.335          35.400  
E13  25882119.270 3     31860.43404     -2528.120          37.800  
E26  23169970.045 3     29862.72603      -139.332          40.700  
E33  24991728.471 3   -255181.15303      2272.698          40.700  
> 2023 09 07 19 36 55.4487448  0 21
G02  23335138.607 3   -746682.32101      2968.926          41.200  
G08  22551058.723 3    241119.21701      -896.658          41.100  
G10  21194136.300 3    259771.07902      -989.990          37.400  
G18  24850525.619 4     30607.22607     -3617.356          30.500  
G21  22483637.486 2   -590999.60901      2352.255          45.200  
G23  23341662.092 4         0.00000     -2447.014          28.900  
G27  22848636.605 3    737186.73702     -2828.772          39.400  
G31  25553405.836 4   -912158.20009      3520.806          30.500  
G32  20549017.403 2    -73916.06101       247.288          43.100  
R02  20675573.886 5         0.00000      1907.150          26.600  
R01  19754559.002 4    373667.73603     -1411.253          35.900  
R24  19286109.303 3    226945.41402      -956.364          38.100  
R23  22133553.364 4   1067180.26309     -4207.484          32.100  
R17  20978362.177 2   -843243.85801      3285.711          44.600  
R08  23265229.109 4    900274.64009     -3427.767          35.000  
E07  23533685.457 4     49442.93407      -849.336          34.800  
E08  27101378.199 6         0.00000     -2635.400          23.900  
E13  25882599.831 3     34386.13905     -2522.885          36.900  
E19  28539967.972 6         0.00000      2838.350          21.700  
E26  23169997.041 3     29999.27503      -133.472          41.400  
E33  24991296.770 3   -257456.78104      2278.680          39.800  
> 2023 09 07 19 36 56.4487448  0 21
G02  23334575.000 3   -749652.10301      2968.749          41.500  
G08  22551229.595 3    242015.18001      -897.136          41.400  
G10  21194329.666 3    260760.10702      -989.950          36.600  
G18  24851212.757 4     34223.87703     -3617.749          33.900  
G21  22483188.998 2   -593352.76401      2352.111          45.800  
G23  23342130.962 4    631589.34809     -2446.340          29.800  
G27  22849174.735 3    740014.62402     -2829.038          39.500  
G31  25552733.706 4   -915679.85409      3520.694          30.900  
G32  20548972.137 2    -74164.15901       246.927          43.600  
R02  20675214.132 5         0.00000      1909.150          27.900  
R01  19754838.415 3    375078.20402     -1411.554          36.400  
R24  19286296.369 3    227901.05702      -957.059          37.800  
R23  22134340.910 4   1071387.43503     -4208.034          33.300  
R17  20977752.396 2   -846530.33101      3285.340          44.500  
R08  23265870.666 4    903701.68509     -3428.010          32.600  
E07  23533846.453 4     50291.48808      -849.676          33.800  
E08  27101890.537 5         0.00000     -2634.850          25.400  
E13  25883079.206 4     36908.12206     -2523.059          36.200  
E19  28539421.762 6         0.00000      2843.600          23.100  
E26  23170020.721 3     30131.70903      -133.498          41.800  
E33  24990863.568 3   -259736.40804      2278.625          40.000  
> 2023 09 07 19 36 57.4487448  0 21
G02  23334010.782 3   -752619.71301      2966.942          41.300  
G08  22551398.985 3    242913.93701      -899.780          41.100  
G10  21194509.543 3    261751.02002      -991.638          35.900  
G18  24851895.985 3     37842.94802     -3620.056          35.800  
G21  22482739.916 2   -595703.66701      2350.238          45.800  
G23  23342575.855 4         0.00000     -2448.414          29.000  
G27  22849709.864 3    742845.26102     -2831.663          39.300  
G28  23543277.911 4     -1416.73109      3238.631          29.800  
G31  25552072.657 4         0.00000      3518.441          29.000  
G32  20548927.168 2    -74409.84301       244.810          43.400  
R02  20674860.992 5         0.00000      1902.450          28.400  
R01  19755093.223 3    376490.81502     -1413.339          37.100  
R24  19286478.340 3    228859.62402      -959.704          37.600  
R23  22135130.863 4   1075596.97203     -4210.687          33.800  
R17  20977139.318 2   -849814.37201      3283.249          45.300  
R08  23266505.627 4    907130.38003     -3429.325          33.700  
E07  23534008.932 4     51142.09608      -851.217          33.000  
E08  27102393.592 5         0.00000     -2636.100          25.400  
E13  25883558.267 4     39432.51706     -2525.277          36.000  
E26  23170047.402 3     30266.41703      -135.506          41.800  
E33  24990429.774 3   -262013.88104      2276.822          40.200  
> 2023 09 07 19 36 58.4487448  0 22
G02  23333444.784 3   -755587.49701      2969.476          41.500  
G08  22551574.953 3    243813.17601      -897.814          41.200  
G10  21194697.796 4    262742.22703      -990.020          35.400  
G18  24852591.202 3     41462.84802     -3618.953          35.600  
G21  22482291.114 2   -598054.66501      2352.579          45.800  
G23  23343045.039 4    636484.46209     -2445.908          32.200  
G27  22850253.385 3    745676.42201     -2829.829          39.900  
G28  23542651.658 5         0.00000      3240.600          27.600  
G31  25551406.513 5         0.00000      3516.000          26.100  
G32  20548878.290 2    -74654.98201       246.278          43.300  
R02  20674502.443 4         0.00000      1904.589          29.400  
R01  19755357.035 3    377903.61202     -1411.484          36.600  
R24  19286652.825 3    229819.20602      -958.637          37.400  
R23  22135905.828 4   1079807.49003     -4209.470          33.300  
R17  20976531.649 2   -853098.16701      3285.263          44.900  
R08  23267159.783 4    910558.92209     -3426.829          33.700  
E07  23534172.318 4     51992.88308      -849.756          33.400  
E08  27102881.657 6         0.00000     -2639.000          23.500  
E13  25884041.237 4     41957.63807     -2524.194          35.100  
E19  28538347.300 6         0.00000      2832.600          21.400  
E26  23170074.380 3     30401.57103      -134.044          41.300  
E33  24989995.682 3   -264291.49504      2279.227          40.100  
> 2023 09 07 19 36 59.4487448  0 19
G02  23332881.474 3   -758560.96201      2975.541          41.500  
G08  22551740.136 3    244707.19701      -892.090          41.000  
G10  21194889.364 3    263728.95702      -985.368          36.400  
G18  24853273.523 3     45078.81702     -3614.891          36.100  
G21  22481845.924 2   -600411.14001      2358.486          45.700  
G23  23343514.206 4    638927.49909     -2442.293          31.500  
G27  22850788.514 3    748502.61501     -2824.426          39.600  
G31  25550730.194 4   -926240.14409      3525.866          30.600  
G32  20548833.024 2    -74904.51401       250.951          43.300  
R02  20674145.987 5         0.00000      1908.650          28.300  
R01  19755625.350 3    379311.60102     -1406.333          36.400  
R24  19286830.311 3    230774.67602      -954.072          37.400  
R23  22136699.987 4   1084013.83304     -4205.082          32.700  
R17  20975913.475 2   -856387.20101      3290.849          44.400  
R08  23267786.351 5         0.00000     -3426.450          26.800  
E07  23534329.719 4     52839.38308      -844.935          33.800  
E13  25884522.706 4     44478.90407     -2520.138          34.800  
E26  23170099.561 3     30532.29103      -129.216          41.200  
E33  24989560.683 3   -266574.61204      2285.141          40.000  
> 2023 09 07 19 37 00.4487448  0 21
G02  23332312.457 2   -761534.35501      2973.188          41.800  
G08  22551913.731 3    245601.73601      -895.020          41.300  
G10  21195074.651 3    264717.08102      -988.987          36.600  
G18  24853963.644 3     48696.92602     -3619.297          35.600  
G21  22481395.935 2   -602767.35701      2355.919          46.000  
G23  23343983.390 4    641372.23109     -2445.743          30.400  
G27  22851328.738 3    751329.57002     -2827.530          39.400  
G28  23541426.094 5         0.00000      3243.550          28.300  
G31  25550062.549 5         0.00000      3524.150          27.200  
G32  20548783.867 2    -75152.60501       247.243          43.900  
R02  20673773.931 5         0.00000      1908.750          28.300  
R01  19755889.773 3    380720.70702     -1409.771          36.900  
R24  19287012.875 3    231731.89402      -958.248          37.600  
R23  22137486.329 4   1088222.14304     -4209.485          32.200  
R17  20975293.800 2   -859675.56301      3287.914          44.100  
R08  23268423.406 5         0.00000     -3427.750          27.900  
E07  23534491.605 4     53687.18207      -848.656          34.500  
E08  27103888.063 6         0.00000     -2636.550          20.400  
E13  25884996.671 4     47002.18207     -2524.333          35.100  
E26  23170122.351 3     30664.31803      -132.881          41.700  
E33  24989125.684 3   -268857.50204      2282.576          39.900  
> 2023 09 07 19 37 01.4487448  0 20
G02  23331747.349 2   -764508.36001      2974.975          41.700  
G08  22552081.306 3    246496.20001      -893.913          41.200  
G10  21195268.610 3    265705.95902      -988.766          36.000  
G18  24854653.765 4     52316.59903     -3620.394          34.600  
G21  22480946.261 2   -605124.00101      2357.489          46.000  
G23  23344458.262 4    643818.92209     -2446.926          30.300  
G27  22851863.866 3    754156.89202     -2827.051          39.400  
G28  23540802.232 4         0.00000      3240.250          28.900  
G31  25549393.717 5         0.00000      3521.850          27.400  
G32  20548737.694 2    -75399.88601       247.338          43.600  
R02  20673458.553 5         0.00000      1904.250          28.500  
R01  19756147.007 3    382130.13102     -1409.045          37.100  
R24  19287191.844 3    232690.25502      -958.505          37.800  
R23  22138290.976 4   1092431.43009     -4210.348          31.600  
R17  20974674.125 2   -862964.04001      3289.159          44.800  
R08  23269077.248 5         0.00000     -3426.350          27.200  
E07  23534651.396 4     54535.81908      -848.488          33.800  
E13  25885482.049 4     49527.07807     -2525.427          35.100  
E26  23170148.421 3     30797.17203      -132.724          41.600  
E33  24988692.186 3   -271140.82104      2284.162          39.600  
> 2023 09 07 19 37 02.4487448  0 21
G02  23331180.147 2   -767485.65801      2978.621          41.800  
G08  22552252.492 3    247388.24001      -891.058          40.900  
G10  21195451.785 3    266693.37802      -986.940          36.700  
G18  24855342.385 4     55936.41303     -3620.023          34.100  
G21  22480498.663 2   -607483.69601      2360.892          45.700  
G23  23344906.140 4    646264.68309     -2445.854          30.200  
G27  22852400.809 3    756982.47202     -2824.984          39.300  
G28  23540198.454 4         0.00000      3240.745          28.900  
G31  25548707.191 5         0.00000      3524.200          25.700  
G32  20548686.722 2    -75648.51101       249.001          43.800  
R02  20673037.950 5         0.00000      1911.800          28.700  
R01  19756415.007 3    383537.51702     -1406.692          37.000  
R24  19287370.831 3    233647.62202      -957.193          37.400  
R23  22139079.726 4   1096641.59404     -4209.738          31.300  
R17  20974063.158 2   -866255.29401      3292.260          44.500  
R08  23269716.711 5         0.00000     -3420.000          26.000  
E07  23534814.469 4     55382.97808      -846.644          33.600  
E08  27104903.457 6         0.00000     -2639.000          22.400  
E13  25885960.517 4     52051.76007     -2524.968          35.000  
E26  23170172.119 3     30928.59603      -131.035          41.500  
E33  24988257.780 3   -273427.24304      2287.616          40.300  
> 2023 09 07 19 37 03.4487448  0 21
G02  23330617.430 2   -770464.97001      2980.669          42.100  
G08  22552422.475 3    248278.96801      -889.588          41.000  
G10  21195640.945 3    267680.60902      -986.490          37.700  
G18  24856025.928 4     59557.23503     -3620.628          34.900  
G21  22480049.267 2   -609845.14201      2362.713          45.800  
G23  23345378.011 4    648710.95109     -2445.378          32.500  
G27  22852938.625 3    759807.42502     -2823.976          39.300  
G28  23539571.590 5         0.00000      3241.950          28.200  
G31  25548046.438 4   -940329.74609      3523.551          30.000  
G32  20548643.253 2    -75897.21501       249.410          43.600  
R02  20672737.562 5         0.00000      1911.000          27.500  
R01  19756671.630 3    384944.21002     -1405.764          36.800  
R24  19287539.313 3    234605.31902      -957.173          37.400  
R23  22139837.606 4   1100851.61809     -4210.127          31.800  
R17  20973445.281 2   -869547.92301      3293.698          44.800  
R08  23270327.678 4    927683.07509     -3422.823          30.700  
E07  23534978.169 4     56229.88608      -846.281          34.200  
E08  27105375.921 6         0.00000     -2631.650          24.100  
E13  25886442.875 4     54577.57406     -2525.414          35.600  
E26  23170198.189 3     31059.84503      -130.533          41.600  
E33  24987821.873 3   -275715.43604      2289.431          40.100  
