     2.11           OBSERVATION DATA    M (MIXED)           RINEX VERSION / TYPE
CONVBIN 2.4.2                           20240608 124700 UTC PGM / RUN BY / DATE 
log: rtk_base.rtcm3                                         COMMENT             
format: RTCM 3, station ID: 4024                            COMMENT             
                                                            MARKER NAME         
                                                            MARKER NUMBER       
                                                            OBSERVER / AGENCY   
1832414             LEICA GR50          4.20                REC # / TYPE / VERS 
                    GPPNULLANTENNA                          ANT # / TYPE        
 -1619893.6000  5730732.7900  2276112.2500                  APPROX POSITION XYZ 
        0.0000        0.0000        0.0000                  ANTENNA: DELTA H/E/N
     1     1                                                WAVELENGTH FACT L1/2
     6    C1    L1    P1    P2    L2    C2                  # / TYPES OF OBSERV 
  2024     6     8    12    43   44.0000000     GPS         TIME OF FIRST OBS   
  2024     6     8    12    45   21.0000000     GPS         TIME OF LAST OBS    
                                                            END OF HEADER       
 24  6  8 12 43 44.0000000  0 28G10G18G23G32R 3R13R18R19E 4E10E11E12
                                E19E21J 3J 4C 1C 2C 3C 5C 6C 7C 8C 9
                                C10C12C13C16
  21928211.263   115233528.427                    21928216.606    89792381.693  
  21928216.248  
  21930519.476   115245657.840                    21930526.266    89801838.947  
  21930526.159  
  20533931.249   107906537.042                    20533934.018    84083027.207  
  20533933.876  
  22559068.113   118548703.425                    22559074.117    92375637.088  
  22559074.420  
  22303247.353   119391029.057                    22303252.875    92859712.174  
  22303252.785  
  23032935.285   122994589.134                    23032942.165    95662486.310  
  23032942.183  
  22284221.597   118954688.344                    22284234.623    92520366.188  
  22284234.534  
  20939105.466   112010094.576                    20939112.059    87118992.483  
  20939112.542  
  25263285.387   132759461.351                                                  
                
  24678446.936   129686114.537                                                  
                
  25467693.054   133833631.076                                                  
                
  24115420.790   126727392.471                                                  
                
  24953793.534   131133070.469                                                  
                
  26550649.301   139524604.598                                                  
                
  36233657.846   190409156.996                                   148370811.111  
  36233667.531  
  39111227.713   205530888.767                                   160153954.633  
  39111231.501  
                 195052803.250                                   195052803.250  
  37457840.111  
                 189862122.006                                   189862122.006  
  36461024.402  
                 188229595.312                                   188229595.312  
  36147514.771  
                 200878475.070                                   200878475.070  
  38576599.143  
                 186871528.350                                   186871528.350  
  35886712.164  
                 211152061.002                                   211152061.002  
  40549533.336  
                 187772686.739                                   187772686.739  
  36059770.238  
                 190303968.656                                   190303968.656  
  36545876.280  
                 209398221.771                                   209398221.771  
  40212726.895  
                 126860252.528                                   126860252.528  
  24362177.702  
                 186943933.870                                   186943933.870  
  35900616.890  
                 189047035.850                                   189047035.850  
  36304495.478  
 24  6  8 12 43 45.0000000  0 28G10G18G23G32R 3R13R18R19E 4E10E11E12
                                E19E21J 3J 4C 1C 2C 3C 5C 6C 7C 8C 9
                                C10C12C13C16
  21927751.868   115231114.362                    21927757.211    89790500.606  
  21927756.871  
  21931081.350   115248610.344                    21931088.104    89804139.597  
  21931088.015  
  20533791.656   107905803.418                    20533794.426    84082455.552  
  20533794.283  
  22558943.637   118548049.304                    22558949.641    92375127.386  
  22558949.927  
  22303388.340   119391783.731                    22303393.861    92860299.142  
  22303393.754  
  23033475.859   122997475.758                    23033482.739    95664731.462  
  23033482.756  
  22284926.387   118958450.573                    22284939.413    92523292.366  
  22284939.342  
  20939461.381   112011998.506                    20939467.974    87120473.318  
  20939468.457  
  25263217.056   132759102.253                                                  
                
  24678318.905   129685441.774                                                  
                
  25467335.799   133831753.733                                                  
                
  24115542.979   126728034.639                                                  
                
  24953989.111   131134098.286                                                  
                
  26550470.289   139523663.890                                                  
                
  36233721.156   190409489.780                                   148371070.427  
  36233730.877  
  39111063.997   205530028.469                                   160153284.275  
  39111067.803  
                 195052833.069                                   195052833.069  
  37457845.829  
                 189862135.030                                   189862135.030  
  36461026.904  
                 188229627.315                                   188229627.315  
  36147520.918  
                 200878471.566                                   200878471.566  
  38576598.482  
                 186871636.615                                   186871636.615  
  35886732.945  
                 211151980.088                                   211151980.088  
  40549517.826  
                 187772174.459                                   187772174.459  
  36059671.869  
                 190303913.118                                   190303913.118  
  36545865.594  
                 209398501.804                                   209398501.804  
  40212780.680  
                 126861409.795                                   126861409.795  
  24362399.939  
                 186943270.985                                   186943270.985  
  35900489.591  
                 189047293.917                                   189047293.917  
  36304545.046  
 24  6  8 12 43 46.0000000  0 28G10G18G23G32R 3R13R18R19E 4E10E11E12
                                E19E21J 3J 4C 1C 2C 3C 5C 6C 7C 8C 9
                                C10C12C13C16
  21927292.491   115228700.405                    21927297.852    89788619.603  
  21927297.495  
  21931643.241   115251563.206                    21931650.013    89806440.528  
  21931649.924  
  20533652.117   107905070.179                    20533654.886    84081884.197  
  20533654.744  
  22558819.179   118547395.280                    22558825.165    92374617.766  
  22558825.469  
  22303529.326   119392538.401                    22303534.830    92860886.104  
  22303534.741  
  23034016.540   123000362.961                    23034023.419    95666977.065  
  23034023.437  
  22285631.213   118962212.912                    22285644.239    92526218.627  
  22285644.150  
  20939817.439   112013903.144                    20939824.015    87121954.703  
  20939824.515  
  25263148.725   132758743.206                                                  
                
  24678190.980   129684769.477                                                  
                
  25466978.651   133829876.748                                                  
                
  24115665.292   126728677.292                                                  
                
  24954184.723   131135126.062                                                  
                
  26550291.349   139522723.494                                                  
                
  36233784.502   190409822.652                                   148371329.811  
  36233794.222  
  39110900.281   205529168.112                                   160152613.867  
  39110904.087  
                 195052862.909                                   195052862.909  
  37457851.565  
                 189862148.086                                   189862148.086  
  36461029.423  
                 188229659.341                                   188229659.341  
  36147527.083  
                 200878468.097                                   200878468.097  
  38576597.821  
                 186871745.005                                   186871745.005  
  35886753.763  
                 211151899.031                                   211151899.031  
  40549502.262  
                 187771662.299                                   187771662.299  
  36059573.500  
                 190303857.739                                   190303857.739  
  36545854.980  
                 209398781.662                                   209398781.662  
  40212834.412  
                 126862567.408                                   126862567.408  
  24362622.248  
                 186942608.205                                   186942608.205  
  35900362.310  
                 189047552.104                                   189047552.104  
  36304594.615  
 24  6  8 12 43 47.0000000  0 28G10G18G23G32R 3R13R18R19E 4E10E11E12
                                E19E21J 3J 4C 1C 2C 3C 5C 6C 7C 8C 9
                                C10C12C13C16
  21926833.132   115226286.466                    21926838.493    89786738.610  
  21926838.136  
  21932205.204   115254516.341                    21932211.976    89808741.670  
  21932211.905  
  20533512.649   107904337.212                    20533515.401    84081313.056  
  20533515.258  
  22558694.704   118546741.250                    22558700.708    92374108.137  
  22558700.994  
  22303670.259   119393292.955                    22303675.799    92861472.977  
  22303675.692  
  23034557.310   123003250.665                    23034564.190    95669223.063  
  23034564.208  
  22286336.021   118965975.248                    22286349.047    92529144.884  
  22286348.993  
  20940173.604   112015808.383                    20940180.198    87123436.553  
  20940180.680  
  25263080.412   132758384.135                                                  
                
  24678063.110   129684097.562                                                  
                
  25466621.503   133828000.013                                                  
                
  24115787.641   126729320.315                                                  
                
  24954380.264   131136153.676                                                  
                
  26550112.426   139521783.314                                                  
                
  36233847.830   190410155.522                                   148371589.191  
  36233857.550  
  39110736.511   205528307.599                                   160151943.340  
  39110740.317  
                 195052892.652                                   195052892.652  
  37457857.283  
                 189862161.017                                   189862161.017  
  36461031.907  
                 188229691.274                                   188229691.274  
  36147533.194  
                 200878464.517                                   200878464.517  
  38576597.124  
                 186871853.416                                   186871853.416  
  35886774.580  
                 211151817.674                                   211151817.674  
  40549486.626  
                 187771150.176                                   187771150.176  
  36059475.167  
                 190303802.384                                   190303802.384  
  36545844.366  
                 209399061.276                                   209399061.276  
  40212888.127  
                 126863725.303                                   126863725.303  
  24362844.610  
                 186941945.434                                   186941945.434  
  35900235.029  
                 189047810.332                                   189047810.332  
  36304644.219  
 24  6  8 12 43 48.0000000  0 28G10G18G23G32R 3R13R18R19E 4E10E11E12
                                E19E21J 3J 4C 1C 2C 3C 5C 6C 7C 8C 9
                                C10C12C13C16
  21926373.773   115223872.569                    21926379.134    89784857.655  
  21926378.777  
  21932767.220   115257469.758                    21932773.975    89811043.038  
  21932773.903  
  20533373.217   107903604.595                    20533375.987    84080742.185  
  20533375.862  
  22558570.246   118546087.247                    22558576.250    92373598.533  
  22558576.536  
  22303811.210   119394047.452                    22303816.768    92862059.808  
  22303816.642  
  23035098.188   123006138.923                    23035105.067    95671469.494  
  23035105.085  
  22287040.864   118969737.653                    22287053.891    92532071.199  
  22287053.801  
  20940529.877   112017714.213                    20940536.471    87124918.863  
  20940536.971  
  25263012.063   132758025.073                                                  
                
  24677935.310   129683426.060                                                  
                
  25466264.426   133826123.595                                                  
                
  24115910.080   126729963.746                                                  
                
  24954575.769   131137181.164                                                  
                
  26549933.557   139520843.419                                                  
                
  36233911.193   190410488.405                                   148371848.584  
  36233920.896  
  39110572.759   205527446.961                                   160151272.711  
  39110576.547  
                 195052922.372                                   195052922.372  
  37457862.983  
                 189862173.939                                   189862173.939  
  36461034.391  
                 188229723.163                                   188229723.163  
  36147539.323  
                 200878460.894                                   200878460.894  
  38576596.427  
                 186871961.916                                   186871961.916  
  35886795.397  
                 211151736.132                                   211151736.132  
  40549470.955  
                 187770638.118                                   187770638.118  
  36059376.834  
                 190303747.110                                   190303747.110  
  36545833.734  
                 209399340.728                                   209399340.728  
  40212941.805  
                 126864883.483                                   126864883.483  
  24363067.026  
                 186941282.721                                   186941282.721  
  35900107.748  
                 189048068.609                                   189048068.609  
  36304693.824  
 24  6  8 12 43 49.0000000  0 28G10G18G23G32R 3R13R18R19E 4E10E11E12
                                E19E21J 3J 4C 1C 2C 3C 5C 6C 7C 8C 9
                                C10C12C13C16
  21925914.450   115221458.732                    21925919.811    89782976.746  
  21925919.436  
  21933329.291   115260423.486                    21933336.063    89813344.644  
  21933335.974  
  20533233.857   107902872.300                    20533236.644    84080171.571  
  20533236.501  
  22558445.806   118545433.311                    22558451.810    92373088.979  
  22558452.096  
  22303952.161   119394801.943                    22303957.701    92862646.629  
  22303957.575  
  23035639.172   123009027.700                    23035646.052    95673716.323  
  23035646.070  
  22287745.708   118973500.147                    22287758.716    92534997.581  
  22287758.645  
  20940886.292   112019620.706                    20940892.868    87126401.693  
  20940893.369  
  25262943.750   132757666.017                                                  
                
  24677807.618   129682754.996                                                  
                
  25465907.421   133824247.476                                                  
                
  24116032.590   126730607.593                                                  
                
  24954771.274   131138208.562                                                  
                
  26549754.760   139519903.770                                                  
                
  36233974.539   190410821.336                                   148372108.010  
  36233984.260  
  39110408.954   205526586.226                                   160150602.010  
  39110412.760  
                 195052952.011                                   195052952.011  
  37457868.666  
                 189862186.814                                   189862186.814  
  36461036.857  
                 188229755.027                                   188229755.027  
  36147545.434  
                 200878457.239                                   200878457.239  
  38576595.730  
                 186872070.496                                   186872070.496  
  35886816.251  
                 211151654.417                                   211151654.417  
  40549455.284  
                 187770126.152                                   187770126.152  
  36059278.500  
                 190303691.918                                   190303691.918  
  36545823.119  
                 209399619.909                                   209399619.909  
  40212995.394  
                 126866041.979                                   126866041.979  
  24363289.513  
                 186940620.048                                   186940620.048  
  35899980.503  
                 189048326.979                                   189048326.979  
  36304743.446  
 24  6  8 12 43 50.0000000  0 28G10G18G23G32R 3R13R18R19E 4E10E11E12
                                E19E21J 3J 4C 1C 2C 3C 5C 6C 7C 8C 9
                                C10C12C13C16
  21925455.145   115219045.034                    21925460.488    89781095.944  
  21925460.130  
  21933891.450   115263377.583                    21933898.222    89815646.539  
  21933898.133  
  20533094.603   107902140.425                    20533097.373    84079601.281  
  20533097.230  
  22558321.384   118544779.460                    22558327.370    92372579.492  
  22558327.674  
  22304093.094   119395556.440                    22304098.633    92863233.458  
  22304098.544  
  23036180.246   123011917.104                    23036187.144    95675963.634  
  23036187.162  
  22288450.569   118977262.790                    22288463.578    92537924.076  
  22288463.524  
  20941242.815   112021527.898                    20941249.409    87127885.065  
  20941249.891  
  25262875.436   132757307.046                                                  
                
  24677680.016   129682084.413                                                  
                
  25465550.451   133822371.729                                                  
                
  24116155.207   126731251.939                                                  
                
  24954966.779   131139235.903                                                  
                
  26549575.998   139518964.462                                                  
                
  36234037.920   190411154.367                                   148372367.517  
  36234047.605  
  39110245.166   205525725.434                                   160149931.264  
  39110248.955  
                 195052981.720                                   195052981.720  
  37457874.384  
                 189862199.710                                   189862199.710  
  36461039.341  
                 188229786.905                                   188229786.905  
  36147551.581  
                 200878453.602                                   200878453.602  
  38576595.015  
                 186872179.235                                   186872179.235  
  35886837.139  
                 211151572.505                                   211151572.505  
  40549439.524  
                 187769614.341                                   187769614.341  
  36059180.203  
                 190303636.911                                   190303636.911  
  36545812.559  
                 209399898.985                                   209399898.985  
  40213048.984  
                 126867200.863                                   126867200.863  
  24363512.072  
                 186939957.486                                   186939957.486  
  35899853.257  
                 189048585.489                                   189048585.489  
  36304793.086  
 24  6  8 12 43 51.0000000  0 28G10G18G23G32R 3R13R18R19E 4E10E11E12
                                E19E21J 3J 4C 1C 2C 3C 5C 6C 7C 8C 9
                                C10C12C13C16
  21924995.839   115216631.430                    21925001.182    89779215.218  
  21925000.843  
  21934453.645   115266332.024                    21934460.435    89817948.696  
  21934460.346  
  20532955.404   107901408.938                    20532958.173    84079031.291  
  20532958.030  
  22558196.980   118544125.724                    22558202.966    92372070.089  
  22558203.270  
  22304234.063   119396310.943                    22304239.602    92863820.289  
  22304239.477  
  23036721.463   123014807.077                    23036728.343    95678211.391  
  23036728.361  
  22289155.466   118981025.531                    22289168.475    92540850.648  
  22289168.404  
  20941599.463   112023435.768                    20941606.039    87129368.964  
  20941606.539  
  25262807.141   132756948.133                                                  
                
  24677552.502   129681414.314                                                  
                
  25465193.589   133820496.335                                                  
                
  24116277.914   126731896.761                                                  
                
  24955162.266   131140263.230                                                  
                
  26549397.326   139518025.492                                                  
                
  36234101.319   190411487.488                                   148372627.092  
  36234111.004  
  39110081.343   205524864.591                                   160149260.478  
  39110085.149  
                 195053011.443                                   195053011.443  
  37457880.084  
                 189862212.606                                   189862212.606  
  36461041.807  
                 188229818.797                                   188229818.797  
  36147557.674  
                 200878449.996                                   200878449.996  
  38576594.318  
                 186872288.107                                   186872288.107  
  35886858.028  
                 211151490.492                                   211151490.492  
  40549423.799  
                 187769102.649                                   187769102.649  
  36059081.959  
                 190303582.045                                   190303582.045  
  36545802.016  
                 209400177.922                                   209400177.922  
  40213102.555  
                 126868360.110                                   126868360.110  
  24363734.684  
                 186939295.029                                   186939295.029  
  35899726.048  
                 189048844.135                                   189048844.135  
  36304842.762  
 24  6  8 12 43 52.0000000  0 28G10G18G23G32R 3R13R18R19E 4E10E11E12
                                E19E21J 3J 4C 1C 2C 3C 5C 6C 7C 8C 9
                                C10C12C13C16
  21924536.552   115214217.790                    21924541.895    89777334.465  
  21924541.537  
  21935015.912   115269286.682                    21935022.666    89820251.022  
  21935022.595  
  20532816.257   107900677.682                    20532819.009    84078461.486  
  20532818.866  
  22558072.558   118543471.908                    22558078.544    92371560.627  
  22558078.848  
  22304374.978   119397065.309                    22304380.517    92864407.018  
  22304380.392  
  23037262.734   123017697.467                    23037269.613    95680459.470  
  23037269.631  
  22289860.328   118984788.231                    22289873.354    92543777.193  
  22289873.283  
  20941956.236   112025344.158                    20941962.812    87130853.267  
  20941963.312  
  25262738.810   132756589.145                                                  
                
  24677425.043   129680744.529                                                  
                
  25464836.745   133818621.164                                                  
                
  24116400.674   126732541.888                                                  
                
  24955357.735   131141290.325                                                  
                
  26549218.689   139517086.673                                                  
                
  36234164.665   190411820.533                                   148372886.603  
  36234174.386  
  39109917.484   205524003.535                                   160148589.526  
  39109921.290  
                 195053041.004                                   195053041.004  
  37457885.748  
                 189862225.363                                   189862225.363  
  36461044.237  
                 188229850.556                                   188229850.556  
  36147563.803  
                 200878446.248                                   200878446.248  
  38576593.604  
                 186872396.971                                   186872396.971  
  35886878.953  
                 211151408.135                                   211151408.135  
  40549407.967  
                 187768590.939                                   187768590.939  
  36058983.679  
                 190303527.181                                   190303527.181  
  36545791.491  
                 209400456.568                                   209400456.568  
  40213156.055  
                 126869519.558                                   126869519.558  
  24363957.350  
                 186938632.543                                   186938632.543  
  35899598.820  
                 189049102.735                                   189049102.735  
  36304892.420  
 24  6  8 12 43 53.0000000  0 28G10G18G23G32R 3R13R18R19E 4E10E11E12
                                E19E21J 3J 4C 1C 2C 3C 5C 6C 7C 8C 9
                                C10C12C13C16
  21924077.282   115211804.400                    21924082.625    89775453.901  
  21924082.268  
  21935578.268   115272241.818                    21935585.022    89822553.723  
  21935584.951  
  20532677.183   107899946.958                    20532679.953    84077892.092  
  20532679.810  
  22557948.190   118542818.356                    22557954.176    92371051.368  
  22557954.462  
  22304515.947   119397819.847                    22304521.486    92864993.879  
  22304521.361  
  23037804.165   123020588.633                    23037811.045    95682708.154  
  23037811.063  
  22290565.279   118988551.205                    22290578.287    92546703.950  
  22290578.216  
  20942313.134   112027253.370                    20942319.728    87132338.207  
  20942320.210  
  25262670.532   132756230.356                                                  
                
  24677297.690   129680075.372                                                  
                
  25464480.008   133816746.506                                                  
                
  24116523.559   126733187.642                                                  
                
  24955553.186   131142317.520                                                  
                
  26549040.106   139516148.322                                                  
                
  36234228.118   190412153.819                                   148373146.311  
  36234237.803  
  39109753.643   205523142.559                                   160147918.638  
  39109757.449  
                 195053070.721                                   195053070.721  
  37457891.449  
                 189862238.326                                   189862238.326  
  36461046.738  
                 188229882.471                                   188229882.471  
  36147569.915  
                 200878442.657                                   200878442.657  
  38576592.907  
                 186872506.088                                   186872506.088  
  35886899.913  
                 211151325.787                                   211151325.787  
  40549392.135  
                 187768079.523                                   187768079.523  
  36058885.471  
                 190303472.602                                   190303472.602  
  36545781.002  
                 209400735.158                                   209400735.158  
  40213209.537  
                 126870679.518                                   126870679.518  
  24364180.087  
                 186937970.315                                   186937970.315  
  35899471.647  
                 189049361.619                                   189049361.619  
  36304942.114  
 24  6  8 12 43 54.0000000  0 28G10G18G23G32R 3R13R18R19E 4E10E11E12
                                E19E21J 3J 4C 1C 2C 3C 5C 6C 7C 8C 9
                                C10C12C13C16
  21923618.066   115209391.215                    21923623.409    89773573.504  
  21923623.052  
  21936140.695   115275197.418                    21936147.468    89824856.784  
  21936147.396  
  20532538.233   107899216.723                    20532540.985    84077323.080  
  20532540.860  
  22557823.857   118542164.957                    22557829.843    92370542.226  
  22557830.111  
  22304656.915   119398574.476                    22304662.455    92865580.808  
  22304662.330  
  23038345.722   123023480.505                    23038352.601    95684957.393  
  23038352.619  
  22291270.230   118992314.382                    22291283.256    92549630.865  
  22291283.185  
  20942670.193   112029163.364                    20942676.786    87133823.751  
  20942677.269  
  25262602.290   132755871.719                                                  
                
  24677170.480   129679406.782                                                  
                
  25464123.342   133814872.318                                                  
                
  24116646.552   126733833.975                                                  
                
  24955748.691   131143344.780                                                  
                
  26548861.613   139515210.402                                                  
                
  36234291.553   190412487.287                                   148373406.156  
  36234301.274  
  39109589.820   205522281.622                                   160147247.780  
  39109593.608  
                 195053100.558                                   195053100.558  
  37457897.203  
                 189862251.358                                   189862251.358  
  36461049.240  
                 188229914.469                                   188229914.469  
  36147576.062  
                 200878439.141                                   200878439.141  
  38576592.246  
                 186872615.438                                   186872615.438  
  35886920.892  
                 211151243.363                                   211151243.363  
  40549376.321  
                 187767568.322                                   187767568.322  
  36058787.299  
                 190303418.244                                   190303418.244  
  36545770.567  
                 209401013.732                                   209401013.732  
  40213263.055  
                 126871839.922                                   126871839.922  
  24364402.950  
                 186937308.256                                   186937308.256  
  35899344.508  
                 189049620.719                                   189049620.719  
  36304991.897  
 24  6  8 12 43 55.0000000  0 28G10G18G23G32R 3R13R18R19E 4E10E11E12
                                E19E21J 3J 4C 1C 2C 3C 5C 6C 7C 8C 9
                                C10C12C13C16
  21923158.868   115206978.121                    21923164.211    89771693.174  
  21923163.854  
  21936703.194   115278153.347                    21936709.967    89827160.102  
  21936709.895  
  20532399.337   107898486.838                    20532402.089    84076754.339  
  20532401.946  
  22557699.542   118541511.649                    22557705.510    92370033.155  
  22557705.796  
  22304797.884   119399329.084                    22304803.441    92866167.722  
  22304803.316  
  23038887.350   123026372.882                    23038894.229    95687207.019  
  23038894.247  
  22291975.234   118996077.657                    22291988.243    92552557.857  
  22291988.171  
  20943027.377   112031074.006                    20943033.970    87135309.799  
  20943034.453  
  25262534.049   132755513.118                                                  
                
  24677043.342   129678738.643                                                  
                
  25463766.766   133812998.464                                                  
                
  24116769.616   126734480.748                                                  
                
  24955944.143   131144371.966                                                  
                
  26548683.208   139514272.763                                                  
                
  36234355.024   190412820.814                                   148373666.047  
  36234364.727  
  39109425.961   205521420.593                                   160146576.844  
  39109429.767  
                 195053130.371                                   195053130.371  
  37457902.921  
                 189862264.388                                   189862264.388  
  36461051.742  
                 188229946.469                                   188229946.469  
  36147582.208  
                 200878435.661                                   200878435.661  
  38576591.567  
                 186872724.884                                   186872724.884  
  35886941.906  
                 211151160.762                                   211151160.762  
  40549360.489  
                 187767057.223                                   187767057.223  
  36058689.144  
                 190303363.988                                   190303363.988  
  36545760.149  
                 209401292.133                                   209401292.133  
  40213316.519  
                 126873000.664                                   126873000.664  
  24364625.848  
                 186936646.305                                   186936646.305  
  35899217.388  
                 189049879.909                                   189049879.909  
  36305041.644  
 24  6  8 12 43 56.0000000  0 28G10G18G23G32R 3R13R18R19E 4E10E11E12
                                E19E21J 3J 4C 1C 2C 3C 5C 6C 7C 8C 9
                                C10C12C13C16
  21922699.688   115204565.180                    21922705.048    89769812.960  
  21922704.691  
  21937265.765   115281109.672                    21937272.537    89829463.723  
  21937272.466  
  20532260.531   107897757.401                    20532263.301    84076185.944  
  20532263.158  
  22557575.227   118540858.471                    22557581.213    92369524.187  
  22557581.517  
  22304938.853   119400083.766                    22304944.410    92866754.698  
  22304944.303  
  23039429.121   123029265.947                    23039436.000    95689457.179  
  23039436.036  
  22292680.221   118999841.090                    22292693.265    92555484.976  
  22292693.194  
  20943384.686   112032985.368                    20943391.297    87136796.410  
  20943391.762  
  25262465.825   132755154.637                                                  
                
  24676916.276   129678071.035                                                  
                
  25463410.261   133811125.001                                                  
                
  24116892.805   126735128.049                                                  
                
  24956139.594   131145399.117                                                  
                
  26548504.840   139513335.503                                                  
                
  36234418.513   190413154.472                                   148373926.043  
  36234428.233  
  39109262.120   205520559.558                                   160145905.912  
  39109265.908  
                 195053160.246                                   195053160.246  
  37457908.639  
                 189862277.476                                   189862277.476  
  36461054.243  
                 188229978.521                                   188229978.521  
  36147588.355  
                 200878432.212                                   200878432.212  
  38576590.905  
                 186872834.542                                   186872834.542  
  35886962.973  
                 211151078.033                                   211151078.033  
  40549344.586  
                 187766546.322                                   187766546.322  
  36058591.043  
                 190303309.953                                   190303309.953  
  36545749.767  
                 209401570.422                                   209401570.422  
  40213369.965  
                 126874161.830                                   126874161.830  
  24364848.853  
                 186935984.476                                   186935984.476  
  35899090.286  
                 189050139.291                                   189050139.291  
  36305091.481  
 24  6  8 12 43 57.0000000  0 28G10G18G23G32R 3R13R18R19E 4E10E11E12
                                E19E21J 3J 4C 1C 2C 3C 5C 6C 7C 8C 9
                                C10C12C13C16
  21922240.561   115202152.409                    21922245.904    89767932.883  
  21922245.564  
  21937828.425   115284066.410                    21937835.197    89831767.668  
  21937835.125  
  20532121.796   107897028.393                    20532124.565    84075617.889  
  20532124.440  
  22557450.948   118540205.441                    22557456.952    92369015.340  
  22557457.238  
  22305079.857   119400838.523                    22305085.415    92867341.731  
  22305085.272  
  23039971.034   123032159.608                    23039977.914    95691707.802  
  23039977.932  
  22293385.279   119003604.696                    22293398.323    92558412.225  
  22293398.252  
  20943742.138   112034897.489                    20943748.731    87138283.613  
  20943749.232  
  25262397.637   132754796.282                                                  
                
  24676789.334   129677403.947                                                  
                
  25463053.827   133809251.942                                                  
                
  24117016.083   126735775.870                                                  
                
  24956335.063   131146426.270                                                  
                
  26548326.560   139512398.625                                                  
                
  36234482.037   190413488.277                                   148374186.151  
  36234491.758  
  39109098.261   205519698.518                                   160145234.972  
  39109102.067  
                 195053190.181                                   195053190.181  
  37457914.393  
                 189862290.631                                   189862290.631  
  36461056.763  
                 188230010.655                                   188230010.655  
  36147594.520  
                 200878428.833                                   200878428.833  
  38576590.244  
                 186872944.377                                   186872944.377  
  35886984.076  
                 211150995.228                                   211150995.228  
  40549328.682  
                 187766035.583                                   187766035.583  
  36058492.942  
                 190303256.104                                   190303256.104  
  36545739.439  
                 209401848.591                                   209401848.591  
  40213423.375  
                 126875323.389                                   126875323.389  
  24365071.912  
                 186935322.821                                   186935322.821  
  35898963.237  
                 189050398.839                                   189050398.839  
  36305141.318  
 24  6  8 12 43 58.0000000  0 28G10G18G23G32R 3R13R18R19E 4E10E11E12
                                E19E21J 3J 4C 1C 2C 3C 5C 6C 7C 8C 9
                                C10C12C13C16
  21921781.434   115199739.697                    21921786.777    89766052.847  
  21921786.420  
  21938391.138   115287023.454                    21938397.910    89834071.856  
  21938397.821  
  20531983.132   107896299.740                    20531985.902    84075050.109  
  20531985.777  
  22557326.687   118539552.447                    22557332.691    92368506.518  
  22557332.977  
  22305220.844   119401593.229                    22305226.401    92867928.722  
  22305226.276  
  23040513.020   123035053.825                    23040519.881    95693958.859  
  23040519.917  
  22294090.355   119007368.394                    22294103.381    92561339.549  
  22294103.327  
  20944099.715   112036810.252                    20944106.308    87139771.317  
  20944106.791  
  25262329.448   132754437.924                                                  
                
  24676662.482   129676737.290                                                  
                
  25462697.465   133807379.216                                                  
                
  24117139.415   126736424.119                                                  
                
  24956530.497   131147453.357                                                  
                
  26548148.317   139511461.999                                                  
                
  36234545.561   190413822.124                                   148374446.298  
  36234555.264  
  39108934.384   205518837.368                                   160144563.949  
  39108938.190  
                 195053220.102                                   195053220.102  
  37457920.164  
                 189862303.759                                   189862303.759  
  36461059.282  
                 188230042.742                                   188230042.742  
  36147600.703  
                 200878425.420                                   200878425.420  
  38576589.601  
                 186873054.282                                   186873054.282  
  35887005.162  
                 211150912.232                                   211150912.232  
  40549312.743  
                 187765524.923                                   187765524.923  
  36058394.877  
                 190303202.374                                   190303202.374  
  36545729.110  
                 209402126.606                                   209402126.606  
  40213476.768  
                 126876485.279                                   126876485.279  
  24365295.061  
                 186934661.219                                   186934661.219  
  35898836.171  
                 189050658.474                                   189050658.474  
  36305191.172  
 24  6  8 12 43 59.0000000  0 28G10G18G23G32R 3R13R18R19E 4E10E11E12
                                E19E21J 3J 4C 1C 2C 3C 5C 6C 7C 8C 9
                                C10C12C13C16
  21921322.344   115197327.143                    21921327.686    89764172.940  
  21921327.329  
  21938953.923   115289980.891                    21938960.695    89836376.343  
  21938960.606  
  20531844.558   107895571.528                    20531847.328    84074482.671  
  20531847.202  
  22557202.444   118538899.603                    22557208.448    92367997.817  
  22557208.734  
  22305361.830   119402348.001                    22305367.370    92868515.767  
  22305367.263  
  23041055.148   123037948.742                    23041062.028    95696210.461  
  23041062.045  
  22294795.466   119011132.272                    22294808.493    92564267.002  
  22294808.421  
  20944457.435   112038723.771                    20944464.028    87141259.610  
  20944464.511  
  25262261.260   132754079.701                                                  
                
  24676535.719   129676071.165                                                  
                
  25462341.157   133805506.902                                                  
                
  24117262.890   126737072.890                                                  
                
  24956725.930   131148480.428                                                  
                
  26547970.145   139510525.757                                                  
                
  36234609.103   190414156.099                                   148374706.538  
  36234618.824  
  39108770.525   205517976.222                                   160143892.926  
  39108774.314  
                 195053250.052                                   195053250.052  
  37457925.900  
                 189862316.972                                   189862316.972  
  36461061.820  
                 188230074.899                                   188230074.899  
  36147606.850  
                 200878422.052                                   200878422.052  
  38576588.940  
                 186873164.388                                   186873164.388  
  35887026.301  
                 211150829.102                                   211150829.102  
  40549296.768  
                 187765014.461                                   187765014.461  
  36058296.848  
                 190303148.810                                   190303148.810  
  36545718.836  
                 209402404.495                                   209402404.495  
  40213530.143  
                 126877647.559                                   126877647.559  
  24365518.263  
                 186933999.768                                   186933999.768  
  35898709.140  
                 189050918.280                                   189050918.280  
  36305241.045  
 24  6  8 12 44  0.0000000  0 28G10G18G23G32R 3R13R18R19E 4E10E11E12
                                E19E21J 3J 4C 1C 2C 3C 5C 6C 7C 8C 9
                                C10C12C13C16
  21920863.270   115194914.754                    21920868.631    89762293.160  
  21920868.256  
  21939516.779   115292938.750                    21939523.552    89838681.164  
  21939523.480  
  20531706.091   107894843.761                    20531708.843    84073915.582  
  20531708.700  
  22557078.254   118538246.917                    22557084.222    92367489.238  
  22557084.526  
  22305502.835   119403102.833                    22305508.392    92869102.859  
  22305508.285  
  23041597.384   123040844.255                    23041604.245    95698462.534  
  23041604.281  
  22295500.596   119014896.322                    22295513.640    92567194.587  
  22295513.551  
  20944815.280   112040638.027                    20944821.873    87142748.476  
  20944822.356  
  25262193.126   132753721.590                                                  
                
  24676409.064   129675405.567                                                  
                
  25461984.956   133803635.021                                                  
                
  24117386.419   126737722.184                                                  
                
  24956921.400   131149507.506                                                  
                
  26547792.062   139509589.897                                                  
                
  36234672.699   190414490.242                                   148374966.912  
  36234682.402  
  39108606.649   205517115.064                                   160143221.896  
  39108610.455  
                 195053280.089                                   195053280.089  
  37457931.654  
                 189862330.220                                   189862330.220  
  36461064.375  
                 188230107.120                                   188230107.120  
  36147613.033  
                 200878418.787                                   200878418.787  
  38576588.314  
                 186873274.676                                   186873274.676  
  35887047.494  
                 211150745.925                                   211150745.925  
  40549280.793  
                 187764504.185                                   187764504.185  
  36058198.854  
                 190303095.447                                   190303095.447  
  36545708.579  
                 209402682.263                                   209402682.263  
  40213583.482  
                 126878810.272                                   126878810.272  
  24365741.536  
                 186933338.494                                   186933338.494  
  35898582.162  
                 189051178.270                                   189051178.270  
  36305290.989  
 24  6  8 12 44  1.0000000  0 28G10G18G23G32R 3R13R18R19E 4E10E11E12
                                E19E21J 3J 4C 1C 2C 3C 5C 6C 7C 8C 9
                                C10C12C13C16
  21920404.233   115192502.485                    21920409.594    89760413.472  
  21920409.219  
  21940079.725   115295896.944                    21940086.479    89840986.250  
  21940086.390  
  20531567.659   107894116.367                    20531570.429    84073348.782  
  20531570.286  
  22556954.064   118537594.307                    22556960.050    92366980.718  
  22556960.336  
  22305643.857   119403857.674                    22305649.397    92869689.964  
  22305649.272  
  23042139.708   123043740.350                    23042146.588    95700715.057  
  23042146.606  
  22296205.761   119018660.461                    22296218.787    92570122.249  
  22296218.716  
  20945173.250   112042552.941                    20945179.861    87144237.851  
  20945180.326  
  25262124.991   132753363.537                                                  
                
  24676282.497   129674740.451                                                  
                
  25461628.808   133801763.500                                                  
                
  24117510.090   126738371.947                                                  
                
  24957116.833   131150534.545                                                  
                
  26547614.033   139508654.360                                                  
                
  36234736.313   190414824.449                                   148375227.333  
  36234745.998  
  39108442.754   205516253.830                                   160142550.807  
  39108446.542  
                 195053310.135                                   195053310.135  
  37457937.444  
                 189862343.479                                   189862343.479  
  36461066.930  
                 188230139.350                                   188230139.350  
  36147619.233  
                 200878415.498                                   200878415.498  
  38576587.689  
                 186873385.096                                   186873385.096  
  35887068.704  
                 211150662.550                                   211150662.550  
  40549264.800  
                 187763994.049                                   187763994.049  
  36058100.896  
                 190303042.229                                   190303042.229  
  36545698.358  
                 209402959.903                                   209402959.903  
  40213636.767  
                 126879973.328                                   126879973.328  
  24365964.899  
                 186932677.307                                   186932677.307  
  35898455.185  
                 189051438.388                                   189051438.388  
  36305340.951  
 24  6  8 12 44  2.0000000  0 28G10G18G23G32R 3R13R18R19E 4E10E11E12
                                E19E21J 3J 4C 1C 2C 3C 5C 6C 7C 8C 9
                                C10C12C13C16
  21919945.160   115190090.060                    21919950.503    89758533.666  
  21919950.145  
  21940642.653   115298855.253                    21940649.443    89843291.425  
  21940649.354  
  20531429.264   107893389.120                    20531432.034    84072782.100  
  20531431.891  
  22556829.839   118536941.563                    22556835.825    92366472.092  
  22556836.111  
  22305784.826   119404612.285                    22305790.383    92870276.881  
  22305790.258  
  23042682.140   123046636.757                    23042688.984    95702967.821  
  23042689.020  
  22296910.873   119022424.431                    22296923.917    92573049.781  
  22296923.828  
  20945531.291   112044468.276                    20945537.903    87145727.556  
  20945538.385  
  25262056.803   132753005.303                                                  
                
  24676155.949   129674075.546                                                  
                
  25461272.697   133799892.067                                                  
                
  24117633.762   126739021.942                                                  
                
  24957312.213   131151561.259                                                  
                
  26547436.004   139507718.869                                                  
                
  36234799.873   190415158.483                                   148375487.619  
  36234809.558  
  39108278.806   205515392.291                                   160141879.482  
  39108282.612  
                 195053339.943                                   195053339.943  
  37457943.144  
                 189862356.527                                   189862356.527  
  36461069.414  
                 188230171.329                                   188230171.329  
  36147625.380  
                 200878412.006                                   200878412.006  
  38576587.010  
                 186873495.385                                   186873495.385  
  35887089.861  
                 211150578.766                                   211150578.766  
  40549248.700  
                 187763483.772                                   187763483.772  
  36058002.884  
                 190302988.900                                   190302988.900  
  36545688.119  
                 209403237.177                                   209403237.177  
  40213690.053  
                 126881136.501                                   126881136.501  
  24366188.262  
                 186932015.990                                   186932015.990  
  35898328.172  
                 189051698.377                                   189051698.377  
  36305390.859  
 24  6  8 12 44  3.0000000  0 28G10G18G23G32R 3R13R18R19E 4E10E11E12
                                E19E21J 3J 4C 1C 2C 3C 5C 6C 7C 8C 9
                                C10C12C13C16
  21919486.123   115187677.805                    21919491.466    89756653.989  
  21919491.108  
  21941205.688   115301813.960                    21941212.460    89845596.909  
  21941212.371  
  20531290.976   107892662.313                    20531293.727    84072215.755  
  20531293.584  
  22556705.649   118536288.924                    22556711.617    92365963.542  
  22556711.903  
  22305925.795   119405366.943                    22305931.352    92870863.838  
  22305931.209  
  23043224.644   123049533.818                    23043231.524    95705221.093  
  23043231.541  
  22297616.020   119026188.600                    22297629.064    92575977.473  
  22297628.993  
  20945889.494   112046384.385                    20945896.087    87147217.860  
  20945896.570  
  25261988.668   132752647.180                                                  
                
  24676029.543   129673411.181                                                  
                
  25460916.639   133798021.051                                                  
                
  24117757.540   126739672.445                                                  
                
  24957507.593   131152587.975                                                  
                
  26547258.047   139506783.766                                                  
                
  36234863.451   190415492.673                                   148375748.029  
  36234873.154  
  39108114.875   205514530.754                                   160141208.155  
  39108118.663  
                 195053369.815                                   195053369.815  
  37457948.880  
                 189862369.597                                   189862369.597  
  36461071.916  
                 188230203.385                                   188230203.385  
  36147631.509  
                 200878408.537                                   200878408.537  
  38576586.349  
                 186873605.880                                   186873605.880  
  35887111.107  
                 211150494.888                                   211150494.888  
  40549232.600  
                 187762973.688                                   187762973.688  
  36057904.926  
                 190302935.772                                   190302935.772  
  36545677.916  
                 209403514.293                                   209403514.293  
  40213743.231  
                 126882300.090                                   126882300.090  
  24366411.749  
                 186931354.841                                   186931354.841  
  35898201.195  
                 189051958.538                                   189051958.538  
  36305440.821  
 24  6  8 12 44  4.0000000  0 28G10G18G23G32R 3R13R18R19E 4E10E11E12
                                E19E21J 3J 4C 1C 2C 3C 5C 6C 7C 8C 9
                                C10C12C13C16
  21919027.085   115185265.580                    21919032.428    89754774.333  
  21919032.071  
  21941768.759   115304772.941                    21941775.531    89847902.611  
  21941775.459  
  20531152.705   107891935.814                    20531155.475    84071649.654  
  20531155.332  
  22556581.459   118535636.326                    22556587.446    92365455.027  
  22556587.714  
  22306066.763   119406121.533                    22306072.321    92871450.739  
  22306072.196  
  23043767.273   123052431.356                    23043774.134    95707474.738  
  23043774.170  
  22298321.185   119029952.811                    22298334.230    92578905.197  
  22298334.140  
  20946247.803   112048301.088                    20946254.397    87148708.634  
  20946254.897  
  25261920.516   132752289.042                                                  
                
  24675903.174   129672747.201                                                  
                
  25460560.634   133796150.320                                                  
                
  24117881.409   126740323.358                                                  
                
  24957702.937   131153614.566                                                  
                
  26547080.160   139505848.910                                                  
                
  36234927.047   190415826.868                                   148376008.443  
  36234936.750  
  39107950.891   205513669.077                                   160140536.718  
  39107954.697  
                 195053399.637                                   195053399.637  
  37457954.616  
                 189862382.630                                   189862382.630  
  36461074.418  
                 188230235.373                                   188230235.373  
  36147637.674  
                 200878405.033                                   200878405.033  
  38576585.670  
                 186873716.431                                   186873716.431  
  35887132.318  
                 211150410.787                                   211150410.787  
  40549216.465  
                 187762463.651                                   187762463.651  
  36057806.986  
                 190302882.697                                   190302882.697  
  36545667.712  
                 209403791.218                                   209403791.218  
  40213796.427  
                 126883463.934                                   126883463.934  
  24366635.237  
                 186930693.727                                   186930693.727  
  35898074.235  
                 189052218.755                                   189052218.755  
  36305490.800  
 24  6  8 12 44  5.0000000  0 28G10G18G23G32R 3R13R18R19E 4E10E11E12
                                E19E21J 3J 4C 1C 2C 3C 5C 6C 7C 8C 9
                                C10C12C13C16
  21918568.048   115182853.367                    21918573.409    89752894.688  
  21918573.051  
  21942331.901   115307732.182                    21942338.655    89850208.513  
  21942338.566  
  20531014.524   107891209.620                    20531017.276    84071083.786  
  20531017.151  
  22556457.252   118534983.705                    22556463.238    92364946.495  
  22556463.542  
  22306207.696   119406876.039                    22306213.254    92872037.581  
  22306213.129  
  23044309.991   123055329.395                    23044316.852    95709728.764  
  23044316.870  
  22299026.351   119033717.046                    22299039.377    92581832.938  
  22299039.323  
  20946606.220   112050218.355                    20946612.814    87150199.842  
  20946613.296  
  25261852.363   132751930.872                                                  
                
  24675776.893   129672083.622                                                  
                
  25460204.719   133794279.855                                                  
                
  24118005.348   126740974.641                                                  
                
  24957898.263   131154641.030                                                  
                
  26546902.310   139504914.291                                                  
                
  36234990.643   190416161.064                                   148376268.858  
  36235000.346  
  39107786.889   205512807.224                                   160139865.146  
  39107790.677  
                 195053429.351                                   195053429.351  
  37457960.316  
                 189862395.569                                   189862395.569  
  36461076.919  
                 188230267.277                                   188230267.277  
  36147643.803  
                 200878401.454                                   200878401.454  
  38576584.991  
                 186873827.019                                   186873827.019  
  35887153.564  
                 211150326.403                                   211150326.403  
  40549200.240  
                 187761953.654                                   187761953.654  
  36057709.064  
                 190302829.685                                   190302829.685  
  36545657.527  
                 209404067.851                                   209404067.851  
  40213849.534  
                 126884628.066                                   126884628.066  
  24366858.779  
                 186930032.628                                   186930032.628  
  35897947.276  
                 189052479.003                                   189052479.003  
  36305540.762  
 24  6  8 12 44  6.0000000  0 28G10G18G23G32R 3R13R18R19E 4E10E11E12
                                E19E21J 3J 4C 1C 2C 3C 5C 6C 7C 8C 9
                                C10C12C13C16
  21918109.082   115180441.338                    21918114.407    89751015.188  
  21918114.050  
  21942895.097   115310691.849                    21942901.869    89852514.741  
  21942901.798  
  20530876.414   107890483.869                    20530879.166    84070518.268  
  20530879.041  
  22556333.116   118534331.265                    22556339.084    92364438.101  
  22556339.388  
  22306348.683   119407630.644                    22306354.222    92872624.494  
  22306354.097  
  23044852.816   123058228.093                    23044859.677    95711983.304  
  23044859.695  
  22299731.534   119037481.475                    22299744.596    92584760.822  
  22299744.524  
  20946964.780   112052136.391                    20946971.374    87151691.645  
  20946971.856  
  25261784.211   132751572.843                                                  
                
  24675650.738   129671420.583                                                  
                
  25459848.839   133792409.822                                                  
                
  24118129.395   126741626.482                                                  
                
  24958093.608   131155667.520                                                  
                
  26546724.531   139503980.059                                                  
                
  36235054.257   190416495.394                                   148376529.380  
  36235063.959  
  39107622.887   205511945.417                                   160139193.608  
  39107626.693  
                 195053459.150                                   195053459.150  
  37457966.016  
                 189862408.596                                   189862408.596  
  36461079.403  
                 188230299.269                                   188230299.269  
  36147649.932  
                 200878397.930                                   200878397.930  
  38576584.294  
                 186873937.800                                   186873937.800  
  35887174.828  
                 211150241.973                                   211150241.973  
  40549184.015  
                 187761443.878                                   187761443.878  
  36057611.160  
                 190302776.883                                   190302776.883  
  36545647.395  
                 209404344.462                                   209404344.462  
  40213902.658  
                 126885792.629                                   126885792.629  
  24367082.445  
                 186929371.697                                   186929371.697  
  35897820.370  
                 189052739.447                                   189052739.447  
  36305590.777  
 24  6  8 12 44  7.0000000  0 28G10G18G23G32R 3R13R18R19E 4E10E11E12
                                E19E21J 3J 4C 1C 2C 3C 5C 6C 7C 8C 9
                                C10C12C13C16
  21917650.081   115178029.389                    21917655.423    89749135.749  
  21917655.084  
  21943458.364   115313651.818                    21943465.136    89854821.212  
  21943465.047  
  20530738.376   107889758.488                    20530741.128    84069953.036  
  20530741.003  
  22556208.962   118533678.864                    22556214.930    92363929.741  
  22556215.216  
  22306489.634   119408385.233                    22306495.191    92873211.401  
  22306495.066  
  23045395.766   123061127.387                    23045402.610    95714238.311  
  23045402.646  
  22300436.770   119041245.984                    22300449.815    92587688.774  
  22300449.743  
  20947323.465   112054055.065                    20947330.059    87153183.945  
  20947330.541  
  25261716.094   132751214.823                                                  
                
  24675524.636   129670757.976                                                  
                
  25459493.049   133790540.121                                                  
                
  24118253.495   126742278.740                                                  
                
  24958288.916   131156693.908                                                  
                
  26546546.788   139503046.095                                                  
                
  36235117.888   190416829.775                                   148376789.940  
  36235127.591  
  39107458.868   205511083.485                                   160138521.973  
  39107462.674  
                 195053488.949                                   195053488.949  
  37457971.770  
                 189862421.614                                   189862421.614  
  36461081.905  
                 188230331.222                                   188230331.222  
  36147656.079  
                 200878394.391                                   200878394.391  
  38576583.615  
                 186874048.676                                   186874048.676  
  35887196.128  
                 211150157.328                                   211150157.328  
  40549167.754  
                 187760934.189                                   187760934.189  
  36057513.273  
                 190302724.171                                   190302724.171  
  36545637.264  
                 209404620.889                                   209404620.889  
  40213955.747  
                 126886957.517                                   126886957.517  
  24367306.148  
                 186928710.822                                   186928710.822  
  35897693.447  
                 189052999.971                                   189052999.971  
  36305640.828  
 24  6  8 12 44  8.0000000  0 28G10G18G23G32R 3R13R18R19E 4E10E11E12
                                E19E21J 3J 4C 1C 2C 3C 5C 6C 7C 8C 9
                                C10C12C13C16
  21917191.133   115175617.659                    21917196.475    89747256.482  
  21917196.136  
  21944021.721   115316612.281                    21944028.493    89857128.059  
  21944028.404  
  20530600.445   107889033.612                    20530603.197    84069388.200  
  20530603.054  
  22556084.861   118533026.695                    22556090.830    92363421.562  
  22556091.116  
  22306630.620   119409139.972                    22306636.178    92873798.416  
  22306636.053  
  23045938.841   123064027.400                    23045945.703    95716493.874  
  23045945.739  
  22301142.043   119045010.717                    22301155.069    92590616.894  
  22301154.998  
  20947682.275   112055974.546                    20947688.887    87154676.870  
  20947689.387  
  25261647.995   132750857.020                                                  
                
  24675398.660   129670095.965                                                  
                
  25459137.331   133788670.895                                                  
                
  24118377.738   126742931.593                                                  
                
  24958484.242   131157720.352                                                  
                
  26546369.152   139502112.597                                                  
                
  36235181.556   190417164.387                                   148377050.679  
  36235191.258  
  39107294.848   205510221.628                                   160137850.396  
  39107298.654  
                 195053518.849                                   195053518.849  
  37457977.506  
                 189862434.746                                   189862434.746  
  36461084.424  
                 188230363.324                                   188230363.324  
  36147662.208  
                 200878390.997                                   200878390.997  
  38576582.954  
                 186874159.808                                   186874159.808  
  35887217.464  
                 211150072.694                                   211150072.694  
  40549151.511  
                 187760424.753                                   187760424.753  
  36057415.440  
                 190302671.741                                   190302671.741  
  36545627.186  
                 209404897.255                                   209404897.255  
  40214008.818  
                 126888122.879                                   126888122.879  
  24367529.939  
                 186928050.179                                   186928050.179  
  35897566.594  
                 189053260.755                                   189053260.755  
  36305690.898  
 24  6  8 12 44  9.0000000  0 28G10G18G23G32R 3R13R18R19E 4E10E11E12
                                E19E21J 3J 4C 1C 2C 3C 5C 6C 7C 8C 9
                                C10C12C13C16
  21916732.238   115173206.118                    21916737.581    89745377.361  
  21916737.224  
  21944585.149   115319573.145                    21944591.921    89859435.224  
  21944591.850  
  20530462.586   107888309.187                    20530465.337    84068823.714  
  20530465.194  
  22555960.779   118532374.672                    22555966.747    92362913.499  
  22555967.033  
  22306771.643   119409894.774                    22306777.182    92874385.482  
  22306777.057  
  23046482.024   123066928.057                    23046488.903    95718749.941  
  23046488.939  
  22301847.333   119048775.616                    22301860.378    92593545.147  
  22301860.288  
  20948041.264   112057894.765                    20948047.857    87156170.369  
  20948048.340  
  25261579.932   132750499.322                                                  
                
  24675272.790   129669434.496                                                  
                
  25458781.737   133786802.130                                                  
                
  24118502.071   126743584.998                                                  
                
  24958679.551   131158746.822                                                  
                
  26546191.587   139501179.475                                                  
                
  36235245.259   190417499.131                                   148377311.521  
  36235254.961  
  39107130.846   205509359.766                                   160137178.818  
  39107134.652  
                 195053548.820                                   195053548.820  
  37457983.260  
                 189862447.979                                   189862447.979  
  36461086.979  
                 188230395.501                                   188230395.501  
  36147668.409  
                 200878387.656                                   200878387.656  
  38576582.328  
                 186874271.138                                   186874271.138  
  35887238.835  
                 211149987.907                                   211149987.907  
  40549135.214  
                 187759915.498                                   187759915.498  
  36057317.643  
                 190302619.514                                   190302619.514  
  36545617.161  
                 209405173.529                                   209405173.529  
  40214061.871  
                 126889288.648                                   126889288.648  
  24367753.802  
                 186927389.699                                   186927389.699  
  35897439.724  
                 189053521.727                                   189053521.727  
  36305741.020  
 24  6  8 12 44 10.0000000  0 28G10G18G23G32R 3R13R18R19E 4E10E11E12
                                E19E21J 3J 4C 1C 2C 3C 5C 6C 7C 8C 9
                                C10C12C13C16
  21916273.380   115170794.797                    21916278.722    89743498.412  
  21916278.365  
  21945148.684   115322534.494                    21945155.457    89861742.764  
  21945155.385  
  20530324.815   107887585.271                    20530327.585    84068259.627  
  20530327.442  
  22555836.732   118531722.869                    22555842.718    92362405.605  
  22555842.986  
  22306912.665   119410649.732                    22306918.222    92874972.664  
  22306918.097  
  23047025.367   123069829.424                    23047032.229    95721006.559  
  23047032.265  
  22302552.677   119052540.760                    22302565.704    92596473.588  
  22302565.632  
  20948400.377   112059815.788                    20948406.971    87157664.491  
  20948407.454  
  25261511.887   132750141.821                                                  
                
  24675147.028   129668773.635                                                  
                
  25458426.215   133784933.840                                                  
                
  24118626.511   126744238.995                                                  
                
  24958874.913   131159773.360                                                  
                
  26546014.094   139500246.787                                                  
                
  36235308.997   190417834.093                                   148377572.533  
  36235318.700  
  39106966.844   205508497.983                                   160136507.299  
  39106970.650  
                 195053578.956                                   195053578.956  
  37457989.031  
                 189862461.320                                   189862461.320  
  36461089.535  
                 188230427.812                                   188230427.812  
  36147674.609  
                 200878384.472                                   200878384.472  
  38576581.703  
                 186874382.729                                   186874382.729  
  35887260.260  
                 211149903.113                                   211149903.113  
  40549118.936  
                 187759406.507                                   187759406.507  
  36057219.900  
                 190302567.555                                   190302567.555  
  36545607.190  
                 209405449.758                                   209405449.758  
  40214114.907  
                 126890454.909                                   126890454.909  
  24367977.791  
                 186926729.452                                   186926729.452  
  35897312.944  
                 189053782.938                                   189053782.938  
  36305791.178  
 24  6  8 12 44 11.0000000  0 28G10G18G23G32R 3R13R18R19E 4E10E11E12
                                E19E21J 3J 4C 1C 2C 3C 5C 6C 7C 8C 9
                                C10C12C13C16
  21915814.503   115168383.381                    21915819.846    89741619.389  
  21915819.489  
  21945712.238   115325495.989                    21945719.028    89864050.418  
  21945718.938  
  20530187.099   107886861.542                    20530189.868    84067695.683  
  20530189.726  
  22555712.668   118531070.935                    22555718.636    92361897.613  
  22555718.922  
  22307053.652   119411404.465                    22307059.209    92875559.681  
  22307059.102  
  23047568.782   123072731.175                    23047575.644    95723263.482  
  23047575.662  
  22303257.985   119056305.806                    22303271.030    92599401.955  
  22303270.940  
  20948759.563   112061737.258                    20948766.156    87159158.972  
  20948766.657  
  25261443.824   132749784.153                                                  
                
  24675021.319   129668113.029                                                  
                
  25458070.693   133783065.661                                                  
                
  24118751.022   126744893.242                                                  
                
  24959070.185   131160799.621                                                  
                
  26545836.637   139499314.222                                                  
                
  36235372.718   190418168.931                                   148377833.445  
  36235382.403  
  39106802.806   205507635.919                                   160135835.562  
  39106806.612  
                 195053608.892                                   195053608.892  
  37457994.803  
                 189862474.454                                   189862474.454  
  36461092.036  
                 188230459.908                                   188230459.908  
  36147680.774  
                 200878381.076                                   200878381.076  
  38576581.060  
                 186874494.239                                   186874494.239  
  35887281.685  
                 211149817.947                                   211149817.947  
  40549102.603  
                 187758897.429                                   187758897.429  
  36057122.138  
                 190302515.524                                   190302515.524  
  36545597.201  
                 209405725.650                                   209405725.650  
  40214167.906  
                 126891621.329                                   126891621.329  
  24368201.779  
                 186926069.106                                   186926069.106  
  35897186.127  
                 189054044.065                                   189054044.065  
  36305841.319  
 24  6  8 12 44 12.0000000  0 28G10G18G23G32R 3R13R18R19E 4E10E11E12
                                E19E21J 3J 4C 1C 2C 3C 5C 6C 7C 8C 9
                                C10C12C13C16
  21915355.662   115165972.169                    21915361.005    89739740.524  
  21915360.648  
  21946275.880   115328457.904                    21946282.670    89866358.399  
  21946282.563  
  20530049.489   107886138.288                    20530052.223    84067132.109  
  20530052.098  
  22555588.656   118530419.191                    22555594.607    92361389.766  
  22555594.893  
  22307194.656   119412159.288                    22307200.213    92876146.768  
  22307200.088  
  23048112.304   123075633.553                    23048119.166    95725520.889  
  23048119.184  
  22303963.347   119060071.084                    22303976.409    92602330.502  
  22303976.320  
  20949118.927   112063659.523                    20949125.502    87160654.067  
  20949126.003  
  25261375.814   132749426.649                                                  
                
  24674895.718   129667452.995                                                  
                
  25457715.278   133781197.955                                                  
                
  24118875.623   126745548.064                                                  
                
  24959265.494   131161825.936                                                  
                
  26545659.251   139498382.068                                                  
                
  36235436.457   190418503.922                                   148378094.482  
  36235446.160  
  39106638.769   205506773.872                                   160135163.839  
  39106642.575  
                 195053638.906                                   195053638.906  
  37458000.557  
                 189862487.699                                   189862487.699  
  36461094.610  
                 188230492.118                                   188230492.118  
  36147686.957  
                 200878377.767                                   200878377.767  
  38576580.416  
                 186874605.974                                   186874605.974  
  35887303.146  
                 211149732.697                                   211149732.697  
  40549086.217  
                 187758388.583                                   187758388.583  
  36057024.430  
                 190302463.722                                   190302463.722  
  36545587.248  
                 209406001.461                                   209406001.461  
  40214220.870  
                 126892788.186                                   126892788.186  
  24368425.874  
                 186925408.937                                   186925408.937  
  35897059.328  
                 189054305.413                                   189054305.413  
  36305891.513  
 24  6  8 12 44 13.0000000  0 28G10G18G23G32R 3R13R18R19E 4E10E11E12
                                E19E21J 3J 4C 1C 2C 3C 5C 6C 7C 8C 9
                                C10C12C13C16
  21914896.822   115163561.029                    21914902.164    89737861.721  
  21914901.807  
  21946839.576   115331420.135                    21946846.349    89868666.629  
  21946846.259  
  20529911.898   107885415.372                    20529914.668    84066568.800  
  20529914.525  
  22555464.628   118529767.491                    22555470.596    92360881.954  
  22555470.864  
  22307335.661   119412914.066                    22307341.218    92876733.815  
  22307341.093  
  23048655.916   123078536.476                    23048662.777    95727778.718  
  23048662.795  
  22304668.727   119063836.401                    22304681.789    92605259.082  
  22304681.700  
  20949478.380   112065582.419                    20949484.973    87162149.653  
  20949485.456  
  25261307.769   132749069.160                                                  
                
  24674770.206   129666793.387                                                  
                
  25457359.935   133779330.560                                                  
                
  24119000.295   126746203.292                                                  
                
  24959460.767   131162852.139                                                  
                
  26545481.901   139497450.190                                                  
                
  36235500.214   190418838.974                                   148378355.564  
  36235509.917  
  39106474.713   205505911.754                                   160134492.057  
  39106478.519  
                 195053668.893                                   195053668.893  
  37458006.311  
                 189862500.897                                   189862500.897  
  36461097.129  
                 188230524.275                                   188230524.275  
  36147693.122  
                 200878374.446                                   200878374.446  
  38576579.755  
                 186874717.786                                   186874717.786  
  35887324.589  
                 211149647.287                                   211149647.287  
  40549069.814  
                 187757879.816                                   187757879.816  
  36056926.705  
                 190302412.021                                   190302412.021  
  36545577.331  
                 209406277.106                                   209406277.106  
  40214273.816  
                 126893955.363                                   126893955.363  
  24368650.005  
                 186924748.846                                   186924748.846  
  35896932.584  
                 189054566.842                                   189054566.842  
  36305941.725  
 24  6  8 12 44 14.0000000  0 28G10G18G23G32R 3R13R18R19E 4E10E11E12
                                E19E21J 3J 4C 1C 2C 3C 5C 6C 7C 8C 9
                                C10C12C13C16
  21914438.016   115161149.934                    21914443.341    89735982.948  
  21914442.984  
  21947403.326   115334382.649                    21947410.098    89870975.081  
  21947410.027  
  20529774.414   107884692.805                    20529777.166    84066005.758  
  20529777.023  
  22555340.599   118529115.829                    22555346.585    92360374.166  
  22555346.871  
  22307476.665   119413668.778                    22307482.222    92877320.813  
  22307482.079  
  23049199.634   123081439.891                    23049206.496    95730036.930  
  23049206.514  
  22305374.106   119067601.781                    22305387.169    92608187.708  
  22305387.079  
  20949837.958   112067505.962                    20949844.570    87163645.740  
  20949845.034  
  25261239.742   132748711.674                                                  
                
  24674644.766   129666134.204                                                  
                
  25457004.627   133777463.485                                                  
                
  24119125.075   126746858.962                                                  
                
  24959656.039   131163878.263                                                  
                
  26545304.623   139496518.582                                                  
                
  36235563.970   190419174.065                                   148378616.671  
  36235573.673  
  39106310.640   205505049.490                                   160133820.168  
  39106314.410  
                 195053698.843                                   195053698.843  
  37458012.065  
                 189862514.078                                   189862514.078  
  36461099.666  
                 188230556.403                                   188230556.403  
  36147699.304  
                 200878371.070                                   200878371.070  
  38576579.130  
                 186874829.668                                   186874829.668  
  35887346.103  
                 211149561.621                                   211149561.621  
  40549053.338  
                 187757371.125                                   187757371.125  
  36056829.033  
                 190302360.391                                   190302360.391  
  36545567.396  
                 209406552.519                                   209406552.519  
  40214326.690  
                 126895122.836                                   126895122.836  
  24368874.208  
                 186924088.811                                   186924088.811  
  35896805.839  
                 189054828.332                                   189054828.332  
  36305991.937  
 24  6  8 12 44 15.0000000  0 28G10G18G23G32R 3R13R18R19E 4E10E11E12
                                E19E21J 3J 4C 1C 2C 3C 5C 6C 7C 8C 9
                                C10C12C13C16
  21913979.194   115158738.788                    21913984.536    89734104.135  
  21913984.179  
  21947967.112   115337345.365                    21947973.902    89873283.686  
  21947973.795  
  20529636.947   107883970.462                    20529639.699    84065442.895  
  20529639.574  
  22555216.588   118528464.094                    22555222.556    92359866.327  
  22555222.842  
  22307617.616   119414423.341                    22307623.173    92877907.696  
  22307623.030  
  23049743.442   123084343.754                    23049750.304    95732295.492  
  23049750.322  
  22306079.486   119071367.125                    22306092.531    92611116.304  
  22306092.459  
  20950197.644   112069429.995                    20950204.237    87165142.212  
  20950204.738  
  25261171.696   132748354.102                                                  
                
  24674519.361   129665475.332                                                  
                
  25456649.373   133775596.621                                                  
                
  24119249.908   126747514.922                                                  
                
  24959851.258   131164904.160                                                  
                
  26545127.380   139495587.126                                                  
                
  36235627.727   190419509.058                                   148378877.710  
  36235637.412  
  39106146.495   205504187.020                                   160133148.116  
  39106150.301  
                 195053728.631                                   195053728.631  
  37458017.765  
                 189862527.099                                   189862527.099  
  36461102.150  
                 188230588.388                                   188230588.388  
  36147705.433  
                 200878367.564                                   200878367.564  
  38576578.451  
                 186874941.551                                   186874941.551  
  35887367.581  
                 211149475.682                                   211149475.682  
  40549036.863  
                 187756862.396                                   187756862.396  
  36056731.325  
                 190302308.772                                   190302308.772  
  36545557.478  
                 209406827.612                                   209406827.612  
  40214379.511  
                 126896290.530                                   126896290.530  
  24369098.464  
                 186923428.706                                   186923428.706  
  35896679.058  
                 189055089.799                                   189055089.799  
  36306042.149  
 24  6  8 12 44 16.0000000  0 28G10G18G23G32R 3R13R18R19E 4E10E11E12
                                E19E21J 3J 4C 1C 2C 3C 5C 6C 7C 8C 9
                                C10C12C13C16
  21913520.353   115156327.626                    21913525.696    89732225.307  
  21913525.338  
  21948530.951   115340308.310                    21948537.723    89875592.468  
  21948537.634  
  20529499.535   107883248.364                    20529502.286    84064880.222  
  20529502.143  
  22555092.559   118527812.318                    22555098.527    92359358.450  
  22555098.795  
  22307758.531   119415177.790                    22307764.124    92878494.489  
  22307763.981  
  23050287.340   123087248.096                    23050294.201    95734554.425  
  23050294.219  
  22306784.848   119075132.459                    22306797.910    92614044.903  
  22306797.839  
  20950557.437   112071354.602                    20950564.048    87166639.122  
  20950564.531  
  25261103.633   132747996.449                                                  
                
  24674394.045   129664816.801                                                  
                
  25456294.155   133773729.989                                                  
                
  24119374.776   126748171.227                                                  
                
  24960046.442   131165929.879                                                  
                
  26544950.173   139494655.876                                                  
                
  36235691.484   190419844.029                                   148379138.723  
  36235701.151  
  39105982.332   205503324.357                                   160132475.913  
  39105986.138  
                 195053758.319                                   195053758.319  
  37458023.483  
                 189862540.013                                   189862540.013  
  36461104.616  
                 188230620.252                                   188230620.252  
  36147711.562  
                 200878363.941                                   200878363.941  
  38576577.754  
                 186875053.427                                   186875053.427  
  35887389.060  
                 211149389.426                                   211149389.426  
  40549020.299  
                 187756353.690                                   187756353.690  
  36056633.635  
                 190302257.159                                   190302257.159  
  36545547.579  
                 209407102.428                                   209407102.428  
  40214432.296  
                 126897458.437                                   126897458.437  
  24369322.756  
                 186922768.575                                   186922768.575  
  35896552.295  
                 189055351.254                                   189055351.254  
  36306092.379  
 24  6  8 12 44 17.0000000  0 28G10G18G23G32R 3R13R18R19E 4E10E11E12
                                E19E21J 3J 4C 1C 2C 3C 5C 6C 7C 8C 9
                                C10C12C13C16
  21913061.548   115153916.630                    21913066.891    89730346.614  
  21913066.533  
  21949094.861   115343271.651                    21949101.634    89877901.558  
  21949101.562  
  20529362.211   107882526.734                    20529364.963    84064317.915  
  20529364.838  
  22554968.566   118527160.703                    22554974.516    92358850.700  
  22554974.802  
  22307899.500   119415932.299                    22307905.057    92879081.327  
  22307904.932  
  23050831.326   123090153.059                    23050838.188    95736813.838  
  23050838.224  
  22307490.281   119078897.970                    22307503.308    92616973.631  
  22307503.254  
  20950917.372   112073279.932                    20950923.966    87168136.598  
  20950924.448  
  25261035.606   132747638.936                                                  
                
  24674268.855   129664158.818                                                  
                
  25455939.026   133771863.771                                                  
                
  24119499.770   126748828.079                                                  
                
  24960241.643   131166955.622                                                  
                
  26544773.019   139493724.996                                                  
                
  36235755.241   190420179.140                                   148379399.851  
  36235764.943  
  39105818.170   205502461.682                                   160131803.699  
  39105821.976  
                 195053788.077                                   195053788.077  
  37458029.201  
                 189862553.005                                   189862553.005  
  36461107.118  
                 188230652.202                                   188230652.202  
  36147717.691  
                 200878360.390                                   200878360.390  
  38576577.057  
                 186875165.487                                   186875165.487  
  35887410.574  
                 211149303.106                                   211149303.106  
  40549003.716  
                 187755845.176                                   187755845.176  
  36056535.981  
                 190302205.750                                   190302205.750  
  36545537.697  
                 209407377.169                                   209407377.169  
  40214485.046  
                 126898626.776                                   126898626.776  
  24369547.120  
                 186922108.613                                   186922108.613  
  35896425.550  
                 189055612.895                                   189055612.895  
  36306142.591  
 24  6  8 12 44 18.0000000  0 28G10G18G23G32R 3R13R18R19E 4E10E11E12
                                E19E21J 3J 4C 1C 2C 3C 5C 6C 7C 8C 9
                                C10C12C13C16
  21912602.778   115151505.675                    21912608.103    89728467.950  
  21912607.746  
  21949658.808   115346235.268                    21949665.598    89880210.867  
  21949665.509  
  20529224.959   107881805.390                    20529227.693    84063755.829  
  20529227.568  
  22554844.555   118526509.088                    22554850.523    92358342.951  
  22554850.827  
  22308040.433   119416686.763                    22308045.990    92879668.128  
  22308045.883  
  23051375.456   123093058.556                    23051382.300    95739073.664  
  23051382.335  
  22308195.679   119082663.481                    22308208.723    92619902.359  
  22308208.652  
  20951277.397   112075205.874                    20951284.009    87169634.553  
  20951284.491  
  25260967.561   132747281.383                                                  
                
  24674143.718   129663501.229                                                  
                
  25455583.932   133769997.826                                                  
                
  24119624.853   126749485.314                                                  
                
  24960436.773   131167981.182                                                  
                
  26544595.919   139492794.373                                                  
                
  36235819.015   190420514.245                                   148379660.972  
  36235828.700  
  39105653.989   205501598.866                                   160131131.377  
  39105657.777  
                 195053817.748                                   195053817.748  
  37458034.883  
                 189862565.921                                   189862565.921  
  36461109.602  
                 188230684.051                                   188230684.051  
  36147723.803  
                 200878356.761                                   200878356.761  
  38576576.360  
                 186875277.616                                   186875277.616  
  35887432.106  
                 211149216.536                                   211149216.536  
  40548987.098  
                 187755336.705                                   187755336.705  
  36056438.344  
                 190302154.387                                   190302154.387  
  36545527.834  
                 209407651.680                                   209407651.680  
  40214537.741  
                 126899795.378                                   126899795.378  
  24369771.537  
                 186921448.697                                   186921448.697  
  35896298.823  
                 189055874.589                                   189055874.589  
  36306192.856  
 24  6  8 12 44 19.0000000  0 28G10G18G23G32R 3R13R18R19E 4E10E11E12
                                E19E21J 3J 4C 1C 2C 3C 5C 6C 7C 8C 9
                                C10C12C13C16
  21912143.991   115149094.829                    21912149.316    89726589.371  
  21912148.977  
  21950222.844   115349199.237                    21950229.634    89882520.449  
  21950229.544  
  20529087.761   107881084.461                    20529090.513    84063194.066  
  20529090.370  
  22554720.579   118525857.556                    22554726.530    92357835.267  
  22554726.816  
  22308181.384   119417441.239                    22308186.959    92880254.938  
  22308186.816  
  23051919.657   123095964.649                    23051926.519    95741333.956  
  23051926.536  
  22308901.112   119086429.114                    22308914.174    92622831.187  
  22308914.085  
  20951637.565   112077132.477                    20951644.159    87171133.022  
  20951644.641  
  25260899.533   132746923.911                                                  
                
  24674018.653   129662844.112                                                  
                
  25455228.946   133768132.239                                                  
                
  24119749.990   126750143.012                                                  
                
  24960631.956   131169006.751                                                  
                
  26544418.891   139491864.048                                                  
                
  36235882.790   190420849.459                                   148379922.175  
  36235892.492  
  39105489.791   205500736.012                                   160130459.021  
  39105493.597  
                 195053847.439                                   195053847.439  
  37458040.584  
                 189862578.869                                   189862578.869  
  36461112.103  
                 188230715.932                                   188230715.932  
  36147729.914  
                 200878353.153                                   200878353.153  
  38576575.681  
                 186875389.854                                   186875389.854  
  35887453.657  
                 211149129.803                                   211149129.803  
  40548970.444  
                 187754828.363                                   187754828.363  
  36056340.708  
                 190302103.170                                   190302103.170  
  36545518.006  
                 209407926.060                                   209407926.060  
  40214590.455  
                 126900964.331                                   126900964.331  
  24369996.007  
                 186920788.886                                   186920788.886  
  35896172.114  
                 189056136.396                                   189056136.396  
  36306243.140  
 24  6  8 12 44 20.0000000  0 28G10G18G23G32R 3R13R18R19E 4E10E11E12
                                E19E21J 3J 4C 1C 2C 3C 5C 6C 7C 8C 9
                                C10C12C13C16
  21911685.258   115146684.124                    21911690.583    89724710.900  
  21911690.225  
  21950786.951   115352163.584                    21950793.723    89884830.328  
  21950793.652  
  20528950.634   107880363.937                    20528953.404    84062632.620  
  20528953.261  
  22554596.622   118525206.158                    22554602.572    92357327.685  
  22554602.858  
  22308322.334   119418195.751                    22308327.910    92880841.779  
  22308327.785  
  23052463.983   123098871.329                    23052470.845    95743594.710  
  23052470.863  
  22309606.563   119090194.887                    22309619.626    92625760.121  
  22309619.554  
  20951997.841   112079059.799                    20952004.452    87172632.050  
  20952004.935  
  25260831.506   132746566.513                                                  
                
  24673893.713   129662187.497                                                  
                
  25454874.014   133766267.065                                                  
                
  24119875.234   126750801.205                                                  
                
  24960827.104   131170032.259                                                  
                
  26544241.916   139490934.094                                                  
                
  36235946.618   190421184.781                                   148380183.468  
  36235956.303  
  39105325.574   205499873.105                                   160129786.628  
  39105329.380  
                 195053877.189                                   195053877.189  
  37458046.302  
                 189862591.847                                   189862591.847  
  36461114.587  
                 188230747.848                                   188230747.848  
  36147736.061  
                 200878349.562                                   200878349.562  
  38576574.984  
                 186875502.274                                   186875502.274  
  35887475.224  
                 211149042.959                                   211149042.959  
  40548953.754  
                 187754320.195                                   187754320.195  
  36056243.125  
                 190302052.138                                   190302052.138  
  36545508.196  
                 209408200.277                                   209408200.277  
  40214643.115  
                 126902133.697                                   126902133.697  
  24370220.585  
                 186920129.185                                   186920129.185  
  35896045.422  
                 189056398.374                                   189056398.374  
  36306293.459  
 24  6  8 12 44 21.0000000  0 28G10G18G23G32R 3R13R18R19E 4E10E11E12
                                E19E21J 3J 4C 1C 2C 3C 5C 6C 7C 8C 9
                                C10C12C13C16
  21911226.560   115144273.692                    21911231.885    89722832.643  
  21911231.545  
  21951351.147   115355128.451                    21951357.920    89887140.609  
  21951357.848  
  20528813.632   107879643.967                    20528816.402    84062071.610  
  20528816.259  
  22554472.700   118524555.007                    22554478.651    92356820.303  
  22554478.954  
  22308463.321   119418950.431                    22308468.896    92881428.754  
  22308468.753  
  23053008.452   123101778.773                    23053015.296    95745856.060  
  23053015.332  
  22310312.068   119093960.931                    22310325.130    92628689.267  
  22310325.041  
  20952358.295   112080987.957                    20952364.888    87174131.734  
  20952365.389  
  25260763.550   132746209.358                                                  
                
  24673768.880   129661531.522                                                  
                
  25454519.171   133764402.399                                                  
                
  24120000.603   126751460.057                                                  
                
  24961022.269   131171057.869                                                  
                
  26544065.049   139490004.617                                                  
                
  36236010.446   190421520.332                                   148380444.938  
  36236020.149  
  39105161.394   205499010.307                                   160129114.320  
  39105165.200  
                 195053907.084                                   195053907.084  
  37458052.038  
                 189862604.961                                   189862604.961  
  36461117.089  
                 188230779.935                                   188230779.935  
  36147742.208  
                 200878346.154                                   200878346.154  
  38576574.323  
                 186875614.991                                   186875614.991  
  35887496.882  
                 211148956.125                                   211148956.125  
  40548937.100  
                 187753812.294                                   187753812.294  
  36056145.578  
                 190302001.409                                   190302001.409  
  36545498.457  
                 209408474.533                                   209408474.533  
  40214695.775  
                 126903303.561                                   126903303.561  
  24370445.253  
                 186919469.758                                   186919469.758  
  35895918.767  
                 189056660.617                                   189056660.617  
  36306343.796  
 24  6  8 12 44 22.0000000  0 28G10G18G23G32R 3R13R18R19E 4E10E11E12
                                E19E21J 3J 4C 1C 2C 3C 5C 6C 7C 8C 9
                                C10C12C13C16
  21910767.898   115141863.477                    21910773.241    89720954.556  
  21910772.883  
  21951915.433   115358093.785                    21951922.205    89889451.256  
  21951922.134  
  20528676.720   107878924.516                    20528679.471    84061511.001  
  20528679.346  
  22554348.832   118523904.067                    22554354.800    92356313.084  
  22554355.068  
  22308604.308   119419705.245                    22308609.901    92882015.831  
  22308609.758  
  23053553.064   123104686.920                    23053559.908    95748117.957  
  23053559.944  
  22311017.626   119097727.205                    22311030.689    92631618.591  
  22311030.599  
  20952718.891   112082916.920                    20952725.485    87175632.040  
  20952725.968  
  25260695.612   132745852.380                                                  
                
  24673644.154   129660876.156                                                  
                
  25454164.417   133762538.220                                                  
                
  24120126.097   126752119.471                                                  
                
  24961217.452   131172083.579                                                  
                
  26543888.270   139489075.588                                                  
                
  36236074.346   190421856.118                                   148380706.590  
  36236084.048  
  39104997.231   205498147.588                                   160128442.071  
  39105001.019  
                 195053937.115                                   195053937.115  
  37458057.791  
                 189862618.238                                   189862618.238  
  36461119.644  
                 188230812.165                                   188230812.165  
  36147748.390  
                 200878342.891                                   200878342.891  
  38576573.698  
                 186875727.937                                   186875727.937  
  35887518.575  
                 211148869.226                                   211148869.226  
  40548920.393  
                 187753304.661                                   187753304.661  
  36056048.103  
                 190301950.948                                   190301950.948  
  36545488.754  
                 209408748.733                                   209408748.733  
  40214748.435  
                 126904473.907                                   126904473.907  
  24370670.009  
                 186918810.566                                   186918810.566  
  35895792.182  
                 189056923.128                                   189056923.128  
  36306394.204  
 24  6  8 12 44 23.0000000  0 28G10G18G23G32R 3R13R18R19E 4E10E11E12
                                E19E21J 3J 4C 1C 2C 3C 5C 6C 7C 8C 9
                                C10C12C13C16
  21910309.289   115139453.362                    21910314.614    89719076.548  
  21910314.239  
  21952479.773   115361059.414                    21952486.545    89891762.139  
  21952486.473  
  20528539.879   107878205.424                    20528542.648    84060950.669  
  20528542.505  
  22554224.964   118523253.197                    22554230.915    92355805.918  
  22554231.218  
  22308745.312   119420460.052                    22308750.905    92882602.902  
  22308750.762  
  23054097.748   123107595.590                    23054104.610    95750380.262  
  23054104.627  
  22311723.185   119101493.574                    22311736.247    92634547.992  
  22311736.158  
  20953079.613   112084846.533                    20953086.207    87177132.857  
  20953086.690  
  25260627.692   132745495.430                                                  
                
  24673519.553   129660221.223                                                  
                
  25453809.735   133760674.388                                                  
                
  24120251.681   126752779.358                                                  
                
  24961412.618   131173109.207                                                  
                
  26543711.528   139488146.847                                                  
                
  36236138.245   190422191.942                                   148380968.273  
  36236147.948  
  39104833.033   205497284.760                                   160127769.741  
  39104836.839  
                 195053967.141                                   195053967.141  
  37458063.581  
                 189862631.485                                   189862631.485  
  36461122.181  
                 188230844.356                                   188230844.356  
  36147754.573  
                 200878339.614                                   200878339.614  
  38576573.090  
                 186875841.003                                   186875841.003  
  35887540.286  
                 211148782.173                                   211148782.173  
  40548903.703  
                 187752797.107                                   187752797.107  
  36055950.627  
                 190301900.594                                   190301900.594  
  36545479.105  
                 209409022.761                                   209409022.761  
  40214801.041  
                 126905644.579                                   126905644.579  
  24370894.819  
                 186918151.438                                   186918151.438  
  35895665.616  
                 189057185.720                                   189057185.720  
  36306444.649  
 24  6  8 12 44 24.0000000  0 28G10G18G23G32R 3R13R18R19E 4E10E11E12
                                E19E21J 3J 4C 1C 2C 3C 5C 6C 7C 8C 9
                                C10C12C13C16
  21909850.681   115137043.469                    21909856.006    89717198.715  
  21909855.666  
  21953044.201   115364025.525                    21953050.992    89894073.388  
  21953050.902  
  20528403.145   107877486.818                    20528405.879    84060390.722  
  20528405.772  
  22554101.150   118522602.516                    22554107.082    92355298.902  
  22554107.386  
  22308886.352   119421214.992                    22308891.927    92883190.079  
  22308891.802  
  23054642.592   123110504.998                    23054649.454    95752643.136  
  23054649.472  
  22312428.779   119105260.170                    22312441.841    92637477.573  
  22312441.752  
  20953440.460   112086776.926                    20953447.072    87178634.274  
  20953447.572  
  25260559.790   132745138.654                                                  
                
  24673395.006   129659566.867                                                  
                
  25453455.142   133758811.007                                                  
                
  24120377.336   126753439.797                                                  
                
  24961607.783   131174134.890                                                  
                
  26543534.857   139487218.531                                                  
                
  36236202.198   190422527.960                                   148381230.108  
  36236211.901  
  39104668.834   205496421.950                                   160127097.421  
  39104672.640  
                 195053997.274                                   195053997.274  
  37458069.335  
                 189862644.850                                   189862644.850  
  36461124.737  
                 188230876.676                                   188230876.676  
  36147760.774  
                 200878336.436                                   200878336.436  
  38576572.447  
                 186875954.293                                   186875954.293  
  35887562.032  
                 211148695.044                                   211148695.044  
  40548886.942  
                 187752289.817                                   187752289.817  
  36055853.205  
                 190301850.475                                   190301850.475  
  36545469.456  
                 209409296.755                                   209409296.755  
  40214853.666  
                 126906815.721                                   126906815.721  
  24371119.737  
                 186917492.523                                   186917492.523  
  35895539.068  
                 189057448.542                                   189057448.542  
  36306495.129  
 24  6  8 12 44 25.0000000  0 28G10G18G23G32R 3R13R18R19E 4E10E11E12
                                E19E21J 3J 4C 1C 2C 3C 5C 6C 7C 8C 9
                                C10C12C13C16
  21909392.072   115134633.445                    21909397.397    89715320.776  
  21909397.058  
  21953608.666   115366991.757                    21953615.438    89896384.735  
  21953615.367  
  20528266.429   107876768.380                    20528269.181    84059830.900  
  20528269.038  
  22553977.282   118521951.699                    22553983.250    92354791.775  
  22553983.518  
  22309027.339   119421969.701                    22309032.914    92883777.078  
  22309032.771  
  23055187.490   123113414.696                    23055194.352    95754906.236  
  23055194.370  
  22313134.355   119109026.628                    22313147.417    92640407.045  
  22313147.328  
  20953801.433   112088707.764                    20953808.026    87180136.032  
  20953808.509  
  25260491.869   132744781.702                                                  
                
  24673270.548   129658912.776                                                  
                
  25453100.585   133756947.773                                                  
                
  24120503.062   126754100.488                                                  
                
  24961802.931   131175160.310                                                  
                
  26543358.222   139486290.306                                                  
                
  36236266.116   190422863.837                                   148381491.832  
  36236275.819  
  39104504.618   205495558.903                                   160126424.919  
  39104508.406  
                 195054027.201                                   195054027.201  
  37458075.089  
                 189862658.016                                   189862658.016  
  36461127.274  
                 188230908.778                                   188230908.778  
  36147766.956  
                 200878333.051                                   200878333.051  
  38576571.803  
                 186876067.501                                   186876067.501  
  35887583.761  
                 211148607.550                                   211148607.550  
  40548870.127  
                 187751782.426                                   187751782.426  
  36055755.765  
                 190301800.279                                   190301800.279  
  36545459.824  
                 209409570.361                                   209409570.361  
  40214906.201  
                 126907986.981                                   126907986.981  
  24371344.654  
                 186916833.511                                   186916833.511  
  35895412.519  
                 189057711.265                                   189057711.265  
  36306545.573  
 24  6  8 12 44 26.0000000  0 28G10G18G23G32R 3R13R18R19E 4E10E11E12
                                E19E21J 3J 4C 1C 2C 3C 5C 6C 7C 8C 9
                                C10C12C13C16
  21908933.464   115132223.453                    21908938.789    89713442.867  
  21908938.432  
  21954173.166   115369958.250                    21954179.939    89898696.287  
  21954179.867  
  20528129.767   107876050.259                    20528132.519    84059271.325  
  20528132.393  
  22553853.449   118521300.897                    22553859.382    92354284.663  
  22553859.686  
  22309168.308   119422724.339                    22309173.901    92884364.016  
  22309173.758  
  23055732.478   123116324.916                    23055739.321    95757169.741  
  23055739.357  
  22313839.949   119112793.135                    22313852.994    92643336.555  
  22313852.922  
  20954162.494   112090639.223                    20954169.088    87181638.283  
  20954169.570  
  25260423.949   132744424.756                                                  
                
  24673146.126   129658259.066                                                  
                
  25452746.081   133755084.821                                                  
                
  24120628.860   126754761.578                                                  
                
  24961998.025   131176185.574                                                  
                
  26543181.640   139485362.337                                                  
                
  36236330.033   190423199.735                                   148381753.573  
  36236339.736  
  39104340.348   205494695.694                                   160125752.291  
  39104344.136  
                 195054057.072                                   195054057.072  
  37458080.842  
                 189862671.115                                   189862671.115  
  36461129.776  
                 188230940.819                                   188230940.819  
  36147773.103  
                 200878329.591                                   200878329.591  
  38576571.124  
                 186876180.770                                   186876180.770  
  35887605.525  
                 211148519.805                                   211148519.805  
  40548853.295  
                 187751275.092                                   187751275.092  
  36055658.326  
                 190301750.166                                   190301750.166  
  36545450.193  
                 209409843.776                                   209409843.776  
  40214958.736  
                 126909158.548                                   126909158.548  
  24371569.643  
                 186916174.514                                   186916174.514  
  35895285.953  
                 189057974.043                                   189057974.043  
  36306596.053  
 24  6  8 12 44 27.0000000  0 28G10G18G23G32R 3R13R18R19E 4E10E11E12
                                E19E21J 3J 4C 1C 2C 3C 5C 6C 7C 8C 9
                                C10C12C13C16
  21908474.873   115129813.578                    21908480.198    89711565.045  
  21908479.859  
  21954737.738   115372925.103                    21954744.510    89901008.119  
  21954744.439  
  20527993.194   107875332.522                    20527995.946    84058712.049  
  20527995.803  
  22553729.599   118520650.183                    22553735.567    92353777.620  
  22553735.835  
  22309309.276   119423478.967                    22309314.869    92884950.944  
  22309314.709  
  23056277.590   123119235.714                    23056284.434    95759433.693  
  23056284.470  
  22314545.561   119116559.739                    22314558.606    92646266.136  
  22314558.552  
  20954523.698   112092571.373                    20954530.292    87183141.068  
  20954530.775  
  25260356.029   132744067.842                                                  
                
  24673021.829   129657605.849                                                  
                
  25452391.631   133753222.218                                                  
                
  24120754.765   126755423.144                                                  
                
  24962193.119   131177210.797                                                  
                
  26543005.094   139484434.681                                                  
                
  36236393.969   190423535.700                                   148382015.366  
  36236403.654  
  39104176.078   205493832.429                                   160125079.617  
  39104179.866  
                 195054086.929                                   195054086.929  
  37458086.561  
                 189862684.221                                   189862684.221  
  36461132.295  
                 188230972.854                                   188230972.854  
  36147779.232  
                 200878326.142                                   200878326.142  
  38576570.463  
                 186876294.159                                   186876294.159  
  35887627.308  
                 211148431.917                                   211148431.917  
  40548836.408  
                 187750767.881                                   187750767.881  
  36055560.939  
                 190301700.181                                   190301700.181  
  36545440.597  
                 209410116.985                                   209410116.985  
  40215011.163  
                 126910330.450                                   126910330.450  
  24371794.703  
                 186915515.625                                   186915515.625  
  35895159.423  
                 189058236.944                                   189058236.944  
  36306646.515  
 24  6  8 12 44 28.0000000  0 28G10G18G23G32R 3R13R18R19E 4E10E11E12
                                E19E21J 3J 4C 1C 2C 3C 5C 6C 7C 8C 9
                                C10C12C13C16
  21908016.319   115127403.839                    21908021.643    89709687.330  
  21908021.268  
  21955302.399   115375892.326                    21955309.172    89903320.236  
  21955309.100  
  20527856.692   107874615.202                    20527859.444    84058153.096  
  20527859.301  
  22553605.802   118519999.584                    22553611.753    92353270.660  
  22553612.039  
  22309450.281   119424233.650                    22309455.856    92885537.915  
  22309455.713  
  23056822.792   123122147.175                    23056829.653    95761698.159  
  23056829.671  
  22315251.209   119120326.490                    22315264.271    92649195.827  
  22315264.182  
  20954885.010   112094504.209                    20954891.604    87184644.383  
  20954892.086  
  25260288.127   132743711.048                                                  
                
  24672897.640   129656953.119                                                  
                
  25452037.253   133751360.011                                                  
                
  24120880.742   126756085.202                                                  
                
  24962388.195   131178235.979                                                  
                
  26542828.655   139483507.378                                                  
                
  36236457.904   190423871.788                                   148382277.253  
  36236467.607  
  39104011.808   205492969.132                                   160124406.918  
  39104015.578  
                 195054116.824                                   195054116.824  
  37458092.297  
                 189862697.376                                   189862697.376  
  36461134.815  
                 188231004.950                                   188231004.950  
  36147785.415  
                 200878322.732                                   200878322.732  
  38576569.802  
                 186876407.710                                   186876407.710  
  35887649.108  
                 211148343.864                                   211148343.864  
  40548819.486  
                 187750260.850                                   187750260.850  
  36055463.571  
                 190301650.345                                   190301650.345  
  36545431.037  
                 209410390.123                                   209410390.123  
  40215063.645  
                 126911502.744                                   126911502.744  
  24372019.817  
                 186914856.869                                   186914856.869  
  35895032.946  
                 189058499.978                                   189058499.978  
  36306697.049  
 24  6  8 12 44 29.0000000  0 28G10G18G23G32R 3R13R18R19E 4E10E11E12
                                E19E21J 3J 4C 1C 2C 3C 5C 6C 7C 8C 9
                                C10C12C13C16
  21907557.799   115124994.251                    21907563.106    89707809.730  
  21907562.749  
  21955867.114   115378859.922                    21955873.904    89905632.646  
  21955873.815  
  20527720.280   107873898.305                    20527723.014    84057594.477  
  20527722.889  
  22553482.024   118519349.096                    22553487.956    92352763.788  
  22553488.260  
  22309591.250   119424988.386                    22309596.843    92886124.930  
  22309596.700  
  23057368.136   123125059.243                    23057374.998    95763963.099  
  23057375.016  
  22315956.857   119124093.378                    22315969.919    92652125.631  
  22315969.865  
  20955246.465   112096437.759                    20955253.076    87186148.251  
  20955253.559  
  25260220.242   132743354.319                                                  
                
  24672773.521   129656300.908                                                  
                
  25451682.946   133749498.203                                                  
                
  24121006.826   126756747.759                                                  
                
  24962583.271   131179261.143                                                  
                
  26542652.234   139482580.403                                                  
                
  36236521.893   190424207.993                                   148382539.231  
  36236531.596  
  39103847.502   205492105.805                                   160123734.200  
  39103851.308  
                 195054146.777                                   195054146.777  
  37458098.050  
                 189862710.559                                   189862710.559  
  36461137.370  
                 188231037.066                                   188231037.066  
  36147791.580  
                 200878319.382                                   200878319.382  
  38576569.177  
                 186876521.416                                   186876521.416  
  35887670.926  
                 211148255.718                                   211148255.718  
  40548802.547  
                 187749753.964                                   187749753.964  
  36055366.239  
                 190301600.704                                   190301600.704  
  36545421.495  
                 209410663.087                                   209410663.087  
  40215116.054  
                 126912675.405                                   126912675.405  
  24372245.021  
                 186914198.224                                   186914198.224  
  35894906.433  
                 189058763.183                                   189058763.183  
  36306747.582  
 24  6  8 12 44 30.0000000  0 28G10G18G23G32R 3R13R18R19E 4E10E11E12
                                E19E21J 3J 4C 1C 2C 3C 5C 6C 7C 8C 9
                                C10C12C13C16
  21907099.280   115122584.820                    21907104.605    89705932.255  
  21907104.248  
  21956431.918   115381827.944                    21956438.690    89907945.386  
  21956438.619  
  20527583.940   107873181.862                    20527586.673    84057036.210  
  20527586.548  
  22553358.263   118518698.793                    22553364.213    92352257.061  
  22553364.499  
  22309732.272   119425743.197                    22309737.847    92886712.002  
  22309737.722  
  23057913.588   123127971.965                    23057920.450    95766228.549  
  23057920.468  
  22316662.558   119127860.456                    22316675.620    92655055.581  
  22316675.567  
  20955608.080   112098372.071                    20955614.674    87187652.709  
  20955615.156  
  25260152.376   132742997.736                                                  
                
  24672649.510   129655649.214                                                  
                
  25451328.764   133747636.830                                                  
                
  24121132.999   126757410.857                                                  
                
  24962778.383   131180286.339                                                  
                
  26542475.921   139481653.851                                                  
                
  36236585.882   190424544.340                                   148382801.324  
  36236595.585  
  39103683.214   205491242.473                                   160123061.478  
  39103687.003  
                 195054176.776                                   195054176.776  
  37458103.822  
                 189862723.810                                   189862723.810  
  36461139.890  
                 188231069.258                                   188231069.258  
  36147797.763  
                 200878316.087                                   200878316.087  
  38576568.551  
                 186876635.325                                   186876635.325  
  35887692.798  
                 211148167.508                                   211148167.508  
  40548785.660  
                 187749247.273                                   187749247.273  
  36055268.924  
                 190301551.251                                   190301551.251  
  36545411.989  
                 209410935.947                                   209410935.947  
  40215168.464  
                 126913848.499                                   126913848.499  
  24372470.295  
                 186913539.753                                   186913539.753  
  35894779.992  
                 189059026.575                                   189059026.575  
  36306798.169  
 24  6  8 12 44 31.0000000  0 28G10G18G23G32R 3R13R18R19E 4E10E11E12
                                E19E21J 3J 4C 1C 2C 3C 5C 6C 7C 8C 9
                                C10C12C13C16
  21906640.797   115120175.438                    21906646.104    89704054.817  
  21906645.747  
  21956996.758   115384796.206                    21957003.530    89910258.315  
  21957003.459  
  20527447.652   107872465.722                    20527450.386    84056478.181  
  20527450.279  
  22553234.520   118518048.463                    22553240.452    92351750.317  
  22553240.738  
  22309873.258   119426497.939                    22309878.834    92887299.024  
  22309878.691  
  23058459.148   123130885.170                    23058465.991    95768494.378  
  23058466.027  
  22317368.277   119131627.559                    22317381.339    92657985.554  
  22317381.250  
  20955969.767   112100306.975                    20955976.396    87189157.625  
  20955976.879  
  25260084.509   132742641.119                                                  
                
  24672525.571   129654997.934                                                  
                
  25450974.600   133745775.738                                                  
                
  24121259.244   126758074.339                                                  
                
  24962973.423   131181311.351                                                  
                
  26542299.643   139480727.519                                                  
                
  36236649.907   190424880.704                                   148383063.426  
  36236659.592  
  39103518.909   205490379.003                                   160122388.644  
  39103522.697  
                 195054206.724                                   195054206.724  
  37458109.558  
                 189862737.003                                   189862737.003  
  36461142.427  
                 188231101.383                                   188231101.383  
  36147803.909  
                 200878312.735                                   200878312.735  
  38576567.890  
                 186876749.275                                   186876749.275  
  35887714.687  
                 211148079.024                                   211148079.024  
  40548768.631  
                 187748740.638                                   187748740.638  
  36055171.627  
                 190301501.863                                   190301501.863  
  36545402.518  
                 209411208.603                                   209411208.603  
  40215220.803  
                 126915021.860                                   126915021.860  
  24372695.642  
                 186912881.323                                   186912881.323  
  35894653.550  
                 189059289.999                                   189059289.999  
  36306848.757  
 24  6  8 12 44 32.0000000  0 28G10G18G23G32R 3R13R18R19E 4E10E11E12
                                E19E21J 3J 4C 1C 2C 3C 5C 6C 7C 8C 9
                                C10C12C13C16
  21906182.278   115117765.930                    21906187.585    89702177.283  
  21906187.245  
  21957561.616   115387764.609                    21957568.406    89912571.352  
  21957568.316  
  20527311.419   107871749.752                    20527314.153    84055920.278  
  20527314.028  
  22553110.741   118517397.999                    22553116.674    92351243.464  
  22553116.960  
  22310014.209   119427252.469                    22310019.802    92887885.883  
  22310019.659  
  23059004.760   123133798.723                    23059011.604    95770760.477  
  23059011.640  
  22318073.961   119135394.536                    22318087.023    92660915.428  
  22318086.934  
  20956331.579   112102242.284                    20956338.173    87190662.865  
  20956338.673  
  25260016.625   132742284.346                                                  
                
  24672401.685   129654346.903                                                  
                
  25450620.454   133743914.758                                                  
                
  24121385.560   126758738.067                                                  
                
  24963168.428   131182336.116                                                  
                
  26542123.383   139479801.287                                                  
                
  36236713.896   190425216.901                                   148383325.400  
  36236723.563  
  39103354.532   205489515.230                                   160121715.575  
  39103358.320  
                 195054236.473                                   195054236.473  
  37458115.276  
                 189862749.986                                   189862749.986  
  36461144.929  
                 188231133.305                                   188231133.305  
  36147810.056  
                 200878309.158                                   200878309.158  
  38576567.211  
                 186876863.137                                   186876863.137  
  35887736.541  
                 211147990.157                                   211147990.157  
  40548751.602  
                 187748233.877                                   187748233.877  
  36055074.294  
                 190301452.407                                   190301452.407  
  36545393.012  
                 209411480.889                                   209411480.889  
  40215273.105  
                 126916195.352                                   126916195.352  
  24372921.006  
                 186912222.739                                   186912222.739  
  35894527.074  
                 189059553.327                                   189059553.327  
  36306899.326  
 24  6  8 12 44 33.0000000  0 28G10G18G23G32R 3R13R18R19E 4E10E11E12
                                E19E21J 3J 4C 1C 2C 3C 5C 6C 7C 8C 9
                                C10C12C13C16
  21905723.794   115115356.543                    21905729.084    89700299.841  
  21905728.744  
  21958126.545   115390733.355                    21958133.353    89914884.658  
  21958133.246  
  20527175.239   107871034.169                    20527177.973    84055362.683  
  20527177.866  
  22552986.980   118516747.640                    22552992.913    92350736.696  
  22552993.199  
  22310155.160   119428006.987                    22310160.735    92888472.728  
  22310160.592  
  23059550.498   123136712.870                    23059557.342    95773027.036  
  23059557.360  
  22318779.644   119139161.609                    22318792.706    92663845.364  
  22318792.653  
  20956693.498   112104178.296                    20956700.092    87192168.652  
  20956700.574  
  25259948.741   132741927.625                                                  
                
  24672277.871   129653696.330                                                  
                
  25450266.397   133742054.162                                                  
                
  24121511.947   126759402.259                                                  
                
  24963363.433   131183360.832                                                  
                
  26541947.176   139478875.378                                                  
                
  36236777.867   190425553.203                                   148383587.454  
  36236787.570  
  39103190.137   205488651.422                                   160121042.480  
  39103193.943  
                 195054266.219                                   195054266.219  
  37458120.976  
                 189862762.966                                   189862762.966  
  36461147.395  
                 188231165.229                                   188231165.229  
  36147816.185  
                 200878305.579                                   200878305.579  
  38576566.496  
                 186876977.130                                   186876977.130  
  35887758.448  
                 211147901.133                                   211147901.133  
  40548734.466  
                 187747727.282                                   187747727.282  
  36054977.016  
                 190301403.086                                   190301403.086  
  36545383.541  
                 209411753.022                                   209411753.022  
  40215325.372  
                 126917369.208                                   126917369.208  
  24373146.423  
                 186911564.292                                   186911564.292  
  35894400.614  
                 189059816.768                                   189059816.768  
  36306949.913  
 24  6  8 12 44 34.0000000  0 28G10G18G23G32R 3R13R18R19E 4E10E11E12
                                E19E21J 3J 4C 1C 2C 3C 5C 6C 7C 8C 9
                                C10C12C13C16
  21905265.329   115112947.340                    21905270.636    89698422.544  
  21905270.279  
  21958691.563   115393702.527                    21958698.353    89917198.294  
  21958698.264  
  20527039.167   107870319.035                    20527041.901    84054805.440  
  20527041.775  
  22552863.237   118516097.430                    22552869.170    92350230.044  
  22552869.474  
  22310296.129   119428761.582                    22310301.722    92889059.633  
  22310301.579  
  23060096.343   123139627.628                    23060103.187    95775294.070  
  23060103.223  
  22319485.417   119142928.905                    22319498.479    92666775.474  
  22319498.390  
  20957055.542   112106115.058                    20957062.154    87193675.022  
  20957062.636  
  25259880.892   132741571.040                                                  
                
  24672154.163   129653046.317                                                  
                
  25449912.412   133740193.954                                                  
                
  24121638.424   126760066.993                                                  
                
  24963558.437   131184385.564                                                  
                
  26541771.077   139477949.885                                                  
                
  36236841.892   190425889.644                                   148383849.617  
  36236851.594  
  39103025.760   205487787.606                                   160120369.376  
  39103029.566  
                 195054296.033                                   195054296.033  
  37458126.694  
                 189862776.037                                   189862776.037  
  36461149.914  
                 188231197.223                                   188231197.223  
  36147822.315  
                 200878302.118                                   200878302.118  
  38576565.835  
                 186877091.330                                   186877091.330  
  35887780.356  
                 211147812.036                                   211147812.036  
  40548717.401  
                 187747220.879                                   187747220.879  
  36054879.790  
                 190301353.982                                   190301353.982  
  36545374.107  
                 209412025.067                                   209412025.067  
  40215377.603  
                 126918543.480                                   126918543.480  
  24373371.930  
                 186910906.024                                   186910906.024  
  35894274.191  
                 189060080.416                                   189060080.416  
  36307000.536  
 24  6  8 12 44 35.0000000  0 28G10G18G23G32R 3R13R18R19E 4E10E11E12
                                E19E21J 3J 4C 1C 2C 3C 5C 6C 7C 8C 9
                                C10C12C13C16
  21904806.917   115110538.346                    21904812.206    89696545.406  
  21904811.849  
  21959256.671   115396672.130                    21959263.461    89919512.266  
  21959263.390  
  20526903.165   107869604.415                    20526905.917    84054248.591  
  20526905.774  
  22552739.530   118515447.418                    22552745.481    92349723.545  
  22552745.766  
  22310437.115   119429516.286                    22310442.691    92889646.620  
  22310442.548  
  23060642.313   123142543.111                    23060649.157    95777561.672  
  23060649.193  
  22320191.190   119146696.410                    22320204.270    92669705.748  
  22320204.180  
  20957417.730   112108052.608                    20957424.359    87195182.006  
  20957424.842  
  25259813.043   132741214.610                                                  
                
  24672030.599   129652396.883                                                  
                
  25449558.516   133738334.268                                                  
                
  24121765.044   126760732.309                                                  
                
  24963753.424   131185410.300                                                  
                
  26541595.032   139477024.794                                                  
                
  36236905.952   190426226.284                                   148384111.936  
  36236915.655  
  39102861.400   205486923.839                                   160119696.312  
  39102865.188  
                 195054325.963                                   195054325.963  
  37458132.466  
                 189862789.232                                   189862789.232  
  36461152.434  
                 188231229.345                                   188231229.345  
  36147828.479  
                 200878298.725                                   200878298.725  
  38576565.174  
                 186877205.754                                   186877205.754  
  35887802.335  
                 211147722.851                                   211147722.851  
  40548700.229  
                 187746714.706                                   187746714.706  
  36054782.565  
                 190301305.108                                   190301305.108  
  36545364.707  
                 209412297.078                                   209412297.078  
  40215429.817  
                 126919718.225                                   126919718.225  
  24373597.527  
                 186910247.964                                   186910247.964  
  35894147.839  
                 189060344.299                                   189060344.299  
  36307051.213  
 24  6  8 12 44 36.0000000  0 28G10G18G23G32R 3R13R18R19E 4E10E11E12
                                E19E21J 3J 4C 1C 2C 3C 5C 6C 7C 8C 9
                                C10C12C13C16
  21904348.487   115108129.401                    21904353.794    89694668.309  
  21904353.455  
  21959821.833   115399642.035                    21959828.623    89921826.475  
  21959828.551  
  20526767.236   107868890.114                    20526769.988    84053691.996  
  20526769.845  
  22552615.841   118514797.435                    22552621.791    92349217.067  
  22552622.059  
  22310578.102   119430270.953                    22310583.677    92890233.581  
  22310583.534  
  23061188.373   123145459.122                    23061195.234    95779829.681  
  23061195.252  
  22320896.980   119150463.930                    22320910.060    92672636.032  
  22320909.989  
  20957780.060   112109990.782                    20957786.671    87196689.477  
  20957787.154  
  25259745.230   132740858.183                                                  
                
  24671907.070   129651747.856                                                  
                
  25449204.691   133736474.860                                                  
                
  24121891.718   126761398.000                                                  
                
  24963948.411   131186434.971                                                  
                
  26541419.022   139476099.944                                                  
                
  36236970.030   190426562.941                                   148384374.269  
  36236979.697  
  39102697.005   205486059.952                                   160119023.157  
  39102700.811  
                 195054355.852                                   195054355.852  
  37458138.202  
                 189862802.378                                   189862802.378  
  36461154.989  
                 188231261.395                                   188231261.395  
  36147834.644  
                 200878295.320                                   200878295.320  
  38576564.549  
                 186877320.259                                   186877320.259  
  35887824.332  
                 211147633.478                                   211147633.478  
  40548683.074  
                 187746208.614                                   187746208.614  
  36054685.375  
                 190301256.307                                   190301256.307  
  36545355.362  
                 209412568.844                                   209412568.844  
  40215482.012  
                 126920893.262                                   126920893.262  
  24373823.195  
                 186909589.944                                   186909589.944  
  35894021.452  
                 189060608.229                                   189060608.229  
  36307101.889  
 24  6  8 12 44 37.0000000  0 28G10G18G23G32R 3R13R18R19E 4E10E11E12
                                E19E21J 3J 4C 1C 2C 3C 5C 6C 7C 8C 9
                                C10C12C13C16
  21903890.093   115105720.448                    21903895.400    89692791.207  
  21903895.025  
  21960387.030   115402612.164                    21960393.802    89924140.859  
  21960393.731  
  20526631.360   107868176.075                    20526634.112    84053135.604  
  20526633.969  
  22552492.151   118514147.425                    22552498.084    92348710.568  
  22552498.388  
  22310719.053   119431025.519                    22310724.664    92890820.466  
  22310724.503  
  23061734.539   123148375.559                    23061741.365    95782098.018  
  23061741.419  
  22321602.771   119154231.414                    22321615.851    92675566.293  
  22321615.762  
  20958142.497   112111929.503                    20958149.091    87198197.373  
  20958149.591  
  25259677.382   132740501.709                                                  
                
  24671783.631   129651099.185                                                  
                
  25448850.902   133734615.711                                                  
                
  24122018.463   126762064.076                                                  
                
  24964143.362   131187459.470                                                  
                
  26541243.065   139475175.335                                                  
                
  36237034.073   190426899.572                                   148384636.581  
  36237043.758  
  39102532.592   205485195.878                                   160118349.852  
  39102536.363  
                 195054385.639                                   195054385.639  
  37458143.920  
                 189862815.408                                   189862815.408  
  36461157.491  
                 188231293.351                                   188231293.351  
  36147840.773  
                 200878291.784                                   200878291.784  
  38576563.834  
                 186877434.756                                   186877434.756  
  35887846.310  
                 211147543.823                                   211147543.823  
  40548665.849  
                 187745702.514                                   187745702.514  
  36054588.186  
                 190301207.547                                   190301207.547  
  36545345.981  
                 209412840.351                                   209412840.351  
  40215534.172  
                 126922068.525                                   126922068.525  
  24374048.881  
                 186908931.898                                   186908931.898  
  35893895.100  
                 189060872.167                                   189060872.167  
  36307152.601  
 24  6  8 12 44 38.0000000  0 27G10G18G23G32R 3R13R18R19E 4E10E11E12
                                E19E21J 3J 4C 2C 3C 5C 6C 7C 8C 9C10
                                C12C13C16
  21903431.717   115103311.685                    21903437.006    89690914.254  
  21903436.649  
  21960952.298   115405582.720                    21960959.106    89926455.576  
  21960959.017  
  20526495.573   107867462.525                    20526498.325    84052579.593  
  20526498.182  
  22552368.480   118513497.591                    22552374.430    92348204.209  
  22552374.716  
  22310860.039   119431780.165                    22310865.615    92891407.413  
  22310865.472  
  23062280.813   123151292.670                    23062287.657    95784366.882  
  23062287.693  
  22322308.580   119157999.094                    22322321.642    92678496.707  
  22322321.588  
  20958505.060   112113869.001                    20958511.671    87199705.867  
  20958512.154  
  25259609.586   132740145.364                                                  
                
  24671660.317   129650451.088                                                  
                
  25448497.203   133732757.011                                                  
                
  24122145.315   126762730.686                                                  
                
  24964338.331   131188483.968                                                  
                
  26541067.216   139474251.118                                                  
                
  36237098.169   190427236.377                                   148384899.026  
  36237107.836  
  39102368.162   205484331.832                                   160117676.568  
  39102371.950  
                 189862828.531                                   189862828.531  
  36461160.010  
                 188231325.407                                   188231325.407  
  36147846.938  
                 200878288.339                                   200878288.339  
  38576563.191  
                 186877549.487                                   186877549.487  
  35887868.361  
                 211147454.112                                   211147454.112  
  40548648.641  
                 187745196.663                                   187745196.663  
  36054491.050  
                 190301159.007                                   190301159.007  
  36545336.653  
                 209413111.800                                   209413111.800  
  40215586.278  
                 126923244.233                                   126923244.233  
  24374274.674  
                 186908274.038                                   186908274.038  
  35893768.748  
                 189061136.318                                   189061136.318  
  36307203.314  
 24  6  8 12 44 39.0000000  0 27G10G18G23G32R 3R13R18R19E 4E10E11E12
                                E19E21J 3J 4C 2C 3C 5C 6C 7C 8C 9C10
                                C12C13C16
  21902973.376   115100903.087                    21902978.684    89689037.433  
  21902978.308  
  21961517.656   115408553.682                    21961524.464    89928770.611  
  21961524.375  
  20526359.876   107866749.405                    20526362.610    84052023.915  
  20526362.485  
  22552244.844   118512847.890                    22552250.777    92347697.952  
  22552251.080  
  22311001.008   119432534.869                    22311006.619    92891994.402  
  22311006.458  
  23062827.230   123154210.431                    23062834.074    95786636.254  
  23062834.092  
  22323014.424   119161766.948                    22323027.504    92681427.266  
  22323027.415  
  20958867.765   112115809.215                    20958874.377    87201214.920  
  20958874.859  
  25259541.774   132739789.143                                                  
                
  24671537.092   129649803.505                                                  
                
  25448143.575   133730898.707                                                  
                
  24122272.274   126763397.818                                                  
                
  24964533.282   131189508.477                                                  
                
  26540891.403   139473327.260                                                  
                
  36237162.283   190427573.301                                   148385161.567  
  36237171.968  
  39102203.731   205483467.757                                   160117003.265  
  39102207.519  
                 189862841.697                                   189862841.697  
  36461162.530  
                 188231357.517                                   188231357.517  
  36147853.103  
                 200878284.974                                   200878284.974  
  38576562.547  
                 186877664.385                                   186877664.385  
  35887890.393  
                 211147364.279                                   211147364.279  
  40548631.397  
                 187744690.990                                   187744690.990  
  36054393.931  
                 190301110.663                                   190301110.663  
  36545327.397  
                 209413383.157                                   209413383.157  
  40215638.402  
                 126924420.333                                   126924420.333  
  24374500.520  
                 186907616.340                                   186907616.340  
  35893642.450  
                 189061400.643                                   189061400.643  
  36307254.080  
 24  6  8 12 44 40.0000000  0 27G10G18G23G32R 3R13R18R19E 4E10E11E12
                                E19E21J 3J 4C 2C 3C 5C 6C 7C 8C 9C10
                                C12C13C16
  21902515.054   115098494.680                    21902520.361    89687160.754  
  21902520.004  
  21962083.104   115411525.043                    21962089.876    89931085.948  
  21962089.805  
  20526224.250   107866036.736                    20526226.984    84051468.588  
  20526226.877  
  22552121.244   118512198.320                    22552127.177    92347191.799  
  22552127.462  
  22311142.013   119433289.653                    22311147.624    92892581.459  
  22311147.463  
  23063373.754   123157128.857                    23063380.580    95788906.141  
  23063380.634  
  22323720.304   119165534.992                    22323733.384    92684357.972  
  22323733.295  
  20959230.596   112117750.173                    20959237.225    87202724.552  
  20959237.725  
  25259474.014   132739433.030                                                  
                
  24671413.939   129649156.442                                                  
                
  25447790.019   133729040.817                                                  
                
  24122399.323   126764065.490                                                  
                
  24964728.215   131190532.999                                                  
                
  26540715.679   139472403.801                                                  
                
  36237226.415   190427910.378                                   148385424.229  
  36237236.100  
  39102039.300   205482603.703                                   160116329.976  
  39102043.088  
                 189862854.933                                   189862854.933  
  36461165.049  
                 188231389.686                                   188231389.686  
  36147859.286  
                 200878281.656                                   200878281.656  
  38576561.904  
                 186877779.483                                   186877779.483  
  35887912.515  
                 211147274.345                                   211147274.345  
  40548614.118  
                 187744185.503                                   187744185.503  
  36054296.849  
                 190301062.501                                   190301062.501  
  36545318.123  
                 209413654.376                                   209413654.376  
  40215690.454  
                 126925596.855                                   126925596.855  
  24374726.474  
                 186906958.832                                   186906958.832  
  35893516.187  
                 189061665.151                                   189061665.151  
  36307304.863  
 24  6  8 12 44 41.0000000  0 27G10G18G23G32R 3R13R18R19E 4E10E11E12
                                E19E21J 3J 4C 2C 3C 5C 6C 7C 8C 9C10
                                C12C13C16
  21902056.749   115096086.202                    21902062.038    89685284.023  
  21902061.681  
  21962648.551   115414496.580                    21962655.359    89933401.432  
  21962655.270  
  20526088.678   107865324.293                    20526091.429    84050913.438  
  20526091.286  
  22551997.626   118511548.680                    22552003.559    92346685.591  
  22552003.845  
  22311282.981   119434044.275                    22311288.574    92893168.390  
  22311288.431  
  23063920.350   123160047.664                    23063927.176    95791176.327  
  23063927.229  
  22324426.148   119169302.971                    22324439.228    92687288.627  
  22324439.157  
  20959593.533   112119691.622                    20959600.163    87204234.568  
  20959600.645  
  25259406.219   132739076.814                                                  
                
  24671290.893   129648509.710                                                  
                
  25447436.516   133727183.108                                                  
                
  24122526.425   126764733.462                                                  
                
  24964923.148   131191557.306                                                  
                
  26540539.973   139471480.494                                                  
                
  36237290.547   190428247.376                                   148385686.827  
  36237300.214  
  39101874.834   205481739.414                                   160115656.507  
  39101878.622  
                 189862868.044                                   189862868.044  
  36461167.587  
                 188231421.706                                   188231421.706  
  36147865.415  
                 200878278.205                                   200878278.205  
  38576561.225  
                 186877894.544                                   186877894.544  
  35887934.601  
                 211147184.079                                   211147184.079  
  40548596.767  
                 187743679.972                                   187743679.972  
  36054199.784  
                 190301014.328                                   190301014.328  
  36545308.867  
                 209413925.319                                   209413925.319  
  40215742.524  
                 126926773.567                                   126926773.567  
  24374952.446  
                 186906301.228                                   186906301.228  
  35893389.907  
                 189061929.601                                   189061929.601  
  36307355.647  
 24  6  8 12 44 42.0000000  0 27G10G18G23G32R 3R13R18R19E 4E10E11E12
                                E19E21J 3J 4C 2C 3C 5C 6C 7C 8C 9C10
                                C12C13C16
  21901598.462   115093677.915                    21901603.734    89683407.440  
  21901603.394  
  21963214.124   115417468.560                    21963220.896    89935717.258  
  21963220.824  
  20525953.195   107864612.316                    20525955.929    84050358.653  
  20525955.821  
  22551874.026   118510899.216                    22551879.959    92346179.519  
  22551880.245  
  22311423.968   119434798.988                    22311429.561    92893755.388  
  22311429.418  
  23064467.053   123162967.116                    23064473.896    95793447.012  
  23064473.932  
  22325132.064   119173071.126                    22325145.126    92690219.412  
  22325145.073  
  20959956.614   112121633.852                    20959963.243    87205745.194  
  20959963.744  
  25259338.478   132738720.743                                                  
                
  24671167.918   129647863.515                                                  
                
  25447083.066   133725325.843                                                  
                
  24122653.635   126765401.982                                                  
                
  24965118.081   131192581.620                                                  
                
  26540364.320   139470557.557                                                  
                
  36237354.697   190428584.530                                   148385949.547  
  36237364.382  
  39101710.367   205480875.143                                   160114983.048  
  39101714.173  
                 189862881.199                                   189862881.199  
  36461170.088  
                 188231453.823                                   188231453.823  
  36147871.597  
                 200878274.829                                   200878274.829  
  38576560.582  
                 186878009.802                                   186878009.802  
  35887956.723  
                 211147093.769                                   211147093.769  
  40548579.452  
                 187743174.636                                   187743174.636  
  36054102.738  
                 190300966.373                                   190300966.373  
  36545299.664  
                 209414196.184                                   209414196.184  
  40215794.505  
                 126927950.720                                   126927950.720  
  24375178.507  
                 186905643.836                                   186905643.836  
  35893263.644  
                 189062194.267                                   189062194.267  
  36307406.467  
 24  6  8 12 44 43.0000000  0 27G10G18G23G32R 3R13R18R19E 4E10E11E12
                                E19E21J 3J 4C 2C 3C 5C 6C 7C 8C 9C10
                                C12C13C16
  21901140.176   115091269.698                    21901145.483    89681530.907  
  21901145.125  
  21963779.732   115420440.839                    21963786.522    89938033.313  
  21963786.433  
  20525817.783   107863900.707                    20525820.535    84049804.152  
  20525820.392  
  22551750.444   118510249.811                    22551756.376    92345673.494  
  22551756.662  
  22311564.955   119435553.709                    22311570.548    92894342.394  
  22311570.387  
  23065013.898   123165887.143                    23065020.742    95795718.139  
  23065020.778  
  22325837.980   119176839.349                    22325851.042    92693150.252  
  22325850.988  
  20960319.820   112123576.720                    20960326.449    87207256.303  
  20960326.932  
  25259270.718   132738364.700                                                  
                
  24671045.033   129647217.778                                                  
                
  25446729.706   133723468.942                                                  
                
  24122780.934   126766070.945                                                  
                
  24965312.979   131193605.862                                                  
                
  26540188.775   139469634.958                                                  
                
  36237418.864   190428921.736                                   148386212.305  
  36237428.567  
  39101545.883   205480010.775                                   160114309.513  
  39101549.671  
                 189862894.374                                   189862894.374  
  36461172.644  
                 188231485.910                                   188231485.910  
  36147877.744  
                 200878271.450                                   200878271.450  
  38576559.921  
                 186878125.162                                   186878125.162  
  35887978.899  
                 211147003.230                                   211147003.230  
  40548562.047  
                 187742669.394                                   187742669.394  
  36054005.691  
                 190300918.523                                   190300918.523  
  36545290.462  
                 209414466.863                                   209414466.863  
  40215846.504  
                 126929128.190                                   126929128.190  
  24375404.639  
                 186904986.508                                   186904986.508  
  35893137.400  
                 189062459.025                                   189062459.025  
  36307457.322  
 24  6  8 12 44 44.0000000  0 27G10G18G23G32R 3R13R18R19E 4E10E11E12
                                E19E21J 3J 4C 2C 3C 5C 6C 7C 8C 9C10
                                C12C13C16
  21900681.942   115088861.646                    21900687.249    89679654.508  
  21900686.892  
  21964345.411   115423413.532                    21964352.220    89940349.688  
  21964352.130  
  20525682.461   107863189.523                    20525685.195    84049249.981  
  20525685.052  
  22551626.880   118509600.544                    22551632.812    92345167.576  
  22551633.098  
  22311705.959   119436308.493                    22311711.552    92894929.450  
  22311711.391  
  23065560.833   123168807.802                    23065567.677    95797989.761  
  23065567.713  
  22326543.931   119180607.754                    22326557.011    92696081.234  
  22326556.922  
  20960683.169   112125520.307                    20960689.780    87208767.980  
  20960690.280  
  25259202.995   132738008.775                                                  
                
  24670922.237   129646572.552                                                  
                
  25446376.436   133721612.448                                                  
                
  24122908.322   126766740.419                                                  
                
  24965507.876   131194630.102                                                  
                
  26540013.266   139468712.693                                                  
                
  36237483.068   190429259.083                                   148386475.175  
  36237492.735  
  39101381.398   205479146.395                                   160113635.970  
  39101385.187  
                 189862907.616                                   189862907.616  
  36461175.181  
                 188231518.064                                   188231518.064  
  36147883.909  
                 200878268.109                                   200878268.109  
  38576559.277  
                 186878240.714                                   186878240.714  
  35888001.074  
                 211146912.615                                   211146912.615  
  40548544.643  
                 187742164.340                                   187742164.340  
  36053908.716  
                 190300870.868                                   190300870.868  
  36545281.331  
                 209414737.425                                   209414737.425  
  40215898.467  
                 126930306.070                                   126930306.070  
  24375630.825  
                 186904329.325                                   186904329.325  
  35893011.209  
                 189062723.958                                   189062723.958  
  36307508.213  
 24  6  8 12 44 45.0000000  0 27G10G18G23G32R 3R13R18R19E 4E10E11E12
                                E19E21J 3J 4C 2C 3C 5C 6C 7C 8C 9C10
                                C12C13C16
  21900223.709   115086453.628                    21900229.016    89677778.135  
  21900228.641  
  21964911.145   115426386.454                    21964917.935    89942666.253  
  21964917.846  
  20525547.175   107862478.658                    20525549.926    84048696.063  
  20525549.784  
  22551503.333   118508951.274                    22551509.248    92344661.656  
  22551509.552  
  22311846.928   119437063.208                    22311852.539    92895516.451  
  22311852.396  
  23066107.893   123171728.945                    23066114.719    95800261.761  
  23066114.755  
  22327249.883   119184376.195                    22327262.963    92699012.239  
  22327262.909  
  20961046.607   112127464.497                    20961053.236    87210280.119  
  20961053.718  
  25259135.253   132737652.809                                                  
                
  24670799.531   129645927.727                                                  
                
  25446023.219   133719756.263                                                  
                
  24123035.800   126767410.292                                                  
                
  24965702.756   131195654.184                                                  
                
  26539837.810   139467790.687                                                  
                
  36237547.253   190429596.427                                   148386738.045  
  36237556.938  
  39101216.896   205478281.874                                   160112962.322  
  39101220.667  
                 189862920.748                                   189862920.748  
  36461177.683  
                 188231550.140                                   188231550.140  
  36147890.074  
                 200878264.701                                   200878264.701  
  38576558.616  
                 186878356.321                                   186878356.321  
  35888023.267  
                 211146821.753                                   211146821.753  
  40548527.185  
                 187741659.344                                   187741659.344  
  36053811.741  
                 190300823.270                                   190300823.270  
  36545272.182  
                 209415007.749                                   209415007.749  
  40215950.377  
                 126931484.212                                   126931484.212  
  24375857.065  
                 186903672.189                                   186903672.189  
  35892885.000  
                 189062988.932                                   189062988.932  
  36307559.086  
 24  6  8 12 44 46.0000000  0 27G10G18G23G32R 3R13R18R19E 4E10E11E12
                                E19E21J 3J 4C 2C 3C 5C 6C 7C 8C 9C10
                                C12C13C16
  21899765.476   115084045.564                    21899770.765    89675901.724  
  21899770.408  
  21965476.914   115429359.576                    21965483.704    89944982.966  
  21965483.632  
  20525411.942   107861768.011                    20525414.676    84048142.312  
  20525414.551  
  22551379.751   118508301.930                    22551385.684    92344155.683  
  22551385.970  
  22311987.896   119437817.735                    22311993.489    92896103.301  
  22311993.329  
  23066654.989   123174650.472                    23066661.833    95802534.062  
  23066661.869  
  22327955.834   119188144.561                    22327968.914    92701943.188  
  22327968.843  
  20961410.134   112129409.141                    20961416.781    87211792.610  
  20961417.264  
  25259067.494   132737296.749                                                  
                
  24670676.878   129645283.211                                                  
                
  25445670.020   133717900.239                                                  
                
  24123163.331   126768080.450                                                  
                
  24965897.582   131196678.074                                                  
                
  26539662.389   139466868.830                                                  
                
  36237611.421   190429933.683                                   148387000.847  
  36237621.106  
  39101052.323   205477417.133                                   160112288.498  
  39101056.111  
                 189862933.751                                   189862933.751  
  36461180.184  
                 188231582.055                                   188231582.055  
  36147896.203  
                 200878261.142                                   200878261.142  
  38576557.937  
                 186878471.888                                   186878471.888  
  35888045.461  
                 211146730.560                                   211146730.560  
  40548509.691  
                 187741154.334                                   187741154.334  
  36053714.748  
                 190300775.647                                   190300775.647  
  36545263.051  
                 209415277.715                                   209415277.715  
  40216002.215  
                 126932662.549                                   126932662.549  
  24376083.376  
                 186903014.995                                   186903014.995  
  35892758.809  
                 189063253.856                                   189063253.856  
  36307609.959  
 24  6  8 12 44 47.0000000  0 27G10G18G23G32R 3R13R18R19E 4E10E11E12
                                E19E21J 3J 4C 2C 3C 5C 6C 7C 8C 9C10
                                C12C13C16
  21899307.207   115081637.406                    21899312.514    89674025.242  
  21899312.157  
  21966042.701   115432332.850                    21966049.509    89947299.799  
  21966049.437  
  20525276.745   107861057.543                    20525279.479    84047588.703  
  20525279.354  
  22551256.169   118507652.478                    22551262.084    92343649.619  
  22551262.387  
  22312128.794   119438572.059                    22312134.387    92896689.997  
  22312134.262  
  23067202.175   123177572.402                    23067209.001    95804806.676  
  23067209.054  
  22328661.750   119191912.820                    22328674.830    92704874.056  
  22328674.758  
  20961773.786   112131354.285                    20961780.416    87213305.490  
  20961780.898  
  25258999.681   132736940.536                                                  
                
  24670554.296   129644638.964                                                  
                
  25445316.874   133716044.382                                                  
                
  24123290.898   126768750.898                                                  
                
  24966092.390   131197701.678                                                  
                
  26539486.987   139465947.105                                                  
                
  36237675.571   190430270.819                                   148387263.552  
  36237685.256  
  39100887.713   205476552.116                                   160111614.463  
  39100891.519  
                 189862946.560                                   189862946.560  
  36461182.650  
                 188231613.785                                   188231613.785  
  36147902.296  
                 200878257.388                                   200878257.388  
  38576557.204  
                 186878587.387                                   186878587.387  
  35888067.654  
                 211146639.023                                   211146639.023  
  40548492.090  
                 187740649.234                                   187740649.234  
  36053617.773  
                 190300727.951                                   190300727.951  
  36545253.866  
                 209415547.393                                   209415547.393  
  40216053.999  
                 126933841.051                                   126933841.051  
  24376309.687  
                 186902357.691                                   186902357.691  
  35892632.564  
                 189063518.704                                   189063518.704  
  36307660.832  
 24  6  8 12 44 48.0000000  0 27G10G18G23G32R 3R13R18R19E 4E10E11E12
                                E19E21J 3J 4C 2C 3C 5C 6C 7C 8C 9C10
                                C12C13C16
  21898848.992   115079229.465                    21898854.281    89672148.929  
  21898853.941  
  21966608.595   115435306.558                    21966615.385    89949616.970  
  21966615.313  
  20525141.637   107860347.580                    20525144.389    84047035.482  
  20525144.264  
  22551132.605   118507003.193                    22551138.555    92343143.685  
  22551138.823  
  22312269.727   119439326.481                    22312275.338    92897276.770  
  22312275.177  
  23067749.485   123180495.023                    23067756.329    95807079.828  
  23067756.364  
  22329367.719   119195681.291                    22329380.799    92707805.089  
  22329380.728  
  20962137.546   112133300.163                    20962144.176    87214818.949  
  20962144.658  
  25258931.940   132736584.493                                                  
                
  24670431.804   129643995.305                                                  
                
  25444963.764   133714188.954                                                  
                
  24123418.590   126769421.912                                                  
                
  24966287.180   131198725.357                                                  
                
  26539311.656   139465025.794                                                  
                
  36237739.774   190430608.166                                   148387526.420  
  36237749.459  
  39100723.104   205475687.141                                   160110940.459  
  39100726.910  
                 189862959.497                                   189862959.497  
  36461185.116  
                 188231645.634                                   188231645.634  
  36147908.425  
                 200878253.748                                   200878253.748  
  38576556.508  
                 186878703.105                                   186878703.105  
  35888089.847  
                 211146547.396                                   211146547.396  
  40548474.507  
                 187740144.355                                   187740144.355  
  36053520.797  
                 190300680.510                                   190300680.510  
  36545244.771  
                 209415817.014                                   209415817.014  
  40216105.784  
                 126935019.995                                   126935019.995  
  24376536.088  
                 186901700.595                                   186901700.595  
  35892506.373  
                 189063783.780                                   189063783.780  
  36307711.723  
 24  6  8 12 44 49.0000000  0 27G10G18G23G32R 3R13R18R19E 4E10E11E12
                                E19E21J 3J 4C 2C 3C 5C 6C 7C 8C 9C10
                                C12C13C16
  21898390.794   115076821.668                    21898396.101    89670272.728  
  21898395.744  
  21967174.542   115438280.666                    21967181.350    89951934.449  
  21967181.261  
  20525006.619   107859638.051                    20525009.371    84046482.605  
  20525009.246  
  22551009.094   118506354.076                    22551015.009    92342637.883  
  22551015.312  
  22312410.678   119440080.954                    22312416.271    92897863.580  
  22312416.128  
  23068296.902   123183418.256                    23068303.746    95809353.456  
  23068303.782  
  22330073.706   119199449.905                    22330086.787    92710736.233  
  22330086.715  
  20962501.449   112135246.770                    20962508.078    87216332.976  
  20962508.561  
  25258864.198   132736228.557                                                  
                
  24670309.401   129643352.144                                                  
                
  25444610.798   133712333.972                                                  
                
  24123546.389   126770093.443                                                  
                
  24966481.988   131199749.013                                                  
                
  26539136.397   139464104.849                                                  
                
  36237803.995   190430945.640                                   148387789.386  
  36237813.680  
  39100558.512   205474822.153                                   160110266.442  
  39100562.318  
                 189862972.489                                   189862972.489  
  36461187.618  
                 188231677.512                                   188231677.512  
  36147914.519  
                 200878250.168                                   200878250.168  
  38576555.829  
                 186878819.015                                   186878819.015  
  35888112.130  
                 211146455.679                                   211146455.679  
  40548456.888  
                 187739639.676                                   187739639.676  
  36053423.876  
                 190300633.256                                   190300633.256  
  36545235.693  
                 209416086.497                                   209416086.497  
  40216157.515  
                 126936199.353                                   126936199.353  
  24376762.578  
                 186901043.648                                   186901043.648  
  35892380.235  
                 189064049.021                                   189064049.021  
  36307762.668  
 24  6  8 12 44 50.0000000  0 27G10G18G23G32R 3R13R18R19E 4E10E11E12
                                E19E21J 3J 4C 2C 3C 5C 6C 7C 8C 9C10
                                C12C13C16
  21897932.650   115074414.118                    21897937.939    89668396.716  
  21897937.582  
  21967740.597   115441255.234                    21967747.387    89954252.292  
  21967747.298  
  20524871.708   107858929.026                    20524874.442    84045930.120  
  20524874.299  
  22550885.583   118505705.149                    22550891.516    92342132.231  
  22550891.802  
  22312551.646   119440835.580                    22312557.257    92898450.513  
  22312557.096  
  23068844.463   123186342.180                    23068851.289    95811627.622  
  23068851.342  
  22330779.729   119203218.763                    22330792.827    92713667.569  
  22330792.756  
  20962865.477   112137194.165                    20962872.124    87217847.615  
  20962872.606  
  25258796.510   132735872.796                                                  
                
  24670187.159   129642709.600                                                  
                
  25444257.902   133710479.456                                                  
                
  24123674.260   126770765.558                                                  
                
  24966676.778   131200772.713                                                  
                
  26538961.245   139463184.354                                                  
                
  36237868.252   190431283.307                                   148388052.504  
  36237877.937  
  39100393.920   205473957.231                                   160109592.479  
  39100397.709  
                 189862985.603                                   189862985.603  
  36461190.137  
                 188231709.546                                   188231709.546  
  36147920.684  
                 200878246.734                                   200878246.734  
  38576555.185  
                 186878935.160                                   186878935.160  
  35888134.431  
                 211146363.925                                   211146363.925  
  40548439.269  
                 187739135.236                                   187739135.236  
  36053327.008  
                 190300586.255                                   190300586.255  
  36545226.669  
                 209416355.981                                   209416355.981  
  40216209.281  
                 126937379.172                                   126937379.172  
  24376989.139  
                 186900386.931                                   186900386.931  
  35892254.116  
                 189064314.506                                   189064314.506  
  36307813.648  
 24  6  8 12 44 51.0000000  0 27G10G18G23G32R 3R13R18R19E 4E10E11E12
                                E19E21J 3J 4C 2C 3C 5C 6C 7C 8C 9C10
                                C12C13C16
  21897474.524   115072006.632                    21897479.796    89666520.760  
  21897479.456  
  21968306.706   115444230.110                    21968313.496    89956570.378  
  21968313.407  
  20524736.850   107858220.372                    20524739.584    84045377.924  
  20524739.441  
  22550762.126   118505056.281                    22550768.041    92341626.619  
  22550768.327  
  22312692.615   119441590.169                    22312698.226    92899037.416  
  22312698.083  
  23069392.113   123189266.614                    23069398.956    95813902.177  
  23069398.992  
  22331485.788   119206987.705                    22331498.868    92716598.970  
  22331498.779  
  20963229.647   112139142.230                    20963236.277    87219362.781  
  20963236.759  
  25258728.804   132735517.064                                                  
                
  24670064.953   129642067.484                                                  
                
  25443905.043   133708625.281                                                  
                
  24123802.274   126771438.113                                                  
                
  24966871.586   131201796.366                                                  
                
  26538786.128   139462264.123                                                  
                
  36237932.509   190431621.018                                   148388315.657  
  36237942.194  
  39100229.311   205473092.193                                   160108918.426  
  39100233.099  
                 189862998.690                                   189862998.690  
  36461192.657  
                 188231741.549                                   188231741.549  
  36147926.813  
                 200878243.239                                   200878243.239  
  38576554.488  
                 186879051.398                                   186879051.398  
  35888156.749  
                 211146271.978                                   211146271.978  
  40548421.633  
                 187738630.874                                   187738630.874  
  36053230.158  
                 190300539.364                                   190300539.364  
  36545217.645  
                 209416625.232                                   209416625.232  
  40216260.976  
                 126938559.315                                   126938559.315  
  24377215.790  
                 186899730.243                                   186899730.243  
  35892127.996  
                 189064580.079                                   189064580.079  
  36307864.646  
 24  6  8 12 44 52.0000000  0 27G10G18G23G32R 3R13R18R19E 4E10E11E12
                                E19E21J 3J 4C 2C 3C 5C 6C 7C 8C 9C10
                                C12C13C16
  21897016.416   115069599.325                    21897021.705    89664644.943  
  21897021.366  
  21968872.886   115447205.392                    21968879.676    89958888.774  
  21968879.605  
  20524602.064   107857512.157                    20524604.816    84044826.067  
  20524604.691  
  22550638.669   118504407.556                    22550644.602    92341121.124  
  22550644.888  
  22312833.602   119442344.849                    22312839.212    92899624.387  
  22312839.052  
  23069939.905   123192191.753                    23069946.731    95816177.285  
  23069946.785  
  22332191.847   119210756.780                    22332204.927    92719530.476  
  22332204.873  
  20963593.943   112141091.020                    20963600.590    87220878.507  
  20963601.073  
  25258661.134   132735161.447                                                  
                
  24669942.854   129641425.905                                                  
                
  25443552.308   133706771.543                                                  
                
  24123930.323   126772111.187                                                  
                
  24967066.377   131202820.022                                                  
                
  26538611.083   139461344.302                                                  
                
  36237996.820   190431958.872                                   148388578.921  
  36238006.487  
  39100064.702   205472227.185                                   160108244.392  
  39100068.490  
                 189863011.828                                   189863011.828  
  36461195.159  
                 188231773.622                                   188231773.622  
  36147932.977  
                 200878239.843                                   200878239.843  
  38576553.845  
                 186879167.834                                   186879167.834  
  35888179.085  
                 211146179.953                                   211146179.953  
  40548403.942  
                 187738126.736                                   187738126.736  
  36053133.343  
                 190300492.686                                   190300492.686  
  36545208.711  
                 209416894.410                                   209416894.410  
  40216312.671  
                 126939739.870                                   126939739.870  
  24377442.494  
                 186899073.758                                   186899073.758  
  35892001.913  
                 189064845.840                                   189064845.840  
  36307915.680  
 24  6  8 12 44 53.0000000  0 27G10G18G23G32R 3R13R18R19E 4E10E11E12
                                E19E21J 3J 4C 2C 3C 5C 6C 7C 8C 9C10
                                C12C13C16
  21896558.379   115067192.244                    21896563.651    89662769.298  
  21896563.311  
  21969439.137   115450181.134                    21969445.945    89961207.534  
  21969445.856  
  20524467.403   107856804.442                    20524470.155    84044274.600  
  20524470.012  
  22550515.230   118503759.026                    22550521.180    92340615.778  
  22550521.466  
  22312974.606   119443099.657                    22312980.217    92900211.460  
  22312980.056  
  23070487.805   123195117.579                    23070494.649    95818452.925  
  23070494.685  
  22332897.941   119214526.053                    22332911.021    92722462.140  
  22332910.968  
  20963958.400   112143040.605                    20963965.029    87222394.856  
  20963965.529  
  25258593.500   132734805.998                                                  
                
  24669820.880   129640784.907                                                  
                
  25443199.609   133704918.251                                                  
                
  24124058.533   126772784.814                                                  
                
  24967261.149   131203843.698                                                  
                
  26538436.128   139460424.889                                                  
                
  36238061.131   190432296.912                                   148388842.328  
  36238070.816  
  39099900.092   205471362.207                                   160107570.385  
  39099903.898  
                 189863025.096                                   189863025.096  
  36461197.714  
                 188231805.800                                   188231805.800  
  36147939.160  
                 200878236.522                                   200878236.522  
  38576553.202  
                 186879284.505                                   186879284.505  
  35888201.511  
                 211146087.855                                   211146087.855  
  40548386.270  
                 187737622.799                                   187737622.799  
  36053036.565  
                 190300446.237                                   190300446.237  
  36545199.758  
                 209417163.568                                   209417163.568  
  40216364.366  
                 126940920.870                                   126940920.870  
  24377669.305  
                 186898417.462                                   186898417.462  
  35891875.882  
                 189065111.823                                   189065111.823  
  36307966.768  
 24  6  8 12 44 54.0000000  0 27G10G18G23G32R 3R13R18R19E 4E10E11E12
                                E19E21J 3J 4C 2C 3C 5C 6C 7C 8C 9C10
                                C12C13C16
  21896100.343   115064785.318                    21896105.632    89660893.778  
  21896105.257  
  21970005.478   115453157.263                    21970012.286    89963526.591  
  21970012.197  
  20524332.814   107856097.178                    20524335.548    84043723.485  
  20524335.440  
  22550391.862   118503110.624                    22550397.777    92340110.537  
  22550398.081  
  22313115.628   119443854.566                    22313121.239    92900798.612  
  22313121.078  
  23071035.848   123198044.038                    23071042.692    95820729.060  
  23071042.728  
  22333604.071   119218295.501                    22333617.152    92725393.944  
  22333617.098  
  20964322.981   112144990.946                    20964329.629    87223911.785  
  20964330.129  
  25258525.884   132734450.668                                                  
                
  24669698.995   129640144.440                                                  
                
  25442847.018   133703065.376                                                  
                
  24124186.833   126773459.012                                                  
                
  24967455.975   131204867.401                                                  
                
  26538261.244   139459505.870                                                  
                
  36238125.495   190432635.122                                   148389105.868  
  36238135.180  
  39099735.501   205470497.211                                   160106896.364  
  39099739.289  
                 189863038.425                                   189863038.425  
  36461200.269  
                 188231838.038                                   188231838.038  
  36147945.343  
                 200878233.309                                   200878233.309  
  38576552.576  
                 186879401.363                                   186879401.363  
  35888223.936  
                 211145995.641                                   211145995.641  
  40548368.526  
                 187737119.068                                   187737119.068  
  36052939.840  
                 190300400.000                                   190300400.000  
  36545190.878  
                 209417432.606                                   209417432.606  
  40216416.026  
                 126942102.306                                   126942102.306  
  24377896.206  
                 186897761.353                                   186897761.353  
  35891749.888  
                 189065377.980                                   189065377.980  
  36308017.855  
 24  6  8 12 44 55.0000000  0 27G10G18G23G32R 3R13R18R19E 4E10E11E12
                                E19E21J 3J 4C 2C 3C 5C 6C 7C 8C 9C10
                                C12C13C16
  21895642.342   115062378.469                    21895647.613    89659018.314  
  21895647.238  
  21970571.872   115456133.689                    21970578.681    89965845.877  
  21970578.591  
  20524198.296   107855390.255                    20524201.030    84043172.638  
  20524200.887  
  22550268.477   118502462.287                    22550274.409    92339605.343  
  22550274.695  
  22313256.651   119444609.446                    22313262.262    92901385.738  
  22313262.101  
  23071583.981   123200971.052                    23071590.824    95823005.627  
  23071590.860  
  22334310.237   119222065.039                    22334323.317    92728325.812  
  22334323.264  
  20964687.706   112146941.890                    20964694.353    87225429.181  
  20964694.836  
  25258458.250   132734095.353                                                  
                
  24669577.200   129639504.407                                                  
                
  25442494.498   133701212.808                                                  
                
  24124315.204   126774133.606                                                  
                
  24967650.747   131205890.992                                                  
                
  26538086.395   139458587.130                                                  
                
  36238189.859   190432973.349                                   148389369.422  
  36238199.526  
  39099570.873   205469632.118                                   160106222.268  
  39099574.662  
                 189863051.719                                   189863051.719  
  36461202.824  
                 188231870.256                                   188231870.256  
  36147951.543  
                 200878230.041                                   200878230.041  
  38576551.951  
                 186879518.299                                   186879518.299  
  35888246.380  
                 211145903.223                                   211145903.223  
  40548350.782  
                 187736615.425                                   187736615.425  
  36052843.097  
                 190300353.851                                   190300353.851  
  36545182.015  
                 209417701.418                                   209417701.418  
  40216467.614  
                 126943284.025                                   126943284.025  
  24378123.125  
                 186897105.298                                   186897105.298  
  35891623.911  
                 189065644.227                                   189065644.227  
  36308068.996  
 24  6  8 12 44 56.0000000  0 27G10G18G23G32R 3R13R18R19E 4E10E11E12
                                E19E21J 3J 4C 2C 3C 5C 6C 7C 8C 9C10
                                C12C13C16
  21895184.305   115059971.493                    21895189.576    89657142.753  
  21895189.237  
  21971138.303   115459110.246                    21971145.111    89968165.273  
  21971145.021  
  20524063.796   107854683.504                    20524066.530    84042621.924  
  20524066.422  
  22550145.073   118501813.806                    22550150.988    92339100.036  
  22550151.291  
  22313397.637   119445364.086                    22313403.230    92901972.678  
  22313403.069  
  23072132.184   123203898.379                    23072139.028    95825282.436  
  23072139.064  
  22335016.368   119225834.449                    22335029.448    92731257.577  
  22335029.394  
  20965052.502   112148893.294                    20965059.149    87226946.940  
  20965059.632  
  25258390.615   132733739.866                                                  
                
  24669455.458   129638864.618                                                  
                
  25442141.978   133699360.388                                                  
                
  24124443.611   126774808.456                                                  
                
  24967845.484   131206914.317                                                  
                
  26537911.600   139457668.489                                                  
                
  36238254.188   190433311.439                                   148389632.871  
  36238263.873  
  39099406.192   205468766.743                                   160105547.950  
  39099409.998  
                 189863064.787                                   189863064.787  
  36461205.326  
                 188231902.262                                   188231902.262  
  36147957.672  
                 200878226.557                                   200878226.557  
  38576551.290  
                 186879635.162                                   186879635.162  
  35888268.841  
                 211145810.456                                   211145810.456  
  40548332.967  
                 187736111.691                                   187736111.691  
  36052746.354  
                 190300307.612                                   190300307.612  
  36545173.151  
                 209417969.916                                   209417969.916  
  40216519.219  
                 126944465.889                                   126944465.889  
  24378350.097  
                 186896449.116                                   186896449.116  
  35891497.881  
                 189065910.370                                   189065910.370  
  36308120.120  
 24  6  8 12 44 57.0000000  0 27G10G18G23G32R 3R13R18R19E 4E10E11E12
                                E19E21J 3J 4C 2C 3C 5C 6C 7C 8C 9C10
                                C12C13C16
  21894726.304   115057564.747                    21894731.593    89655267.371  
  21894731.236  
  21971704.804   115462087.230                    21971711.612    89970484.995  
  21971711.541  
  20523929.403   107853977.227                    20523932.137    84042071.578  
  20523932.012  
  22550021.705   118501165.504                    22550027.638    92338594.870  
  22550027.906  
  22313538.606   119446118.835                    22313544.235    92902559.702  
  22313544.074  
  23072680.495   123206826.371                    23072687.339    95827559.758  
  23072687.375  
  22335722.551   119229604.043                    22335735.631    92734189.481  
  22335735.578  
  20965417.441   112150845.469                    20965424.088    87228465.301  
  20965424.571  
  25258322.999   132733384.527                                                  
                
  24669333.806   129638225.404                                                  
                
  25441789.547   133697508.425                                                  
                
  24124572.143   126775483.861                                                  
                
  24968040.221   131207937.679                                                  
                
  26537736.859   139456750.253                                                  
                
  36238318.552   190433649.699                                   148389896.452  
  36238328.237  
  39099241.511   205467901.389                                   160104873.653  
  39099245.318  
                 189863077.974                                   189863077.974  
  36461207.863  
                 188231934.370                                   188231934.370  
  36147963.855  
                 200878223.172                                   200878223.172  
  38576550.629  
                 186879752.218                                   186879752.218  
  35888291.321  
                 211145717.629                                   211145717.629  
  40548315.169  
                 187735608.181                                   187735608.181  
  36052649.665  
                 190300261.611                                   190300261.611  
  36545164.324  
                 209418238.309                                   209418238.309  
  40216570.736  
                 126945648.203                                   126945648.203  
  24378577.159  
                 186895793.129                                   186895793.129  
  35891371.904  
                 189066176.716                                   189066176.716  
  36308171.261  
 24  6  8 12 44 58.0000000  0 24G10G18G23G32R 3R13R18R19E 4E10E12E21
                                J 3J 4C 2C 3C 5C 6C 7C 8C 9C12C13C16
  21894268.357   115055158.144                    21894273.610    89653392.096  
  21894273.271  
  21972271.395   115465064.624                    21972278.185    89972805.043  
  21972278.114  
  20523795.081   107853271.398                    20523797.815    84041521.583  
  20523797.708  
  22549898.355   118500517.332                    22549904.288    92338089.805  
  22549904.574  
  22313679.610   119446873.622                    22313685.239    92903146.754  
  22313685.078  
  23073228.931   123209754.974                    23073235.775    95829837.563  
  23073235.829  
  22336428.771   119233373.784                    22336441.851    92737121.493  
  22336441.762  
  20965782.505   112152798.382                    20965789.170    87229984.226  
  20965789.653  
  25258255.383   132733029.301                                                  
                
  24669212.279   129637586.707                                                  
                
  24124700.746   126776159.767                                                  
                
  26537562.190   139455832.387                                                  
                
  36238382.952   190433988.093                                   148390160.139  
  36238392.637  
  39099076.866   205467036.032                                   160104199.351  
  39099080.637  
                 189863091.236                                   189863091.236  
  36461210.419  
                 188231966.509                                   188231966.509  
  36147970.020  
                 200878219.869                                   200878219.869  
  38576550.003  
                 186879869.473                                   186879869.473  
  35888313.836  
                 211145624.656                                   211145624.656  
  40548297.300  
                 187735104.840                                   187735104.840  
  36052553.011  
                 190300215.796                                   190300215.796  
  36545155.515  
                 126946830.890                                   126946830.890  
  24378804.256  
                 186895137.316                                   186895137.316  
  35891245.964  
                 189066443.242                                   189066443.242  
  36308222.438  
 24  6  8 12 44 59.0000000  0 24G10G18G23G32R 3R13R18R19E 4E10E12E21
                                J 3J 4C 2C 3C 5C 6C 7C 8C 9C12C13C16
  21893810.392   115052751.600                    21893815.663    89651516.871  
  21893815.306  
  21972838.004   115468042.285                    21972844.830    89975125.294  
  21972844.759  
  20523660.813   107852565.892                    20523663.565    84040971.838  
  20523663.440  
  22549775.006   118499869.197                    22549780.956    92337584.770  
  22549781.224  
  22313820.615   119447628.343                    22313826.226    92903733.762  
  22313826.047  
  23073777.475   123212684.134                    23073784.319    95832115.799  
  23073784.372  
  22337134.990   119237143.590                    22337148.070    92740053.557  
  22337147.999  
  20966147.712   112154751.865                    20966154.342    87231503.597  
  20966154.842  
  25258187.784   132732674.083                                                  
                
  24669090.805   129636948.426                                                  
                
  24124829.439   126776836.110                                                  
                
  26537387.573   139454914.796                                                  
                
  36238447.352   190434326.509                                   148390423.841  
  36238457.037  
  39098912.150   205466170.543                                   160103524.941  
  39098915.938  
                 189863104.414                                   189863104.414  
  36461212.938  
                 188231998.611                                   188231998.611  
  36147976.149  
                 200878216.505                                   200878216.505  
  38576549.342  
                 186879986.782                                   186879986.782  
  35888336.351  
                 211145531.456                                   211145531.456  
  40548279.395  
                 187734601.595                                   187734601.595  
  36052456.375  
                 190300170.071                                   190300170.071  
  36545146.741  
                 126948013.899                                   126948013.899  
  24379031.461  
                 186894481.546                                   186894481.546  
  35891120.023  
                 189066709.827                                   189066709.827  
  36308273.632  
 24  6  8 12 45  0.0000000  0 24G10G18G23G32R 3R13R18R19E 4E10E12E21
                                J 3J 4C 2C 3C 5C 6C 7C 8C 9C12C13C16
  21893352.480   115050345.147                    21893357.734    89649641.718  
  21893357.376  
  21973404.702   115471020.283                    21973411.528    89977445.807  
  21973411.457  
  20523526.635   107851860.759                    20523529.387    84040422.384  
  20523529.262  
  22549651.691   118499221.121                    22549657.606    92337079.787  
  22549657.892  
  22313961.602   119448383.049                    22313967.212    92904320.758  
  22313967.034  
  23074326.125   123215613.856                    23074332.969    95834394.469  
  23074333.005  
  22337841.228   119240913.473                    22337854.308    92742985.682  
  22337854.219  
  20966513.009   112156706.003                    20966519.674    87233023.484  
  20966520.156  
  25258120.203   132732318.891                                                  
                
  24668969.439   129636310.601                                                  
                
  24124958.221   126777512.873                                                  
                
  26537213.029   139453997.500                                                  
                
  36238511.752   190434664.986                                   148390687.587  
  36238521.437  
  39098747.433   205465304.974                                   160102850.477  
  39098751.239  
                 189863117.624                                   189863117.624  
  36461215.476  
                 188232030.704                                   188232030.704  
  36147982.332  
                 200878213.112                                   200878213.112  
  38576548.681  
                 186880104.224                                   186880104.224  
  35888358.919  
                 211145438.105                                   211145438.105  
  40548261.490  
                 187734098.423                                   187734098.423  
  36052359.758  
                 190300124.445                                   190300124.445  
  36545137.985  
                 126949197.231                                   126949197.231  
  24379258.701  
                 186893825.841                                   186893825.841  
  35890994.118  
                 189066976.516                                   189066976.516  
  36308324.845  
 24  6  8 12 45  1.0000000  0 24G10G18G23G32R 3R13R18R19E 4E10E12E21
                                J 3J 4C 2C 3C 5C 6C 7C 8C 9C12C13C16
  21892894.515   115047938.638                    21892899.786    89647766.518  
  21892899.447  
  21973971.454   115473998.435                    21973978.244    89979766.442  
  21973978.173  
  20523392.510   107851155.848                    20523395.244    84039873.101  
  20523395.119  
  22549528.342   118498572.966                    22549534.256    92336574.731  
  22549534.542  
  22314102.552   119449137.615                    22314108.181    92904907.647  
  22314108.002  
  23074874.847   123218543.979                    23074881.673    95836673.454  
  23074881.727  
  22338547.429   119244683.255                    22338560.527    92745917.730  
  22338560.438  
  20966878.430   112158660.663                    20966885.078    87234543.771  
  20966885.578  
  25258052.587   132731963.594                                                  
                
  24668848.126   129635673.077                                                  
                
  24125087.074   126778189.962                                                  
                
  26537038.502   139453080.361                                                  
                
  36238576.152   190435003.389                                   148390951.280  
  36238585.837  
  39098582.681   205464439.174                                   160102175.827  
  39098586.487  
                 189863130.645                                   189863130.645  
  36461217.977  
                 188232062.652                                   188232062.652  
  36147988.479  
                 200878209.573                                   200878209.573  
  38576548.002  
                 186880221.607                                   186880221.607  
  35888381.452  
                 211145344.440                                   211145344.440  
  40548243.496  
                 187733595.233                                   187733595.233  
  36052263.104  
                 190300078.799                                   190300078.799  
  36545129.194  
                 126950380.755                                   126950380.755  
  24379485.978  
                 186893170.066                                   186893170.066  
  35890868.177  
                 189067243.167                                   189067243.167  
  36308376.058  
 24  6  8 12 45  2.0000000  0 24G10G18G23G32R 3R13R18R19E 4E10E12E21
                                J 3J 4C 2C 3C 5C 6C 7C 8C 9C12C13C16
  21892436.603   115045532.284                    21892441.857    89645891.440  
  21892441.517  
  21974538.242   115476976.988                    21974545.050    89982087.388  
  21974544.960  
  20523258.439   107850451.375                    20523261.191    84039324.163  
  20523261.065  
  22549405.027   118497924.937                    22549410.942    92336069.783  
  22549411.228  
  22314243.521   119449892.234                    22314249.132    92905494.578  
  22314248.971  
  23075423.658   123221474.750                    23075430.502    95838952.949  
  23075430.556  
  22339253.667   119248453.204                    22339266.765    92748849.915  
  22339266.675  
  20967243.959   112160616.004                    20967250.606    87236064.585  
  20967251.089  
  25257985.006   132731608.403                                                  
                
  24668726.903   129635036.082                                                  
                
  24125216.017   126778867.550                                                  
                
  26536864.029   139452163.578                                                  
                
  36238640.570   190435341.910                                   148391215.063  
  36238650.255  
  39098417.928   205463573.356                                   160101501.167  
  39098421.716  
                 189863143.721                                   189863143.721  
  36461220.479  
                 188232094.640                                   188232094.640  
  36147994.626  
                 200878206.101                                   200878206.101  
  38576547.341  
                 186880339.172                                   186880339.172  
  35888404.020  
                 211145250.617                                   211145250.617  
  40548225.449  
                 187733092.223                                   187733092.223  
  36052166.504  
                 190300033.336                                   190300033.336  
  36545120.474  
                 126951564.652                                   126951564.652  
  24379713.343  
                 186892514.433                                   186892514.433  
  35890742.271  
                 189067509.973                                   189067509.973  
  36308427.288  
 24  6  8 12 45  3.0000000  0 24G10G18G23G32R 3R13R18R19E 4E10E12E21
                                J 3J 4C 2C 3C 5C 6C 7C 8C 9C12C13C16
  21891978.710   115043126.002                    21891983.963    89644016.421  
  21891983.606  
  21975105.101   115479955.846                    21975111.927    89984408.570  
  21975111.819  
  20523124.475   107849747.257                    20523127.209    84038775.500  
  20523127.066  
  22549281.695   118497276.967                    22549287.646    92335564.873  
  22549287.914  
  22314384.472   119450646.836                    22314390.101    92906081.486  
  22314389.940  
  23075972.595   123224406.034                    23075979.439    95841232.837  
  23075979.474  
  22339959.922   119252223.243                    22339973.002    92751782.165  
  22339972.931  
  20967609.613   112162571.979                    20967616.278    87237585.896  
  20967616.760  
  25257917.408   132731253.223                                                  
                
  24668605.768   129634399.506                                                  
                
  24125345.049   126779545.568                                                  
                
  26536689.627   139451247.094                                                  
                
  36238704.987   190435680.484                                   148391478.887  
  36238714.672  
  39098253.140   205462707.447                                   160100826.432  
  39098256.946  
                 189863156.783                                   189863156.783  
  36461222.998  
                 188232126.597                                   188232126.597  
  36148000.737  
                 200878202.574                                   200878202.574  
  38576546.662  
                 186880456.823                                   186880456.823  
  35888426.607  
                 211145156.624                                   211145156.624  
  40548207.401  
                 187732589.286                                   187732589.286  
  36052069.922  
                 190299987.978                                   190299987.978  
  36545111.754  
                 126952748.882                                   126952748.882  
  24379940.762  
                 186891858.861                                   186891858.861  
  35890616.384  
                 189067776.877                                   189067776.877  
  36308478.554  
 24  6  8 12 45  4.0000000  0 24G10G18G23G32R 3R13R18R19E 4E10E12E21
                                J 3J 4C 2C 3C 5C 6C 7C 8C 9C12C13C16
  21891520.852   115040719.942                    21891526.105    89642141.571  
  21891525.748  
  21975672.049   115482935.142                    21975678.857    89986730.097  
  21975678.786  
  20522990.564   107849043.615                    20522993.316    84038227.207  
  20522993.173  
  22549158.435   118496629.167                    22549164.367    92335060.099  
  22549164.636  
  22314525.476   119451401.551                    22314531.087    92906668.487  
  22314530.909  
  23076521.656   123227338.000                    23076528.500    95843513.258  
  23076528.554  
  22340666.195   119255993.463                    22340679.293    92754714.561  
  22340679.222  
  20967975.410   112164528.724                    20967982.075    87239107.804  
  20967982.557  
  25257849.845   132730898.204                                                  
                
  24668484.742   129633763.511                                                  
                
  24125474.171   126780224.136                                                  
                
  26536515.315   139450331.024                                                  
                
  36238769.441   190436019.219                                   148391742.836  
  36238779.126  
  39098088.352   205461841.562                                   160100151.719  
  39098092.158  
                 189863169.941                                   189863169.941  
  36461225.518  
                 188232158.649                                   188232158.649  
  36148006.902  
                 200878199.154                                   200878199.154  
  38576546.001  
                 186880574.704                                   186880574.704  
  35888449.247  
                 211145062.543                                   211145062.543  
  40548189.335  
                 187732086.588                                   187732086.588  
  36051973.394  
                 190299942.867                                   190299942.867  
  36545103.105  
                 126953933.558                                   126953933.558  
  24380168.270  
                 186891203.496                                   186891203.496  
  35890490.515  
                 189068044.002                                   189068044.002  
  36308529.856  
 24  6  8 12 45  5.0000000  0 24G10G18G23G32R 3R13R18R19E 4E10E12E21
                                J 3J 4C 2C 3C 5C 6C 7C 8C 9C12C13C16
  21891062.994   115038313.946                    21891068.247    89640266.774  
  21891067.890  
  21976239.033   115485914.742                    21976245.859    89989051.863  
  21976245.788  
  20522856.725   107848340.348                    20522859.477    84037679.209  
  20522859.352  
  22549035.174   118495981.446                    22549041.107    92334555.388  
  22549041.375  
  22314666.445   119452156.255                    22314672.074    92907255.476  
  22314671.913  
  23077070.843   123230270.510                    23077077.651    95845794.098  
  23077077.722  
  22341372.504   119259763.749                    22341385.584    92757647.003  
  22341385.531  
  20968341.314   112166486.105                    20968347.997    87240630.207  
  20968348.479  
  25257782.300   132730543.215                                                  
                
  24668363.804   129633127.962                                                  
                
  24125603.364   126780903.147                                                  
                
  26536341.056   139449415.244                                                  
                
  36238833.930   190436358.027                                   148392006.847  
  36238843.615  
  39097923.582   205460975.586                                   160099476.932  
  39097927.370  
                 189863183.084                                   189863183.084  
  36461228.038  
                 188232190.704                                   188232190.704  
  36148013.049  
                 200878195.746                                   200878195.746  
  38576545.339  
                 186880692.701                                   186880692.701  
  35888471.905  
                 211144968.334                                   211144968.334  
  40548171.270  
                 187731584.003                                   187731584.003  
  36051876.883  
                 190299897.849                                   190299897.849  
  36545094.456  
                 126955118.565                                   126955118.565  
  24380395.850  
                 186890548.212                                   186890548.212  
  35890364.681  
                 189068311.203                                   189068311.203  
  36308581.176  
 24  6  8 12 45  6.0000000  0 24G10G18G23G32R 3R13R18R19E 4E10E12E21
                                J 3J 4C 2C 3C 5C 6C 7C 8C 9C12C13C16
  21890605.171   115035908.107                    21890610.425    89638392.101  
  21890610.067  
  21976806.124   115488894.725                    21976812.933    89991373.925  
  21976812.843  
  20522722.993   107847637.486                    20522725.727    84037131.522  
  20522725.584  
  22548911.932   118495333.834                    22548917.864    92334050.757  
  22548918.132  
  22314807.450   119452910.997                    22314813.078    92907842.493  
  22314812.900  
  23077620.119   123233203.579                    23077626.927    95848075.370  
  23077626.998  
  22342078.849   119263534.187                    22342091.929    92760579.561  
  22342091.875  
  20968707.378   112168444.191                    20968714.026    87242153.161  
  20968714.508  
  25257714.755   132730188.314                                                  
                
  24668242.956   129632492.918                                                  
                
  24125732.682   126781582.680                                                  
                
  26536166.851   139448499.825                                                  
                
  36238898.420   190436696.936                                   148392270.934  
  36238908.087  
  39097758.776   205460109.580                                   160098802.125  
  39097762.564  
                 189863196.256                                   189863196.256  
  36461230.557  
                 188232222.800                                   188232222.800  
  36148019.213  
                 200878192.356                                   200878192.356  
  38576544.678  
                 186880810.844                                   186880810.844  
  35888494.599  
                 211144873.950                                   211144873.950  
  40548153.133  
                 187731081.586                                   187731081.586  
  36051780.390  
                 190299852.985                                   190299852.985  
  36545085.843  
                 126956303.930                                   126956303.930  
  24380623.484  
                 186889893.086                                   186889893.086  
  35890238.865  
                 189068578.570                                   189068578.570  
  36308632.514  
 24  6  8 12 45  7.0000000  0 24G10G18G23G32R 3R13R18R19E 4E10E12E21
                                J 3J 4C 2C 3C 5C 6C 7C 8C 9C12C13C16
  21890147.367   115033502.375                    21890152.621    89636517.507  
  21890152.263  
  21977373.251   115491875.053                    21977380.077    89993696.255  
  21977380.006  
  20522589.315   107846935.029                    20522592.049    84036584.155  
  20522591.906  
  22548788.707   118494686.301                    22548794.640    92333546.188  
  22548794.908  
  22314948.436   119453665.736                    22314954.047    92908429.517  
  22314953.886  
  23078169.484   123236137.246                    23078176.328    95850357.108  
  23078176.364  
  22342785.211   119267304.724                    22342798.291    92763512.196  
  22342798.220  
  20969073.533   112170402.980                    20969080.216    87243676.658  
  20969080.698  
  25257647.228   132729833.472                                                  
                
  24668122.197   129631858.350                                                  
                
  24125862.089   126782262.680                                                  
                
  26535992.718   139447584.732                                                  
                
  36238962.927   190437035.935                                   148392535.096  
  36238972.612  
  39097593.988   205459243.531                                   160098127.281  
  39097597.758  
                 189863209.443                                   189863209.443  
  36461233.077  
                 188232254.899                                   188232254.899  
  36148025.378  
                 200878188.992                                   200878188.992  
  38576544.035  
                 186880929.118                                   186880929.118  
  35888517.310  
                 211144779.457                                   211144779.457  
  40548134.978  
                 187730579.289                                   187730579.289  
  36051683.933  
                 190299808.286                                   190299808.286  
  36545077.248  
                 126957489.670                                   126957489.670  
  24380851.189  
                 186889238.066                                   186889238.066  
  35890113.067  
                 189068846.042                                   189068846.042  
  36308683.870  
 24  6  8 12 45  8.0000000  0 24G10G18G23G32R 3R13R18R19E 4E10E12E21
                                J 3J 4C 2C 3C 5C 6C 7C 8C 9C12C13C16
  21889689.616   115031096.820                    21889694.852    89634643.053  
  21889694.512  
  21977940.468   115494855.793                    21977947.294    89996018.904  
  21977947.222  
  20522455.744   107846233.035                    20522458.478    84036037.145  
  20522458.335  
  22548665.518   118494038.941                    22548671.433    92333041.757  
  22548671.736  
  22315089.459   119454420.559                    22315095.069    92909016.599  
  22315094.891  
  23078718.992   123239071.556                    23078725.836    95852639.354  
  23078725.872  
  22343491.592   119271075.433                    22343504.672    92766444.970  
  22343504.600  
  20969439.848   112172362.494                    20969446.531    87245200.720  
  20969447.013  
  25257579.737   132729478.762                                                  
                
  24668001.563   129631224.327                                                  
                
  24125991.586   126782943.220                                                  
                
  26535818.638   139446670.023                                                  
                
  36239027.470   190437375.090                                   148392799.370  
  36239037.119  
  39097429.164   205458377.463                                   160097452.423  
  39097432.970  
                 189863222.728                                   189863222.728  
  36461235.650  
                 188232287.062                                   188232287.062  
  36148031.561  
                 200878185.694                                   200878185.694  
  38576543.410  
                 186881047.589                                   186881047.589  
  35888540.057  
                 211144684.832                                   211144684.832  
  40548116.805  
                 187730077.169                                   187730077.169  
  36051587.494  
                 190299763.803                                   190299763.803  
  36545068.689  
                 126958675.828                                   126958675.828  
  24381078.983  
                 186888583.196                                   186888583.196  
  35889987.305  
                 189069113.725                                   189069113.725  
  36308735.279  
 24  6  8 12 45  9.0000000  0 24G10G18G23G32R 3R13R18R19E 4E10E12E21
                                J 3J 4C 2C 3C 5C 6C 7C 8C 9C12C13C16
  21889231.901   115028691.497                    21889237.137    89632768.780  
  21889236.797  
  21978507.774   115497836.963                    21978514.600    89998341.890  
  21978514.510  
  20522322.245   107845531.526                    20522324.979    84035490.514  
  20522324.836  
  22548542.365   118493391.760                    22548548.297    92332537.460  
  22548548.565  
  22315230.481   119455175.495                    22315236.092    92909603.774  
  22315235.931  
  23079268.608   123242006.528                    23079275.451    95854922.113  
  23079275.505  
  22344198.008   119274846.351                    22344211.088    92769377.908  
  22344211.016  
  20969806.288   112174322.752                    20969812.971    87246725.361  
  20969813.453  
  25257512.281   132729124.210                                                  
                
  24667881.001   129630590.879                                                  
                
  24126121.190   126783624.323                                                  
                
  26535644.647   139445755.729                                                  
                
  36239092.048   190437714.441                                   148393063.804  
  36239101.698  
  39097264.358   205457511.428                                   160096777.593  
  39097268.164  
                 189863236.116                                   189863236.116  
  36461238.205  
                 188232319.335                                   188232319.335  
  36148037.744  
                 200878182.504                                   200878182.504  
  38576542.784  
                 186881166.290                                   186881166.290  
  35888562.840  
                 211144590.152                                   211144590.152  
  40548098.632  
                 187729575.306                                   187729575.306  
  36051491.127  
                 190299719.553                                   190299719.553  
  36545060.201  
                 126959862.429                                   126959862.429  
  24381306.849  
                 186887928.528                                   186887928.528  
  35889861.579  
                 189069381.624                                   189069381.624  
  36308786.724  
 24  6  8 12 45 10.0000000  0 24G10G18G23G32R 3R13R18R19E 4E10E12E21
                                J 3J 4C 2C 3C 5C 6C 7C 8C 9C12C13C16
  21888774.150   115026286.124                    21888779.422    89630894.466  
  21888779.047  
  21979075.133   115500818.345                    21979081.941    90000665.042  
  21979081.852  
  20522188.781   107844830.255                    20522191.515    84034944.076  
  20522191.408  
  22548419.193   118492744.509                    22548425.108    92332033.113  
  22548425.394  
  22315371.467   119455930.285                    22315377.096    92910190.833  
  22315376.935  
  23079818.330   123244941.948                    23079825.156    95857205.217  
  23079825.228  
  22344904.406   119278617.209                    22344917.504    92772310.798  
  22344917.414  
  20970172.853   112176283.551                    20970179.536    87248250.422  
  20970180.018  
  25257444.772   132728769.550                                                  
                
  24667760.528   129629957.746                                                  
                
  24126250.866   126784305.743                                                  
                
  26535470.692   139444841.610                                                  
                
  36239156.591   190438053.695                                   148393328.165  
  36239166.258  
  39097099.516   205456645.200                                   160096102.612  
  39097103.322  
                 189863249.372                                   189863249.372  
  36461240.760  
                 188232351.481                                   188232351.481  
  36148043.908  
                 200878179.172                                   200878179.172  
  38576542.141  
                 186881284.962                                   186881284.962  
  35888585.623  
                 211144495.158                                   211144495.158  
  40548080.388  
                 187729073.410                                   187729073.410  
  36051394.741  
                 190299675.282                                   190299675.282  
  36545051.696  
                 126961049.239                                   126961049.239  
  24381534.768  
                 186887273.820                                   186887273.820  
  35889735.870  
                 189069649.488                                   189069649.488  
  36308838.186  
 24  6  8 12 45 11.0000000  0 24G10G18G23G32R 3R13R18R19E 4E10E12E21
                                J 3J 4C 2C 3C 5C 6C 7C 8C 9C12C13C16
  21888316.435   115023880.780                    21888321.671    89629020.172  
  21888321.332  
  21979642.510   115503799.986                    21979649.336    90002988.391  
  21979649.247  
  20522055.407   107844129.297                    20522058.141    84034397.875  
  20522057.998  
  22548296.022   118492097.281                    22548301.955    92331528.782  
  22548302.223  
  22315512.472   119456685.018                    22315518.101    92910777.847  
  22315517.940  
  23080368.142   123247877.868                    23080374.950    95859488.706  
  23080375.022  
  22345610.822   119282388.079                    22345623.920    92775243.693  
  22345623.831  
  20970539.489   112178244.905                    20970546.172    87249775.922  
  20970546.655  
  25257377.263   132728414.892                                                  
                
  24667640.126   129629325.023                                                  
                
  24126380.595   126784987.535                                                  
                
  26535296.791   139443927.737                                                  
                
  36239221.152   190438392.979                                   148393592.540  
  36239230.819  
  39096934.656   205455778.839                                   160095427.526  
  39096938.445  
                 189863262.539                                   189863262.539  
  36461243.280  
                 188232383.551                                   188232383.551  
  36148050.073  
                 200878175.773                                   200878175.773  
  38576541.498  
                 186881403.698                                   186881403.698  
  35888608.424  
                 211144399.946                                   211144399.946  
  40548062.108  
                 187728571.575                                   187728571.575  
  36051298.373  
                 190299631.084                                   190299631.084  
  36545043.208  
                 126962236.322                                   126962236.322  
  24381762.723  
                 186886619.115                                   186886619.115  
  35889610.126  
                 189069917.401                                   189069917.401  
  36308889.631  
 24  6  8 12 45 12.0000000  0 24G10G18G23G32R 3R13R18R19E 4E10E12E21
                                J 3J 4C 2C 3C 5C 6C 7C 8C 9C12C13C16
  21887858.756   115021475.694                    21887863.992    89627146.084  
  21887863.652  
  21980209.995   115506782.075                    21980216.803    90005312.095  
  21980216.731  
  20521922.104   107843428.865                    20521924.838    84033852.084  
  20521924.731  
  22548172.887   118491450.232                    22548178.802    92331024.590  
  22548179.087  
  22315653.494   119457439.904                    22315659.105    92911364.976  
  22315658.962  
  23080918.079   123250814.487                    23080924.887    95861772.740  
  23080924.959  
  22346317.274   119286159.188                    22346330.354    92778176.779  
  22346330.300  
  20970906.322   112180207.092                    20970912.970    87251302.068  
  20970913.470  
  25257309.825   132728060.411                                                  
                
  24667519.832   129628692.893                                                  
                
  24126510.449   126785669.947                                                  
                
  26535122.961   139443014.302                                                  
                
  36239285.766   190438732.466                                   148393857.075  
  36239295.416  
  39096769.797   205454912.528                                   160094752.481  
  39096773.585  
                 189863275.836                                   189863275.836  
  36461245.835  
                 188232415.760                                   188232415.760  
  36148056.274  
                 200878172.519                                   200878172.519  
  38576540.854  
                 186881522.687                                   186881522.687  
  35888631.279  
                 211144304.690                                   211144304.690  
  40548043.828  
                 187728069.984                                   187728069.984  
  36051202.041  
                 190299587.130                                   190299587.130  
  36545034.774  
                 126963423.873                                   126963423.873  
  24381990.786  
                 186885964.677                                   186885964.677  
  35889484.453  
                 189070185.559                                   189070185.559  
  36308941.094  
 24  6  8 12 45 13.0000000  0 24G10G18G23G32R 3R13R18R19E 4E10E12E21
                                J 3J 4C 2C 3C 5C 6C 7C 8C 9C12C13C16
  21887401.077   115019070.555                    21887406.312    89625271.954  
  21887405.955  
  21980777.515   115509764.366                    21980784.305    90007635.956  
  21980784.234  
  20521788.872   107842728.667                    20521791.606    84033306.475  
  20521791.463  
  22548049.751   118490803.134                    22548055.666    92330520.362  
  22548055.952  
  22315794.499   119458194.673                    22315800.110    92911952.019  
  22315799.931  
  23081468.070   123253751.525                    23081474.914    95864057.101  
  23081474.967  
  22347023.708   119289930.249                    22347036.806    92781109.822  
  22347036.734  
  20971273.227   112182169.767                    20971279.874    87252828.602  
  20971280.375  
  25257242.352   132727705.833                                                  
                
  24667399.592   129628061.085                                                  
                
  24126640.375   126786352.664                                                  
                
  26534949.167   139442101.052                                                  
                
  36239350.345   190439071.887                                   148394121.559  
  36239360.030  
  39096604.901   205454046.006                                   160094077.271  
  39096608.707  
                 189863289.002                                   189863289.002  
  36461248.355  
                 188232447.818                                   188232447.818  
  36148062.421  
                 200878169.108                                   200878169.108  
  38576540.211  
                 186881641.632                                   186881641.632  
  35888654.133  
                 211144209.120                                   211144209.120  
  40548025.459  
                 187727568.373                                   187727568.373  
  36051105.710  
                 190299543.185                                   190299543.185  
  36545026.340  
                 126964611.646                                   126964611.646  
  24382218.902  
                 186885310.185                                   186885310.185  
  35889358.762  
                 189070453.696                                   189070453.696  
  36308992.593  
 24  6  8 12 45 14.0000000  0 24G10G18G23G32R 3R13R18R19E 4E10E12E21
                                J 3J 4C 2C 3C 5C 6C 7C 8C 9C12C13C16
  21886943.398   115016665.484                    21886948.651    89623397.875  
  21886948.294  
  21981345.071   115512746.966                    21981351.879    90009960.058  
  21981351.807  
  20521655.695   107842028.825                    20521658.429    84032761.146  
  20521658.303  
  22547926.616   118490156.094                    22547932.549    92330016.180  
  22547932.817  
  22315935.467   119458949.406                    22315941.114    92912539.033  
  22315940.935  
  23082018.186   123256689.148                    23082025.029    95866341.924  
  23082025.083  
  22347730.177   119293701.379                    22347743.275    92784042.928  
  22347743.186  
  20971640.221   112184133.084                    20971646.904    87254355.623  
  20971647.404  
  25257174.861   132727351.272                                                  
                
  24667279.422   129627429.707                                                  
                
  24126770.354   126787035.795                                                  
                
  26534775.444   139441188.081                                                  
                
  36239414.941   190439411.350                                   148394386.076  
  36239424.626  
  39096439.988   205453179.373                                   160093401.972  
  39096443.794  
                 189863302.148                                   189863302.148  
  36461250.874  
                 188232479.847                                   188232479.847  
  36148068.550  
                 200878165.663                                   200878165.663  
  38576539.550  
                 186881760.688                                   186881760.688  
  35888676.988  
                 211144113.356                                   211144113.356  
  40548007.071  
                 187727066.838                                   187727066.838  
  36051009.396  
                 190299499.344                                   190299499.344  
  36545017.905  
                 126965799.715                                   126965799.715  
  24382447.053  
                 186884655.750                                   186884655.750  
  35889233.072  
                 189070721.906                                   189070721.906  
  36309044.127  
 24  6  8 12 45 15.0000000  0 24G10G18G23G32R 3R13R18R19E 4E10E12E21
                                J 3J 4C 2C 3C 5C 6C 7C 8C 9C12C13C16
  21886485.772   115014260.584                    21886491.008    89621523.933  
  21886490.650  
  21981912.734   115515729.962                    21981919.542    90012284.470  
  21981919.453  
  20521522.606   107841329.434                    20521525.322    84032216.166  
  20521525.215  
  22547803.516   118489509.209                    22547809.449    92329512.118  
  22547809.717  
  22316076.472   119459704.208                    22316082.118    92913126.099  
  22316081.940  
  23082568.426   123259627.368                    23082575.270    95868627.205  
  23082575.324  
  22348436.665   119297472.639                    22348449.745    92786976.137  
  22348449.691  
  20972007.376   112186097.132                    20972014.059    87255883.221  
  20972014.559  
  25257107.423   132726996.844                                                  
                
  24667159.396   129626798.876                                                  
                
  24126900.458   126787719.483                                                  
                
  26534601.775   139440275.491                                                  
                
  36239479.556   190439750.945                                   148394650.695  
  36239489.241  
  39096275.093   205452312.748                                   160092726.683  
  39096278.863  
                 189863315.358                                   189863315.358  
  36461253.429  
                 188232511.940                                   188232511.940  
  36148074.715  
                 200878162.295                                   200878162.295  
  38576538.907  
                 186881879.939                                   186881879.939  
  35888699.878  
                 211144017.498                                   211144017.498  
  40547988.648  
                 187726565.489                                   187726565.489  
  36050913.117  
                 190299455.702                                   190299455.702  
  36545009.525  
                 126966988.208                                   126966988.208  
  24382675.294  
                 186884001.495                                   186884001.495  
  35889107.435  
                 189070990.296                                   189070990.296  
  36309095.661  
 24  6  8 12 45 16.0000000  0 24G10G18G23G32R 3R13R18R19E 4E10E12E21
                                J 3J 4C 2C 3C 5C 6C 7C 8C 9C12C13C16
  21886028.164   115011855.865                    21886033.400    89619650.124  
  21886033.042  
  21982480.451   115518713.345                    21982487.259    90014609.182  
  21982487.187  
  20521389.589   107840630.478                    20521392.323    84031671.523  
  20521392.216  
  22547680.434   118488862.430                    22547686.367    92329008.139  
  22547686.635  
  22316217.494   119460459.049                    22316223.105    92913713.198  
  22316222.962  
  23083118.792   123262566.235                    23083125.618    95870912.993  
  23083125.690  
  22349143.170   119301244.064                    22349156.268    92789909.470  
  22349156.197  
  20972374.674   112188061.922                    20972381.357    87257411.389  
  20972381.857  
  25257040.003   132726642.512                                                  
                
  24667039.459   129626168.566                                                  
                
  24127030.670   126788403.668                                                  
                
  26534428.177   139439363.273                                                  
                
  36239544.224   190440090.687                                   148394915.427  
  36239553.873  
  39096110.162   205451446.117                                   160092051.388  
  39096113.950  
                 189863328.618                                   189863328.618  
  36461255.967  
                 188232544.112                                   188232544.112  
  36148080.897  
                 200878158.983                                   200878158.983  
  38576538.245  
                 186881999.370                                   186881999.370  
  35888722.822  
                 211143921.556                                   211143921.556  
  40547970.243  
                 187726064.346                                   187726064.346  
  36050816.875  
                 190299412.248                                   190299412.248  
  36545001.198  
                 126968177.088                                   126968177.088  
  24382903.607  
                 186883347.351                                   186883347.351  
  35888981.815  
                 189071258.861                                   189071258.861  
  36309147.231  
 24  6  8 12 45 17.0000000  0 24G10G18G23G32R 3R13R18R19E 4E10E12E21
                                J 3J 4C 2C 3C 5C 6C 7C 8C 9C12C13C16
  21885570.556   115009451.037                    21885575.774    89617776.235  
  21885575.435  
  21983048.185   115521696.864                    21983055.011    90016933.999  
  21983054.922  
  20521256.626   107839931.715                    20521259.378    84031127.030  
  20521259.235  
  22547557.335   118488215.552                    22547563.249    92328504.080  
  22547563.535  
  22316358.445   119461213.651                    22316364.092    92914300.110  
  22316363.913  
  23083669.194   123265505.426                    23083676.038    95873199.026  
  23083676.109  
  22349849.658   119305015.387                    22349862.756    92792842.721  
  22349862.684  
  20972742.061   112190027.156                    20972748.744    87258939.900  
  20972749.244  
  25256972.548   132726288.036                                                  
                
  24666919.558   129625538.513                                                  
                
  24127160.899   126789088.110                                                  
                
  26534254.633   139438451.194                                                  
                
  36239608.838   190440430.290                                   148395180.055  
  36239618.523  
  39095945.195   205450579.222                                   160091375.888  
  39095948.983  
                 189863341.712                                   189863341.712  
  36461258.486  
                 188232576.080                                   188232576.080  
  36148087.044  
                 200878155.500                                   200878155.500  
  38576537.602  
                 186882118.725                                   186882118.725  
  35888745.748  
                 211143825.207                                   211143825.207  
  40547951.731  
                 187725563.133                                   187725563.133  
  36050720.632  
                 190299368.733                                   190299368.733  
  36544992.835  
                 126969366.126                                   126969366.126  
  24383131.955  
                 186882693.135                                   186882693.135  
  35888856.178  
                 189071527.350                                   189071527.350  
  36309198.801  
 24  6  8 12 45 18.0000000  0 27G10G18G23G32R 3R13R18R19E 4E10E11E12
                                E19E21J 3J 4C 1C 2C 3C 5C 6C 7C 8C 9
                                C12C13C16
  21885112.948   115007046.371                    21885118.166    89615902.474  
  21885117.827  
  21983616.009   115524680.799                    21983622.817    90019259.141  
  21983622.746  
  20521123.734   107839233.393                    20521126.468    84030582.880  
  20521126.361  
  22547434.253   118487568.787                    22547440.168    92328000.113  
  22547440.454  
  22316499.432   119461968.297                    22316505.078    92914887.053  
  22316504.900  
  23084219.756   123268445.283                    23084226.582    95875485.584  
  23084226.636  
  22350556.199   119308786.877                    22350569.279    92795776.103  
  22350569.226  
  20973109.573   112191993.084                    20973116.256    87260468.954  
  20973116.738  
  25256905.092   132725933.663                                                  
                
  24666799.764   129624908.992                                                  
                
  25434404.244   133658698.628                                                  
                
  24127291.236   126789773.090                                                  
                
  24972126.830   131229413.044                                                  
                
  26534081.125   139437539.467                                                  
                
  36239673.506   190440770.035                                   148395444.791  
  36239683.156  
  39095780.228   205449712.278                                   160090700.347  
  39095784.016  
                 195055611.084                                   195055611.084  
  37458379.184  
                 189863354.799                                   189863354.799  
  36461260.988  
                 188232608.094                                   188232608.094  
  36148093.173  
                 200878152.025                                   200878152.025  
  38576536.905  
                 186882238.240                                   186882238.240  
  35888768.674  
                 211143728.780                                   211143728.780  
  40547933.201  
                 187725062.051                                   187725062.051  
  36050624.407  
                 190299325.384                                   190299325.384  
  36544984.508  
                 126970555.564                                   126970555.564  
  24383360.393  
                 186882039.087                                   186882039.087  
  35888730.577  
                 189071795.985                                   189071795.985  
  36309250.371  
 24  6  8 12 45 19.0000000  0 27G10G18G23G32R 3R13R18R19E 4E10E11E12
                                E19E21J 3J 4C 1C 2C 3C 5C 6C 7C 8C 9
                                C12C13C16
  21884655.394   115004641.914                    21884660.630    89614028.873  
  21884660.273  
  21984183.904   115527665.106                    21984190.713    90021584.571  
  21984190.641  
  20520990.931   107838535.537                    20520993.683    84030039.097  
  20520993.558  
  22547311.207   118486922.202                    22547317.139    92327496.287  
  22547317.407  
  22316640.436   119462723.054                    22316646.047    92915474.084  
  22316645.886  
  23084770.408   123271385.822                    23084777.252    95877772.670  
  23084777.324  
  22351262.758   119312558.543                    22351275.838    92798709.621  
  22351275.785  
  20973477.228   112193959.788                    20973483.893    87261998.613  
  20973484.394  
  25256837.690   132725579.426                                                  
                
  24666680.077   129624280.028                                                  
                
  25434053.296   133656854.454                                                  
                
  24127421.680   126790458.588                                                  
                
  24972321.281   131230435.001                                                  
                
  26533907.706   139436628.153                                                  
                
  36239738.174   190441109.947                                   148395709.660  
  36239747.841  
  39095615.243   205448845.371                                   160090024.838  
  39095619.050  
                 195055641.023                                   195055641.023  
  37458384.938  
                 189863367.998                                   189863367.998  
  36461263.525  
                 188232640.188                                   188232640.188  
  36148099.338  
                 200878148.672                                   200878148.672  
  38576536.262  
                 186882357.976                                   186882357.976  
  35888791.689  
                 211143632.274                                   211143632.274  
  40547914.671  
                 187724561.217                                   187724561.217  
  36050528.218  
                 190299282.250                                   190299282.250  
  36544976.217  
                 126971745.424                                   126971745.424  
  24383588.884  
                 186881385.216                                   186881385.216  
  35888604.993  
                 189072064.843                                   189072064.843  
  36309301.995  
 24  6  8 12 45 20.0000000  0 27G10G18G23G32R 3R13R18R19E 4E10E11E12
                                E19E21J 3J 4C 1C 2C 3C 5C 6C 7C 8C 9
                                C12C13C16
  21884197.858   115002237.553                    21884203.094    89612155.349  
  21884202.736  
  21984751.871   115530649.775                    21984758.697    90023910.280  
  21984758.626  
  20520858.218   107837838.071                    20520860.952    84029495.617  
  20520860.845  
  22547188.197   118486275.696                    22547194.093    92326992.521  
  22547194.379  
  22316781.441   119463477.829                    22316787.051    92916061.131  
  22316786.891  
  23085321.185   123274326.916                    23085328.011    95880060.187  
  23085328.083  
  22351969.335   119316330.284                    22351982.415    92801643.194  
  22351982.362  
  20973845.008   112195927.170                    20973851.709    87263528.795  
  20973852.174  
  25256770.288   132725225.244                                                  
                
  24666560.462   129623651.525                                                  
                
  25433702.438   133655010.634                                                  
                
  24127552.231   126791144.577                                                  
                
  24972515.750   131231456.884                                                  
                
  26533734.341   139435717.136                                                  
                
  36239802.878   190441449.920                                   148395974.574  
  36239812.545  
  39095450.277   205447978.400                                   160089349.278  
  39095454.065  
                 195055670.952                                   195055670.952  
  37458390.673  
                 189863381.199                                   189863381.199  
  36461266.045  
                 188232672.301                                   188232672.301  
  36148105.503  
                 200878145.317                                   200878145.317  
  38576535.619  
                 186882477.838                                   186882477.838  
  35888814.704  
                 211143535.590                                   211143535.590  
  40547896.105  
                 187724060.513                                   187724060.513  
  36050432.065  
                 190299239.267                                   190299239.267  
  36544967.962  
                 126972935.639                                   126972935.639  
  24383817.447  
                 186880731.453                                   186880731.453  
  35888479.464  
                 189072333.806                                   189072333.806  
  36309353.654  
 24  6  8 12 45 21.0000000  0 27G10G18G23G32R 3R13R18R19E 4E10E11E12
                                E19E21J 3J 4C 1C 2C 3C 5C 6C 7C 8C 9
                                C12C13C16
  21883740.339   114999833.292                    21883745.575    89610281.899  
  21883745.218  
  21985319.910   115533634.766                    21985326.736    90026236.240  
  21985326.664  
  20520725.558   107837140.973                    20520728.292    84028952.421  
  20520728.185  
  22547065.168   118485629.258                    22547071.065    92326488.810  
  22547071.351  
  22316922.427   119464232.628                    22316928.074    92916648.194  
  22316927.895  
  23085872.069   123277268.553                    23085878.895    95882348.134  
  23085878.949  
  22352675.912   119320102.102                    22352689.010    92804576.833  
  22352688.956  
  20974212.932   112197895.183                    20974219.597    87265059.464  
  20974220.097  
  25256702.886   132724871.091                                                  
                
  24666440.972   129623023.486                                                  
                
  25433351.651   133653167.190                                                  
                
  24127682.854   126791831.012                                                  
                
  24972710.182   131232478.686                                                  
                
  26533561.047   139434806.436                                                  
                
  36239867.582   190441789.958                                   148396239.544  
  36239877.231  
  39095285.274   205447111.347                                   160088673.657  
  39095289.062  
                 195055700.865                                   195055700.865  
  37458396.409  
                 189863394.427                                   189863394.427  
  36461268.600  
                 188232704.409                                   188232704.409  
  36148111.650  
                 200878141.947                                   200878141.947  
  38576534.958  
                 186882597.804                                   186882597.804  
  35888837.720  
                 211143438.762                                   211143438.762  
  40547877.503  
                 187723559.926                                   187723559.926  
  36050335.930  
                 190299196.389                                   190299196.389  
  36544959.724  
                 126974126.171                                   126974126.171  
  24384046.081  
                 186880077.763                                   186880077.763  
  35888353.916  
                 189072602.877                                   189072602.877  
  36309405.331  
