     3.03           O                   M                   RINEX VERSION / TYPE
Android_Rinex                           2024-06-10 10:57:42 PGM / RUN BY / DATE
                                                            MARKER NAME
SMARTPHONE                                                  MARKER TYPE
                                                            OBSERVER / AGENCY
                                                            REC # / TYPE / VERS
                                                            ANT # / TYPE
        0.0000        0.0000        0.0000                  APPROX POSITION XYZ
        0.0000        0.0000        0.0000                  ANTENNA: DELTA H/E/N
G    8 C1C L1C D1C S1C C5Q L5Q D5Q S5Q                      SYS / # / OBS TYPES
R    4 C1C L1C D1C S1C                                      SYS / # / OBS TYPES
E    8 C1C L1C D1C S1C C5Q L5Q D5Q S5Q                      SYS / # / OBS TYPES
  2020    06    25    00    34    29.4479700                TIME OF FIRST OBS
  2020    06    25    00    56    11.4479700                TIME OF LAST OBS
  8 R02 -4 R18 -3 R09 -2 R19  3 R17  4 R03  5 R04  6 R10 -7   8 R02 -4 R18 -3 R09 -2 R19  3 R17  4 R03  5 R04  6 R10 -7 GLONASS SLOT / FRQ #
    GLONASS SLOT / FRQ #
                                                            GLONASS COD/PHS/BIS#
                                                            END OF HEADER
> 2020 06 25 00 34 29.4479704  0 26
G10  21708693.773 3  -7637968.69501      1966.009          40.200    21706343.106 1 -14084180.21701      1468.104          43.100  
G13  24096851.890 5         0.00000     -2196.026          27.900           0.000 0         0.00000         0.000           0.000  
G15  21949258.635 6         0.00000     -1412.550          21.500           0.000 0         0.00000         0.000           0.000  
G16  23216478.057 5         0.00000      -753.300          27.600           0.000 0         0.00000         0.000           0.000  
G18  20691303.099 4         0.00000      -688.400          31.300           0.000 0         0.00000         0.000           0.000  
G20  20160809.255 3  -1440253.29502       266.702          36.300           0.000 0         0.00000         0.000           0.000  
G21  21509146.223 3  -1555156.92202      1052.046          38.100           0.000 0         0.00000         0.000           0.000  
G26  23580754.074 3    340125.36201     -2289.568          39.900    23578411.487 2   3805676.52305     -1709.770          32.800  
G27  23240519.606 4   -209545.70909      3056.624          32.300    23238174.035 3         0.00000      2283.423          28.400  
G29  23139207.445 5         0.00000     -3411.626          26.500           0.000 0         0.00000         0.000           0.000  
G32  25338597.640 4  -1740859.16209      3600.361          29.800    25336250.865 3         0.00000      2691.900          22.100  
R02  21322895.965 3   7480559.43602     -3394.507          37.000  
R18  19543833.075 3 -12665789.33601       965.335          40.600  
R09  24272628.299 4   1487615.91103     -1391.626          32.000  
R19  21962339.493 5         0.00000      3300.850          25.000  
R17  20856875.179 3   5062247.10101     -2217.716          40.900  
R03  19218894.332 3 -10053887.13902       262.912          35.500  
R04  21451646.028 3 -14350585.83702      3738.415          38.300  
E01  28372313.248 5         0.00000      -229.150          28.400    28370194.913 3         0.00000      -174.000          25.800  
E03  24980066.548 5         0.00000     -1220.250          25.400    24977950.919 2         0.00000      -908.156          33.800  
E07  27143756.860 4   -416702.53208      3076.939          33.600    27141636.432 3         0.00000      2298.653          26.700  
E08  22115677.628 3   -380134.50304      1570.553          37.900    22113551.197 1  -5292469.01203      1174.293          38.400  
E13  23803718.717 4   -367346.84406      1164.692          36.000    23801592.583 1  -6875663.04703       871.279          37.200  
E15  23983227.240 4    130183.20607      -966.954          35.300    23981103.217 2   2126177.98305      -720.461          33.100  
E21  27625074.542 3    286056.15204     -2030.457          38.200    27622953.520 2    575052.13609     -1513.956          29.900  
E26  26721308.518 4   -342326.78209      2282.400          31.300    26719190.183 2  -2182496.32005      1705.968          31.600  
> 2020 06 25 00 34 30.4479704  0 26
G10  21708321.123 3  -7639932.23301      1962.736          41.300    21705968.956 1 -14085646.52301      1465.774          44.200  
G13  24097263.209 5         0.00000     -2200.538          28.400           0.000 0         0.00000         0.000           0.000  
G15  21949525.746 6         0.00000     -1409.450          21.800           0.000 0         0.00000         0.000           0.000  
G16  23216627.657 5         0.00000      -754.500          24.800           0.000 0         0.00000         0.000           0.000  
G18  20691435.912 4    907509.38909      -690.297          32.800           0.000 0         0.00000         0.000           0.000  
G20  20160768.177 3  -1440517.69402       263.630          36.600           0.000 0         0.00000         0.000           0.000  
G21  21508953.747 3  -1556206.66501      1048.911          39.900           0.000 0         0.00000         0.000           0.000  
G26  23581192.965 3    342417.30801     -2292.823          40.700    23578847.394 2   3807388.08405     -1712.198          32.500  
G27  23239943.120 4   -212600.04904      3053.523          32.500    23237593.047 3         0.00000      2280.600          28.300  
G29  23139861.602 5         0.00000     -3412.805          28.400           0.000 0         0.00000         0.000           0.000  
G32  25337903.331 4         0.00000      3597.205          28.500    25335565.246 3         0.00000      2684.450          24.700  
R02  21323525.220 3   7483956.47502     -3397.990          37.300  
R18  19543643.007 3 -12666752.20701       961.998          40.500  
R09  24272890.018 4   1489010.41409     -1395.384          32.200  
R19  21961697.936 5         0.00000      3297.916          27.000  
R17  20857288.889 3   5064467.32701     -2221.208          40.900  
R03  19218841.563 4 -10054147.50703       259.344          33.400  
R04  21450925.334 3 -14354321.73409      3735.013          37.700  
E01  28372360.311 5         0.00000      -234.500          29.400    28370239.882 3         0.00000      -175.894          26.300  
E03  24980302.493 5         0.00000     -1219.100          26.800    24978183.251 2         0.00000      -909.951          33.700  
E07  27143171.964 4   -419777.36609      3073.818          31.800    27141050.035 3   -347650.59209      2297.491          28.100  
E08  22115377.536 3   -381702.72004      1567.390          37.900    22113252.309 1  -5293640.16402      1172.536          39.600  
E13  23803495.668 3   -368509.18005      1162.211          37.200    23801370.145 1  -6876531.13403       869.992          37.500  
E15  23983409.821 4    131152.27207      -970.214          35.400    23981287.892 2   2126901.53405      -721.346          33.700  
E21  27625461.274 3    288088.62804     -2033.901          39.100    27623340.845 2    576569.87305     -1516.494          31.300  
E26  26720876.206 4   -344606.83209      2279.064          32.900    26718756.074 2  -2184199.03005      1703.938          31.300  
> 2020 06 25 00 34 31.4479704  0 26
G10  21707943.693 2  -7641893.27201      1957.484          42.100    21705596.324 1 -14087110.90101      1461.842          44.600  
G13  24097679.606 5         0.00000     -2206.543          27.400           0.000 0         0.00000         0.000           0.000  
G15  21949814.756 4         0.00000     -1415.550          31.200           0.000 0         0.00000         0.000           0.000  
G16  23216755.358 5         0.00000      -760.550          28.200           0.000 0         0.00000         0.000           0.000  
G18  20691571.413 4    908201.98109      -694.819          32.600           0.000 0         0.00000         0.000           0.000  
G20  20160719.020 3  -1440779.50102       258.274          37.400           0.000 0         0.00000         0.000           0.000  
G21  21508746.002 3  -1557254.06202      1044.025          37.400           0.000 0         0.00000         0.000           0.000  
G26  23581626.166 3    344711.78101     -2297.967          39.700    23579282.689 2   3809101.54104     -1716.215          33.800  
G27  23239363.005 4   -215651.93404      3048.276          31.900    23237013.839 3         0.00000      2273.300          28.500  
G29  23140517.538 5         0.00000     -3421.350          25.800           0.000 0         0.00000         0.000           0.000  
G32  25337231.794 4         0.00000      3592.417          29.100    25334880.220 3         0.00000      2682.200          22.500  
R02  21324159.588 3   7487356.17502     -3403.289          37.000  
R18  19543462.833 3 -12667712.31101       956.471          40.600  
R09  24273140.952 4   1490407.73009     -1400.890          32.200  
R19  21961055.175 5         0.00000      3292.399          27.400  
R17  20857713.104 2   5066690.25701     -2226.598          41.900  
R03  19218803.801 3 -10054404.76402       253.313          37.700  
R04  21450238.511 3 -14358054.99102      3729.600          39.400  
E01  28372410.986 4      1540.62309      -242.526          30.300    28370287.853 3         0.00000      -185.797          27.800  
E03  24980536.326 5         0.00000     -1223.700          26.800    24978415.897 2         0.00000      -913.969          31.300  
E07  27142594.571 4   -422850.15109      3069.135          33.200    27140463.934 3         0.00000      2291.300          24.500  
E08  22115080.743 3   -383268.42104      1562.123          38.600    22112954.312 1  -5294809.38702      1168.710          39.900  
E13  23803275.621 3   -369669.21405      1157.200          36.800    23801149.190 1  -6877397.45403       866.344          37.100  
E15  23983598.982 4    132123.69106      -975.380          36.400    23981472.865 1   2127626.85103      -725.290          35.600  
E21  27625850.414 3    290123.50304     -2038.847          39.200    27623727.577 3         0.00000     -1517.450          25.700  
E26  26720440.614 4   -346884.95208      2274.322          32.900    26718322.279 2  -2185900.20609      1700.496          30.900  
> 2020 06 25 00 34 32.4479704  0 26
G10  21707574.952 2  -7643847.03701      1950.234          41.700    21705224.582 1 -14088569.92001      1456.501          44.700  
G13  24098096.020 5         0.00000     -2212.099          27.700           0.000 0         0.00000         0.000           0.000  
G15  21950069.879 4    -78513.12609     -1424.504          32.800           0.000 0         0.00000         0.000           0.000  
G16  23216913.056 5         0.00000      -770.822          26.500           0.000 0         0.00000         0.000           0.000  
G18  20691700.632 4    908901.38609      -703.029          33.000           0.000 0         0.00000         0.000           0.000  
G20  20160668.048 3  -1441033.88902       251.616          36.700           0.000 0         0.00000         0.000           0.000  
G21  21508545.429 3  -1558294.52202      1036.833          38.000           0.000 0         0.00000         0.000           0.000  
G26  23582061.165 3    347013.37201     -2304.451          40.600    23579721.283 2   3810820.23305     -1721.277          33.500  
G27  23238784.408 4   -218696.61104      3041.860          32.600    23236431.351 3         0.00000      2270.550          26.600  
G29  23141134.822 5         0.00000     -3422.250          24.000           0.000 0         0.00000         0.000           0.000  
G32  25336557.849 4  -1751641.92609      3586.220          29.500    25334197.882 3         0.00000      2683.750          23.000  
R02  21324800.552 3   7490763.31002     -3410.856          36.600  
R18  19543285.068 3 -12668664.94501       949.731          40.400  
R09  24273378.083 4   1491812.62309     -1408.089          31.300  
R19  21960477.782 5         0.00000      3285.262          25.700  
R17  20858127.110 2   5068920.61901     -2234.173          41.500  
R03  19218760.018 3 -10054654.15402       246.313          36.600  
R04  21449541.182 3 -14361780.77502      3722.080          38.600  
E01  28372452.954 4      1785.70509      -249.236          31.100    28370335.824 3         0.00000      -185.450          26.800  
E03  24980763.859 6         0.00000     -1232.450          22.600    24978650.027 2         0.00000      -921.021          31.600  
E07  27142012.973 4   -425915.71908      3061.648          34.100    27139879.649 3         0.00000      2287.074          25.400  
E08  22114783.339 3   -384827.01804      1555.843          38.600    22112657.815 1  -5295973.14802      1160.983          39.100  
E13  23803057.075 3   -370822.44505      1151.046          37.100    23800930.050 1  -6878258.48703       859.478          36.700  
E15  23983783.361 4    133101.93307      -982.456          34.900    23981659.931 2   2128357.51204      -732.359          34.700  
E21  27626238.349 3    292165.32204     -2045.888          40.500    27624121.516 3         0.00000     -1528.000          22.800  
E26  26720007.412 4   -349156.26908      2267.426          33.500    26717889.078 2  -2187596.26509      1693.691          30.900  
> 2020 06 25 00 34 33.4479704  0 26
G10  21707196.614 3  -7645805.99801      1965.152          41.400    21704851.636 1 -14090032.68201      1467.326          43.000  
G13  24098537.022 5         0.00000     -2201.929          27.600           0.000 0         0.00000         0.000           0.000  
G15  21950345.383 4    -77096.39909     -1409.942          30.000           0.000 0         0.00000         0.000           0.000  
G16  23217037.162 4         0.00000      -754.052          29.400           0.000 0         0.00000         0.000           0.000  
G18  20691848.418 4    909596.20009      -690.063          30.200           0.000 0         0.00000         0.000           0.000  
G20  20160618.891 3  -1441293.20002       264.173          38.000           0.000 0         0.00000         0.000           0.000  
G21  21508350.563 3  -1559340.01802      1050.485          39.300           0.000 0         0.00000         0.000           0.000  
G26  23582502.167 3    349309.64701     -2289.590          39.500    23580156.893 2   3812534.83309     -1709.436          29.900  
G27  23238199.215 4   -221746.25204      3054.453          33.400    23235853.051 2  -7091825.87305      2279.360          33.000  
G29  23141826.741 4         0.00000     -3411.058          28.500           0.000 0         0.00000         0.000           0.000  
G32  25335858.741 4  -1755236.48009      3602.462          29.900    25333519.766 3         0.00000      2690.250          23.500  
R02  21325452.300 3   7494165.48609     -3399.225          35.000  
R18  19543107.582 3 -12669622.25301       961.453          39.600  
R09  24273654.791 4   1493212.82309     -1395.619          30.400  
R19  21959828.721 5         0.00000      3298.750          25.300  
R17  20858536.632 3   5071146.38602     -2221.348          38.900  
R03  19218715.363 3 -10054908.10002       258.651          35.700  
R04  21448838.776 3 -14365511.75202      3737.392          39.600  
E01  28372506.020 5         0.00000      -239.100          28.800    28370380.479 3         0.00000      -173.577          25.500  
E03  24981008.790 5         0.00000     -1224.000          27.300    24978884.174 2         0.00000      -910.137          31.500  
E07  27141421.777 4   -428987.01209      3079.842          30.600    27139294.456 3         0.00000      2301.093          27.900  
E08  22114483.858 3   -386390.30704      1568.183          37.800    22112360.429 1  -5297140.55803      1173.904          38.200  
E13  23802836.434 3   -371980.56805      1162.917          37.100    23800710.596 1  -6879123.34303       871.156          37.300  
E15  23983969.241 4    134075.49506      -969.503          35.700    23981843.403 2   2129084.54609      -721.161          30.600  
E21  27626622.970 3    294201.80104     -2030.369          39.800    27624504.635 2    581150.93205     -1514.117          31.300  
E26  26719574.821 4   -351432.94109      2282.226          32.000    26717456.487 2  -2189296.38909      1706.909          30.900  
> 2020 06 25 00 34 34.4479704  0 26
G10  21706822.167 3  -7647767.75702      1965.535          38.600    21704478.097 1 -14091497.62402      1467.876          41.900  
G13  24098941.134 5         0.00000     -2213.550          28.400           0.000 0         0.00000         0.000           0.000  
G15  21950608.602 4         0.00000     -1421.000          30.400           0.000 0         0.00000         0.000           0.000  
G16  23217191.858 3         0.00000      -755.100          36.100           0.000 0         0.00000         0.000           0.000  
G18  20691975.229 4         0.00000      -700.950          31.000           0.000 0         0.00000         0.000           0.000  
G20  20160559.822 4  -1441552.27903       262.423          35.300           0.000 0         0.00000         0.000           0.000  
G21  21508148.803 3  -1560384.99702      1047.026          38.500           0.000 0         0.00000         0.000           0.000  
G26  23582936.555 3    351601.71502     -2286.994          37.600    23580594.876 2   3814246.57009     -1708.053          33.600  
G27  23237620.618 4   -224795.37309      3051.865          34.000    23235271.749 2  -7094103.04504      2279.170          33.800  
G29  23142469.188 4   3317808.38809     -3416.865          31.600           0.000 0         0.00000         0.000           0.000  
G32  25335159.930 4         0.00000      3604.400          29.200    25332833.536 3         0.00000      2685.150          22.400  
R02  21326083.963 3   7497573.37309     -3407.112          35.900  
R18  19542929.799 3 -12670577.18101       957.148          39.500  
R09  24273944.395 4         0.00000     -1393.000          28.900  
R19  21959259.722 4         0.00000      3294.500          28.300  
R17  20858952.750 3   5073374.40609     -2226.956          36.500  
R03  19218655.404 3 -10055160.91202       255.761          35.900  
R04  21448152.250 3 -14369246.30002      3738.433          36.400  
E01  28372531.794 5         0.00000      -230.450          25.600    28370426.356 3         0.00000      -175.200          26.000  
E03  24981234.247 5         0.00000     -1226.650          25.100    24979119.804 2         0.00000      -918.735          34.200  
E07  27140837.177 5         0.00000      3080.550          29.500    27138715.841 3         0.00000      2300.644          24.800  
E08  22114191.253 3   -387953.92005      1567.244          37.600    22112062.431 1  -5298308.13303      1167.449          36.800  
E13  23802616.684 4   -373137.86808      1160.887          33.800    23800490.846 1  -6879987.51703       865.019          37.100  
E15  23984156.010 4    135051.45109      -974.937          30.300    23982030.172 2         0.00000      -721.400          31.000  
E21  27627013.314 3    296234.81204     -2029.817          39.800    27624888.976 2    582669.25909     -1516.788          31.200  
E26  26719147.605 4   -353709.07809      2279.055          35.700    26717023.285 1         0.00000      1709.000          35.300  
> 2020 06 25 00 34 35.4479704  0 26
G10  21706447.720 3  -7649748.37501      1982.092          39.500    21704101.556 1 -14092976.73101      1480.040          43.300  
G13  24099367.740 5         0.00000     -2199.850          27.600           0.000 0         0.00000         0.000           0.000  
G15  21950908.693 5         0.00000     -1410.050          27.200           0.000 0         0.00000         0.000           0.000  
G16  23217331.268 3    458951.75409      -736.807          36.100           0.000 0         0.00000         0.000           0.000  
G18  20692091.849 4         0.00000      -684.250          30.600           0.000 0         0.00000         0.000           0.000  
G20  20160515.149 4  -1441827.77803       275.928          35.300           0.000 0         0.00000         0.000           0.000  
G21  21507946.450 3  -1561446.41002      1062.846          39.400           0.000 0         0.00000         0.000           0.000  
G26  23583370.368 3    353873.42802     -2269.821          38.800    23581027.781 1   3815942.99703     -1695.215          35.500  
G27  23237034.832 3   -227861.79609      3068.397          39.800    23234687.743 1  -7096392.86203      2291.243          36.800  
G29  23143121.843 4         0.00000     -3398.950          31.000           0.000 0         0.00000         0.000           0.000  
G32  25334493.785 5         0.00000      3618.266          27.500    25332142.211 3         0.00000      2699.550          24.800  
R02  21326721.612 3   7500968.11802     -3395.189          36.200  
R18  19542754.128 3 -12671546.70401       969.239          39.300  
R09  24274202.518 4         0.00000     -1380.600          33.700  
R19  21958639.140 4         0.00000      3311.850          29.100  
R17  20859367.961 3   5075588.86102     -2216.730          38.700  
R03  19218619.718 3 -10055429.21602       267.474          36.200  
R04  21447439.635 3 -14373000.15902      3753.675          36.000  
E01  28372590.549 4       542.75808      -220.197          34.100    28370466.526 2    -32882.55605      -164.228          31.600  
E03  24981468.673 5         0.00000     -1219.950          26.500    24979351.840 2         0.00000      -909.990          34.800  
E07  27140247.185 5         0.00000      3091.850          28.600    27138127.961 3         0.00000      2313.400          27.000  
E08  22113886.660 3   -389533.62204      1578.646          38.000    22111762.636 1  -5299487.72603      1179.470          37.800  
E13  23802391.244 4   -374311.46706      1174.761          35.700    23800268.704 1  -6880863.77503       877.753          37.100  
E15  23984335.887 4    136014.19709      -963.909          32.800    23982213.347 2   2130532.23305      -719.435          33.200  
E21  27627395.543 4    298247.26409     -2010.038          35.800    27625273.003 2    584172.06509     -1500.463          30.500  
E26  26718705.416 4   -356005.64006      2299.425          36.000    26716586.175 1  -2192712.43303      1717.619          36.000  
> 2020 06 25 00 34 36.4479704  0 26
G10  21706077.793 2  -7651717.62801      1958.810          41.600    21703725.905 1 -14094447.31603      1462.698          38.600  
G13  24099795.846 5         0.00000     -2222.650          25.000           0.000 0         0.00000         0.000           0.000  
G15  21951152.420 4         0.00000     -1437.650          34.600           0.000 0         0.00000         0.000           0.000  
G16  23217476.366 3    459699.29802      -756.313          39.200           0.000 0         0.00000         0.000           0.000  
G18  20692233.056 3    911680.19302      -708.030          37.200           0.000 0         0.00000         0.000           0.000  
G20  20160464.788 3  -1442090.97702       252.829          39.300           0.000 0         0.00000         0.000           0.000  
G21  21507747.082 2  -1562497.72601      1042.706          42.600           0.000 0         0.00000         0.000           0.000  
G26  23583803.255 3    356155.49402     -2292.192          37.500    23581461.279 1   3817646.96303     -1711.540          37.000  
G27  23236446.934 3   -230920.33209      3050.978          35.700    23234106.144 1  -7098676.80503      2278.660          35.800  
G29  23143772.388 3         0.00000     -3433.500          36.700           0.000 0         0.00000         0.000           0.000  
G32  25333803.070 5         0.00000      3584.750          23.700    25331458.983 3         0.00000      2680.250          25.800  
R02  21327343.084 4   7504377.33909     -3418.192          33.100  
R18  19542561.669 3 -12672502.88902       945.705          37.200  
R09  24274458.845 3   1497396.01602     -1396.718          38.100  
R19  21958007.180 5         0.00000      3303.408          26.200  
R17  20859783.764 4   5077822.88309     -2247.782          33.300  
R03  19218572.655 3 -10055682.13401       240.880          39.400  
R04  21446751.922 3 -14376738.71702      3725.345          39.100  
E01  28372635.518 4       772.84308      -236.900          33.200    28370510.902 3    -32710.79609      -181.074          28.600  
E03  24981710.603 4      3693.56508     -1247.573          33.800    24979584.783 2   1022713.87209      -930.634          32.100  
E07  27139661.696 4   -438236.73809      3067.051          31.500    27137538.859 2         0.00000      2289.237          32.100  
E08  22113591.960 4   -391096.50506      1550.599          36.300    22111464.639 1  -5300654.58703      1156.495          36.400  
E13  23802172.680 3   -375474.64004      1155.357          40.600    23800045.359 2  -6881732.37705       861.830          33.800  
E15  23984526.845 4    136993.84609      -990.740          30.300    23982400.414 1   2131264.04403      -741.576          36.400  
E21  27627778.384 3    300268.26904     -2028.976          39.400    27625657.641 2    585680.21309     -1514.841          34.900  
E26  26718272.808 4   -358295.52609      2284.174          35.100    26716149.692 3         0.00000      1699.945          27.700  
> 2020 06 25 00 34 37.4479704  0 26
G10  21705699.141 3  -7653672.98202      1952.416          38.200    21703353.570 1 -14095907.51803      1458.396          35.700  
G13  24100207.165 6         0.00000     -2221.400          21.900           0.000 0         0.00000         0.000           0.000  
G15  21951416.844 4    -71475.28209     -1442.290          35.300           0.000 0         0.00000         0.000           0.000  
G16  23217618.760 3    460456.42402      -757.246          38.500           0.000 0         0.00000         0.000           0.000  
G18  20692368.260 3    912391.13002      -711.650          39.300           0.000 0         0.00000         0.000           0.000  
G20  20160418.614 3  -1442341.93202       249.419          38.900           0.000 0         0.00000         0.000           0.000  
G21  21507548.620 2  -1563540.10301      1042.867          44.300           0.000 0         0.00000         0.000           0.000  
G26  23584239.162 4    358452.40909     -2300.040          33.700    23581897.482 2   3819361.23309     -1716.598          33.100  
G27  23235875.527 3   -233972.29109      3054.481          37.500    23233525.454 1  -7100956.54909      2281.660          36.700  
G29  23144428.341 4         0.00000     -3448.200          34.700           0.000 0         0.00000         0.000           0.000  
G32  25333104.852 6         0.00000      3574.900          21.800    25330776.051 3         0.00000      2668.200          24.800  
R02  21328001.428 3   7507794.95409     -3418.158          37.700  
R18  19542390.186 4 -12673447.51304       944.200          31.800  
R09  24274722.064 3   1498791.27402     -1393.521          38.200  
R19  21957383.021 4         0.00000      3298.800          28.400  
R17  20860203.774 3   5080076.51309     -2258.200          36.100  
R03  19218527.389 2 -10055919.21901       234.126          42.900  
R04  21446058.800 3 -14380457.64809      3712.836          39.400  
E01  28372677.800 4      1007.95606      -233.463          36.400    28370554.667 2    -32531.20609      -171.327          29.100  
E03  24981947.455 4      4941.42709     -1247.905          32.800    24979823.118 1   1023644.99903      -931.319          36.400  
E07  27139074.391 5         0.00000      3050.300          28.500    27136955.760 2   -363725.29609      2281.018          33.900  
E08  22113296.964 3   -392640.08305      1539.488          37.600    22111171.144 2  -5301808.40509      1149.400          31.000  
E13  23801952.336 2   -376628.77903      1155.031          43.500    23799827.720 3  -6882594.24109       860.899          28.800  
E15  23984712.410 4         0.00000      -999.700          35.300    23982590.185 1         0.00000      -743.718          36.200  
E21  27628165.115 4    302299.89108     -2032.709          34.200    27626042.279 2    587197.01305     -1517.780          31.200  
E26  26717834.825 3   -360580.01705      2285.973          37.600    26715715.880 2  -2196123.44909      1706.792          31.700  
> 2020 06 25 00 34 38.4479704  0 25
G10  21705333.995 3  -7655629.71609      1960.784          40.800    21702981.531 2 -14097368.04609      1464.009          31.000  
G13  24100627.768 3   2464129.30309     -2215.084          37.500           0.000 0         0.00000         0.000           0.000  
G15  21951695.052 3    -70036.73809     -1436.278          39.800           0.000 0         0.00000         0.000           0.000  
G16  23217752.167 4         0.00000      -743.000          31.300           0.000 0         0.00000         0.000           0.000  
G18  20692507.373 4    913098.03409      -704.442          33.000           0.000 0         0.00000         0.000           0.000  
G20  20160369.457 3  -1442596.15602       258.476          37.800           0.000 0         0.00000         0.000           0.000  
G21  21507351.066 2  -1564589.67201      1055.365          42.300           0.000 0         0.00000         0.000           0.000  
G26  23584678.052 3    360746.93709     -2289.541          36.600    23582334.872 1   3821074.89603     -1709.573          35.100  
G27  23235292.724 3   -237036.09709      3071.436          40.600    23232941.761 1  -7103244.67303      2293.929          36.100  
G29  23145087.872 5         0.00000     -3449.550          28.100           0.000 0         0.00000         0.000           0.000  
R02  21328638.483 2   7511206.53801     -3407.952          41.800  
R18  19542218.406 3 -12674397.19802       953.520          37.300  
R09  24274984.079 3   1500175.75202     -1376.130          38.400  
R19  21956760.048 4         0.00000      3317.350          34.000  
R17  20860634.288 3   5082333.42902     -2257.466          38.300  
R03  19218480.012 2 -10056156.66401       239.810          44.900  
R04  21445357.877 2 -14384171.77301      3716.269          42.400  
E01  28372718.564 3      1232.36204      -216.757          37.900    28370597.228 2    -32363.86309      -158.572          31.300  
E03  24982184.289 4      6185.18606     -1242.070          35.900    24980061.156 2   1024573.48505      -923.821          33.900  
E07  27138499.389 4   -444346.61008      3055.601          33.100    27136375.663 2         0.00000      2283.641          34.500  
E08  22113005.581 3   -394180.06904      1540.852          39.100    22110878.539 1  -5302958.55803      1153.422          36.000  
E13  23801731.102 2   -377790.15203      1166.731          43.300    23799605.561 3         0.00000       872.161          25.800  
E15  23984902.496 4    139005.42509      -992.905          31.700    23982780.549 2   2132750.65604      -739.624          34.600  
E21  27628552.737 4    304327.27409     -2021.277          30.600    27626430.215 3         0.00000     -1508.277          27.000  
E26  26717399.215 3   -362874.60304      2302.246          38.400    26715279.084 2  -2197837.11205      1722.957          32.700  
> 2020 06 25 00 34 39.4479704  0 25
G10  21704961.067 3  -7657587.01409      1957.342          38.200    21702610.679 2 -14098829.87904      1461.612          33.900  
G13  24101057.671 3   2466353.68909     -2230.971          36.200           0.000 0         0.00000         0.000           0.000  
G15  21951972.057 3    -68590.39709     -1454.077          39.300           0.000 0         0.00000         0.000           0.000  
G16  23217900.878 4    461957.33909      -743.410          33.200           0.000 0         0.00000         0.000           0.000  
G18  20692639.279 4    913810.17709      -717.048          34.400           0.000 0         0.00000         0.000           0.000  
G20  20160319.986 3  -1442849.25802       250.799          38.500           0.000 0         0.00000         0.000           0.000  
G21  21507151.401 2  -1565641.07301      1049.557          44.400           0.000 0         0.00000         0.000           0.000  
G26  23585115.756 3    363038.61309     -2290.125          36.100    23582770.185 2   3822786.20604     -1710.034          34.000  
G27  23234706.345 2   -240105.85509      3069.566          42.300    23232357.458 1  -7105536.86603      2292.169          35.400  
G29  23145742.918 4         0.00000     -3461.600          29.900           0.000 0         0.00000         0.000           0.000  
R02  21329272.851 2   7514622.62301     -3422.374          42.100  
R18  19542032.229 4 -12675343.90003       942.277          34.600  
R09  24275234.699 3   1501553.27702     -1376.948          37.000  
R19  21956150.564 4  -4620968.21009      3312.459          33.200  
R17  20861053.983 4   5084601.47803     -2275.240          34.100  
R03  19218435.043 2 -10056388.90601       228.161          43.900  
R04  21444668.663 2 -14387882.30501      3709.131          42.100  
E01  28372762.032 3      1450.09904      -217.373          37.900    28370638.306 3         0.00000      -161.000          27.800  
E03  24982416.918 4      7436.56308     -1257.795          34.200    24980298.880 1   1025508.06203      -942.615          35.300  
E07  27137918.401 4   -447397.06209      3048.168          34.400    27135795.565 2   -368281.52604      2270.835          34.400  
E08  22112713.569 3   -395712.60704      1528.742          39.200    22110586.247 2  -5304102.88704      1137.454          34.500  
E13  23801508.944 2   -378952.90602      1161.473          44.300    23799388.219 2  -6884328.98809       863.696          30.100  
E15  23985092.249 4    140009.90609     -1010.125          35.300    23982971.524 1   2133500.54703      -757.871          36.400  
E21  27628934.373 5         0.00000     -2021.250          28.500    27626814.242 3         0.00000     -1514.850          22.800  
E26  26716962.716 3   -365176.73904      2303.181          38.700    26714840.490 2  -2199556.21209      1716.866          31.700  
> 2020 06 25 00 34 40.4479704  0 25
G10  21704582.414 4  -7659557.92309      1977.320          35.200    21702234.749 1 -14100301.75503      1476.547          35.600  
G13  24101477.681 4   2468581.48009     -2231.009          35.200           0.000 0         0.00000         0.000           0.000  
G15  21952242.762 3    -67140.84309     -1451.174          36.400           0.000 0         0.00000         0.000           0.000  
G16  23218040.567 3    462687.15809      -723.961          39.700           0.000 0         0.00000         0.000           0.000  
G18  20692777.782 3    914521.28609      -710.768          40.700           0.000 0         0.00000         0.000           0.000  
G20  20160268.124 3  -1443110.40602       263.944          38.000           0.000 0         0.00000         0.000           0.000  
G21  21506949.938 2  -1566700.84401      1062.262          44.200           0.000 0         0.00000         0.000           0.000  
G26  23585550.755 4    365312.30109     -2263.997          32.200    23583202.776 1   3824484.72603     -1692.782          34.700  
G27  23234116.946 3   -243186.35709      3083.417          40.200    23231772.562 1  -7107837.22303      2302.474          38.100  
G29  23146403.374 3   3338413.80909     -3453.143          36.400           0.000 0         0.00000         0.000           0.000  
R02  21329914.705 3   7518039.93502     -3419.133          38.000  
R18  19541858.356 4 -12676294.17203       950.809          34.300  
R09  24275483.836 3   1502918.02302     -1361.098          36.700  
R19  21955529.406 4  -4624290.96209      3325.725          30.500  
R17  20861478.791 3   5086870.84702     -2269.256          38.000  
R03  19218389.480 2 -10056626.26601       239.450          42.000  
R04  21443974.947 3 -14391605.32009      3730.329          39.800  
E01  28372800.405 3      1655.52105      -202.038          37.300    28370678.476 2    -32054.74409      -148.592          30.400  
E03  24982660.349 4      8689.72808     -1254.495          34.500    24980537.530 1   1026443.94103      -936.543          35.100  
E07  27137334.098 5         0.00000      3064.500          28.900    27135211.576 2   -370567.60405      2292.088          33.900  
E08  22112419.777 3   -397250.22504      1540.607          37.800    22110294.253 2  -5305251.24004      1152.204          34.900  
E13  23801288.896 2   -380123.25102      1172.387          44.000    23799165.170 2  -6885203.24709       877.718          29.000  
E15  23985282.317 4    141014.11709     -1004.909          33.500    23983161.592 1   2134250.42603      -748.250          38.900  
E21  27629322.012 4    308353.44409     -1998.344          31.200    27627196.471 2         0.00000     -1492.000          31.700  
E26  26716520.527 4   -367492.95407      2320.418          35.600    26714398.598 2  -2201284.76009      1735.147          31.800  
> 2020 06 25 00 34 41.4479704  0 25
G10  21704207.077 3  -7661527.88609      1964.035          40.100    21701858.802 1 -14101772.65203      1466.721          35.800  
G13  24101899.191 4   2470830.43109     -2263.178          32.400           0.000 0         0.00000         0.000           0.000  
G15  21952520.971 3    -65673.06409     -1480.744          37.300           0.000 0         0.00000         0.000           0.000  
G16  23218180.884 2    463419.68209      -739.436          43.400           0.000 0         0.00000         0.000           0.000  
G18  20692912.079 2    915246.86609      -735.939          42.700           0.000 0         0.00000         0.000           0.000  
G20  20160223.765 3  -1443363.31601       244.318          40.900           0.000 0         0.00000         0.000           0.000  
G21  21506747.271 2  -1567751.14801      1041.118          46.300           0.000 0         0.00000         0.000           0.000  
G26  23585986.958 4    367583.28309     -2277.198          31.400    23583636.885 2   3826181.86004     -1700.432          34.600  
G27  23233533.254 3   -246257.99709      3062.511          36.500    23231187.369 2  -7110131.05309      2290.456          33.100  
G29  23147055.716 3   3341877.31109     -3471.452          35.900           0.000 0         0.00000         0.000           0.000  
R02  21330568.250 3   7521476.77702     -3450.051          35.300  
R18  19541688.373 4 -12677230.91203       925.736          32.600  
R09  24275756.041 3   1504290.36201     -1381.554          39.100  
R19  21954883.050 5         0.00000      3309.522          27.400  
R17  20861903.303 3   5089152.06209     -2291.863          37.400  
R03  19218356.203 2 -10056853.74301       218.185          41.700  
R04  21443271.633 4 -14395329.66809      3717.645          34.800  
E01  28372842.373 3      1868.72604      -222.048          38.400    28370720.741 3         0.00000      -172.702          25.000  
E03  24982899.294 4      9960.84209     -1283.006          31.600    24980779.163 1   1027393.00303      -958.031          37.100  
E07  27136754.001 5         0.00000      3059.000          27.900    27134629.681 1         0.00000      2283.576          36.000  
E08  22112128.986 3   -398780.69204      1523.037          38.000    22110001.054 2  -5306394.04005      1136.669          33.200  
E13  23801069.146 2   -381283.63202      1151.563          45.500    23798941.825 2  -6886072.35609       859.745          32.700  
E15  23985473.292 5         0.00000     -1033.300          27.600    23983354.365 2         0.00000      -767.722          30.500  
E21  27629702.148 4    310357.02109     -2008.774          36.100    27627575.123 3         0.00000     -1496.200          25.300  
E26  26716082.527 3   -369804.05703      2303.491          41.100    26713959.708 3  -2203010.53809      1718.857          28.000  
> 2020 06 25 00 34 42.4479704  0 25
G10  21703832.037 3  -7663492.58101      1969.013          41.200    21701485.856 1 -14103240.22103      1470.436          35.800  
G13  24102332.096 4   2473099.90404     -2270.346          32.700           0.000 0         0.00000         0.000           0.000  
G15  21952803.385 3    -64187.17902     -1487.044          35.900           0.000 0         0.00000         0.000           0.000  
G16  23218320.887 3    464158.79201      -735.619          41.200           0.000 0         0.00000         0.000           0.000  
G18  20693057.491 3    915987.78701      -740.276          40.300           0.000 0         0.00000         0.000           0.000  
G20  20160179.093 3  -1443606.39301       245.642          40.000           0.000 0         0.00000         0.000           0.000  
G21  21506551.515 2  -1568790.60501      1041.082          46.300           0.000 0         0.00000         0.000           0.000  
G26  23586406.060 4    369858.92404     -2269.912          32.900    23584069.476 1   3827880.86803     -1695.432          36.700  
G27  23232937.870 4   -249321.46409      3065.731          30.800    23230607.271 2  -7112420.46309      2287.128          32.200  
G29  23147724.862 4         0.00000     -3470.291          29.200           0.000 0         0.00000         0.000           0.000  
R02  21331204.712 4   7524931.83303     -3456.386          32.900  
R18  19541503.994 4 -12678153.60404       923.739          31.900  
R09  24276011.460 3   1505673.16209     -1379.841          38.900  
R19  21954279.866 5         0.00000      3301.138          26.900  
R17  20862328.407 3   5091449.53701     -2296.800          39.000  
R03  19218307.639 2 -10057069.95301       218.117          41.400  
R04  21442581.809 3 -14399048.41809      3724.212          36.100  
E01  28372885.248 4      2092.59606      -222.109          35.900    28370763.319 3         0.00000      -170.550          25.200  
E03  24983147.524 4     11248.92109     -1289.601          30.400    24981025.577 2   1028354.86405      -962.017          33.800  
E07  27136161.915 4   -456580.57109      3063.563          30.900    27134047.175 2         0.00000      2287.656          31.600  
E08  22111838.475 3   -400302.09904      1523.961          38.300    22109711.747 2  -5307530.16104      1137.826          34.300  
E13  23800844.614 2   -382432.48603      1151.287          43.000    23798722.074 2  -6886930.34605       859.726          31.900  
E15  23985682.555 5         0.00000     -1033.300          26.200    23983551.622 1         0.00000      -771.014          35.500  
E21  27630078.985 4    312364.07006     -2003.351          36.400    27627956.446 2         0.00000     -1494.250          29.100  
E26  26715643.933 3   -372106.75504      2305.021          39.300    26713523.208 2  -2204729.91709      1722.125          30.900  
> 2020 06 25 00 34 43.4479704  0 25
G10  21703456.701 3  -7665469.33801      1978.234          41.000    21701108.722 1 -14104716.41503      1477.254          35.000  
G13  24102771.597 4   2475367.57903     -2269.285          35.100           0.000 0         0.00000         0.000           0.000  
G15  21953089.674 3    -62703.17002     -1486.081          36.200           0.000 0         0.00000         0.000           0.000  
G16  23218458.779 3    464886.59401      -725.819          39.600           0.000 0         0.00000         0.000           0.000  
G18  20693191.788 3    916723.74701      -736.953          39.700           0.000 0         0.00000         0.000           0.000  
G20  20160127.527 3  -1443857.41502       251.557          38.400           0.000 0         0.00000         0.000           0.000  
G21  21506351.553 2  -1569837.95901      1047.992          45.300           0.000 0         0.00000         0.000           0.000  
G26  23586841.967 4    372120.85203     -2259.770          35.400    23584499.380 1   3829569.91203     -1687.577          35.500  
G27  23232370.651 4   -252390.83309      3070.457          34.300    23230022.375 2  -7114712.60405      2292.855          31.000  
G29  23148388.598 4         0.00000     -3463.931          28.900           0.000 0         0.00000         0.000           0.000  
R02  21331841.471 4         0.00000     -3456.575          28.000  
R18  19541345.110 4 -12679081.52603       927.525          32.300  
R09  24276264.192 3   1507046.21401     -1371.194          40.500  
R19  21953669.195 4         0.00000      3312.068          28.300  
R17  20862762.202 3   5093742.47301     -2294.747          40.000  
R03  19218265.968 2 -10057292.71901       222.476          41.200  
R04  21441890.780 4 -14402782.45209      3733.838          33.200  
E01  28372923.918 3      2306.74305      -213.319          37.300    28370805.898 3         0.00000      -157.161          23.800  
E03  24983391.251 4     12534.45709     -1287.436          30.100    24981270.212 2   1029314.93405      -959.945          31.800  
E07  27135580.317 4   -459652.38508      3072.802          33.200    27133462.593 3   -377433.41109      2296.237          28.500  
E08  22111547.981 3   -401830.79504      1527.886          38.500    22109422.161 1  -5308671.77803      1142.682          35.200  
E13  23800628.755 2   -383588.88603      1156.767          43.600    23798502.027 2  -6887793.87904       865.529          34.200  
E15  23985875.921 5         0.00000     -1031.000          28.200    23983747.693 1         0.00000      -767.783          35.300  
E21  27630460.028 4    314358.04806     -1992.137          36.000    27628336.284 2    596241.44005     -1485.961          31.000  
E26  26715201.744 4   -374420.16107      2315.089          35.600    26713083.410 2  -2206457.57709      1730.440          30.800  
> 2020 06 25 00 34 44.4479704  0 25
G10  21703083.161 2  -7667441.81101      1971.029          42.000    21700733.385 1 -14106189.31403      1471.891          34.900  
G13  24103208.986 4   2477646.09503     -2281.903          34.500           0.000 0         0.00000         0.000           0.000  
G15  21953374.479 4    -61208.28603     -1499.001          34.500           0.000 0         0.00000         0.000           0.000  
G16  23218596.688 3    465617.80801      -731.911          40.100           0.000 0         0.00000         0.000           0.000  
G18  20693335.700 3    917468.45601      -747.950          39.900           0.000 0         0.00000         0.000           0.000  
G20  20160081.057 3  -1444102.05402       242.817          38.900           0.000 0         0.00000         0.000           0.000  
G21  21506153.092 2  -1570879.74501      1040.063          45.300           0.000 0         0.00000         0.000           0.000  
G26  23587275.151 4    374385.87703     -2265.709          33.600    23584930.487 1   3831261.36403     -1691.876          36.700  
G27  23231795.352 4   -255456.04709      3055.767          33.000    23229439.590 2  -7117001.23809      2288.437          30.100  
G29  23149044.831 5         0.00000     -3474.100          28.400           0.000 0         0.00000         0.000           0.000  
R02  21332492.922 4   7531849.08909     -3465.950          31.100  
R18  19541167.624 4 -12680001.41109       917.325          32.700  
R09  24276528.004 3   1508423.73202     -1377.718          36.000  
R19  21953061.509 4         0.00000      3303.750          28.200  
R17  20863178.914 3   5096046.10401     -2308.032          39.900  
R03  19218232.987 2 -10057507.24101       211.624          41.800  
R04  21441191.969 4 -14406508.02909      3723.755          32.500  
E01  28372965.589 3      2525.13704      -219.193          38.200    28370845.754 3         0.00000      -162.050          26.100  
E03  24983642.482 4     13830.27009     -1299.690          32.000    24981516.347 2   1030282.68309      -972.381          30.700  
E07  27134999.922 4   -462718.79208      3064.683          33.500    27132879.791 2   -379723.01609      2284.782          29.900  
E08  22111257.784 3   -403351.62404      1517.670          38.000    22109131.964 2  -5309807.19305      1130.828          33.000  
E13  23800411.116 2   -384739.66703      1149.025          43.400    23798283.480 2  -6888653.05405       856.257          32.100  
E15  23986070.474 5         0.00000     -1043.050          28.500    23983945.246 1         0.00000      -780.452          35.100  
E21  27630838.960 3    316354.46504     -1996.942          37.900    27628716.734 2    597732.49209     -1492.902          29.100  
E26  26714764.337 3   -376730.63805      2310.031          37.000    26712642.705 2  -2208182.72109      1722.643          30.300  
> 2020 06 25 00 34 45.4479704  0 25
G10  21702708.121 3  -7669421.27901      1982.637          41.000    21700357.437 1 -14107667.53803      1480.530          35.800  
G13  24103638.593 4   2479922.49703     -2276.239          33.700           0.000 0         0.00000         0.000           0.000  
G15  21953653.892 3    -59714.62602     -1493.778          35.600           0.000 0         0.00000         0.000           0.000  
G16  23218739.989 3    466340.40001      -718.820          40.300           0.000 0         0.00000         0.000           0.000  
G18  20693475.092 3    918210.12202      -740.730          37.900           0.000 0         0.00000         0.000           0.000  
G20  20160036.385 3  -1444352.20202       252.134          38.600           0.000 0         0.00000         0.000           0.000  
G21  21505952.536 2  -1571927.98701      1050.866          45.300           0.000 0         0.00000         0.000           0.000  
G26  23587704.164 4    376642.13309     -2252.933          31.700    23585360.687 1   3832946.52703     -1682.203          36.800  
G27  23231200.561 3         0.00000      3076.250          36.600    23228853.786 2  -7119296.07305      2297.418          31.100  
G29  23149698.988 5         0.00000     -3472.213          28.200           0.000 0         0.00000         0.000           0.000  
R02  21333145.264 4   7535308.71807     -3459.120          29.800  
R18  19540991.656 5         0.00000       925.300          27.900  
R09  24276779.532 3   1509792.29802     -1364.944          36.000  
R19  21952424.454 4  -4640847.40409      3315.442          29.200  
R17  20863613.616 3   5098348.99901     -2302.905          39.100  
R03  19218186.220 2 -10057725.32701       219.200          41.100  
R04  21440498.549 5         0.00000      3734.250          28.100  
E01  28373008.464 3      2735.10704      -206.286          38.400    28370884.738 3         0.00000      -153.806          27.000  
E03  24983884.708 4     15124.38709     -1293.839          32.100    24981762.168 2   1031248.96905      -965.888          33.000  
E07  27134415.933 4   -465790.33509      3073.967          32.500    27132294.598 2   -382016.82709      2296.607          29.400  
E08  22110969.384 3   -404874.97404      1524.528          38.400    22108842.953 1  -5310944.98503      1138.916          36.100  
E13  23800187.159 2   -385896.32203      1159.144          43.300    23798062.526 2  -6889516.94309       865.926          29.100  
E15  23986272.844 5         0.00000     -1034.450          26.600    23984142.207 1         0.00000      -773.232          35.500  
E21  27631216.391 3    318341.88305     -1983.312          37.600    27629094.165 2    599216.40009     -1480.189          30.100  
E26  26714322.149 3   -379050.17605      2323.423          37.500    26712201.720 2  -2209915.02109      1735.996          30.600  
> 2020 06 25 00 34 46.4479704  0 25
G10  21702327.986 3  -7671396.81001      1969.986          40.100    21699980.007 1 -14109142.76303      1471.333          34.700  
G13  24104069.387 4   2482208.55204     -2292.761          33.000           0.000 0         0.00000         0.000           0.000  
G15  21953944.385 3    -58210.61202     -1511.093          37.000           0.000 0         0.00000         0.000           0.000  
G16  23218877.898 3    467065.57701      -730.408          40.400           0.000 0         0.00000         0.000           0.000  
G18  20693620.802 3    918960.13602      -756.593          38.600           0.000 0         0.00000         0.000           0.000  
G20  20159986.617 3  -1444596.19802       238.094          38.800           0.000 0         0.00000         0.000           0.000  
G21  21505753.761 2  -1572971.25001      1037.506          44.600           0.000 0         0.00000         0.000           0.000  
G26  23588132.271 4         0.00000     -2262.750          28.600    23585790.294 1   3834633.68803     -1690.858          37.100  
G27  23230611.180 3   -261585.36009      3064.431          36.300    23228270.390 2  -7121588.29205      2288.534          30.800  
G29  23150383.420 5         0.00000     -3485.550          27.100           0.000 0         0.00000         0.000           0.000  
R02  21333824.601 4         0.00000     -3475.223          28.900  
R18  19540815.077 4         0.00000       914.522          28.900  
R09  24277048.440 3   1511163.59202     -1376.726          35.000  
R19  21951793.384 4  -4644155.99209      3303.074          29.900  
R17  20864046.818 3   5100662.40602     -2320.630          38.500  
R03  19218143.956 3 -10057935.32801       203.473          40.700  
R04  21439805.130 4 -14413973.87903      3719.889          34.000  
E01  28373046.541 3      2947.64704      -217.377          38.500    28370924.001 3         0.00000      -163.442          27.800  
E03  24984137.440 4     16427.82209     -1309.167          30.300    24982009.508 2   1032222.62005      -981.100          32.700  
E07  27133829.833 4   -468856.76409      3061.192          31.700    27131711.202 2   -384306.60505      2282.516          32.600  
E08  22110678.280 3   -406390.58805      1509.378          37.600    22108553.053 2  -5312076.53304      1123.783          34.000  
E13  23799969.817 3   -387048.06403      1146.231          42.600    23797842.793 3  -6890376.78609       853.453          28.800  
E15  23986468.007 6         0.00000     -1055.050          24.400    23984339.778 2         0.00000      -788.982          34.100  
E21  27631594.729 4    320330.86506     -1993.584          36.600    27629473.707 3         0.00000     -1490.450          27.900  
E26  26713882.351 4   -381368.10306      2313.304          36.500    26711758.921 2  -2211645.78609      1725.156          30.100  
> 2020 06 25 00 34 47.4479704  0 25
G10  21701954.743 3  -7673365.97502      1966.570          38.900    21699606.467 1 -14110613.24103      1468.590          35.300  
G13  24104504.089 4   2484502.12604     -2295.724          33.200           0.000 0         0.00000         0.000           0.000  
G15  21954234.286 3    -56698.64502     -1514.450          37.400           0.000 0         0.00000         0.000           0.000  
G16  23219016.697 3    467796.70901      -733.989          41.100           0.000 0         0.00000         0.000           0.000  
G18  20693764.400 3    919717.46001      -759.625          39.500           0.000 0         0.00000         0.000           0.000  
G20  20159938.350 3  -1444833.34602       234.304          38.100           0.000 0         0.00000         0.000           0.000  
G21  21505557.708 2  -1574008.09701      1034.431          44.800           0.000 0         0.00000         0.000           0.000  
G26  23588563.675 4    381153.28609     -2267.453          30.400    23586222.292 1   3836325.09603     -1693.385          37.200  
G27  23230035.567 3   -264649.08709      3061.115          37.500    23227687.291 2  -7123876.11404      2285.992          34.200  
G29  23151037.856 4   3362704.53109     -3491.533          34.800           0.000 0         0.00000         0.000           0.000  
R02  21334452.355 5         0.00000     -3477.791          27.800  
R18  19540656.786 4 -12682754.97309       906.427          34.300  
R09  24277300.264 3   1512540.90302     -1379.922          37.100  
R19  21951208.191 4  -4647458.52409      3300.099          29.500  
R17  20864486.615 3   5102983.86602     -2323.729          38.300  
R03  19218106.473 3 -10058137.61401       199.402          40.300  
R04  21439114.398 4 -14417693.06909      3716.590          35.500  
E01  28373089.712 3      3165.99905      -220.195          37.300    28370965.672 3         0.00000      -165.161          26.400  
E03  24984377.572 5         0.00000     -1311.750          28.800    24982258.924 2         0.00000      -983.191          31.600  
E07  27133245.233 4   -471916.70109      3057.701          30.000    27131129.307 2   -386591.71704      2280.791          34.400  
E08  22110391.992 3   -407898.60105      1506.214          37.500    22108266.154 2  -5313202.65805      1122.271          32.000  
E13  23799751.271 2   -388193.09303      1143.268          43.600    23797623.932 2  -6891231.86809       851.294          30.300  
E15  23986668.266 5         0.00000     -1056.150          28.100    23984541.241 2         0.00000      -791.089          34.300  
E21  27631977.569 3    322325.49305     -1996.573          37.200    27629854.436 3         0.00000     -1488.850          25.500  
E26  26713441.663 3   -383680.64605      2310.736          37.100    26711320.031 2  -2213372.67509      1722.543          29.800  
> 2020 06 25 00 34 48.4479704  0 25
G10  21701579.703 3  -7675332.88801      1967.427          40.200    21699232.020 1 -14112081.98403      1468.995          36.100  
G13  24104937.291 4   2486797.83804     -2296.679          32.800           0.000 0         0.00000         0.000           0.000  
G15  21954519.684 3    -55184.42602     -1515.241          37.800           0.000 0         0.00000         0.000           0.000  
G16  23219154.013 3    468530.37401      -733.112          40.800           0.000 0         0.00000         0.000           0.000  
G18  20693909.201 3    920476.84101      -759.868          39.900           0.000 0         0.00000         0.000           0.000  
G20  20159897.289 3  -1445068.21902       234.887          38.200           0.000 0         0.00000         0.000           0.000  
G21  21505360.433 2  -1575042.89701      1035.088          45.600           0.000 0         0.00000         0.000           0.000  
G26  23588989.670 4    383420.98609     -2266.960          31.200    23586653.085 1   3838018.13503     -1692.470          36.300  
G27  23229444.982 3   -267710.07102      3061.808          36.800    23227104.803 2  -7126162.30204      2286.559          33.700  
G29  23151701.592 4   3366195.87803     -3491.961          33.800           0.000 0         0.00000         0.000           0.000  
R02  21335096.617 4         0.00000     -3479.662          28.400  
R18  19540476.298 4 -12683661.72103       906.284          33.000  
R09  24277550.290 3   1513920.72802     -1379.421          38.400  
R19  21950579.826 4  -4650759.03709      3300.784          29.000  
R17  20864917.112 3   5105307.42802     -2324.478          38.300  
R03  19218069.600 3 -10058337.21101       199.003          40.800  
R04  21438425.778 4 -14421409.98704      3717.119          32.900  
E01  28373128.975 3      3386.81505      -220.596          37.500    28371008.844 2    -30750.55209      -164.017          29.300  
E03  24984628.785 4     19052.83509     -1314.449          30.200    24982509.265 2   1034182.62005      -982.174          32.500  
E07  27132665.136 5         0.00000      3055.750          25.400    27130547.395 2   -388875.53605      2282.501          32.800  
E08  22110106.279 3   -409404.43204      1505.765          37.700    22107980.162 2  -5314327.23104      1122.944          34.000  
E13  23799533.911 2   -389336.08203      1143.366          43.000    23797406.293 2  -6892085.38209       852.654          30.700  
E21  27632354.406 3    324322.15604     -1995.946          38.900    27630230.680 3         0.00000     -1490.533          26.500  
E26  26712997.974 4   -385991.14506      2311.162          36.100    26710881.140 2  -2215098.12005      1724.661          32.100  
E15         0.000 0         0.00000         0.000           0.000    23984740.907 2         0.00000      -790.372          32.500  
> 2020 06 25 00 34 49.4479704  0 26
G10  21701204.663 3  -7677301.09401      1969.680          39.900    21698857.277 2 -14113551.80404      1470.917          34.600  
G13  24105383.685 4   2489097.32209     -2300.439          31.400           0.000 0         0.00000         0.000           0.000  
G15  21954800.598 3    -53667.54102     -1517.323          35.800           0.000 0         0.00000         0.000           0.000  
G16  23219294.016 3    469262.26701      -730.203          41.400           0.000 0         0.00000         0.000           0.000  
G18  20694053.096 3    921237.49001      -760.354          39.500           0.000 0         0.00000         0.000           0.000  
G20  20159851.413 3  -1445303.27902       236.065          38.200           0.000 0         0.00000         0.000           0.000  
G21  21505162.268 2  -1576078.33501      1036.609          44.900           0.000 0         0.00000         0.000           0.000  
G26  23589429.171 4    385686.06009     -2263.206          29.800    23587084.490 1   3839709.53303     -1689.938          35.300  
G27  23228869.683 3   -270772.89702      3064.210          38.100    23226522.908 2  -7128449.54705      2288.349          33.100  
G29  23152363.234 4   3369688.55309     -3492.623          32.100           0.000 0         0.00000         0.000           0.000  
R02  21335742.362 5         0.00000     -3480.177          26.000  
R18  19540314.709 4 -12684567.61803       906.553          34.000  
R09  24277809.025 3   1515299.20502     -1376.640          36.400  
R19  21949963.450 4  -4654060.74704      3303.204          30.600  
R17  20865356.003 3   5107633.35302     -2326.190          38.300  
R03  19218041.122 2 -10058535.83701       199.092          41.300  
R04  21437711.976 4 -14425127.54703      3718.669          33.900  
E01  28373173.055 3      3606.05104      -218.222          38.400    28371049.328 2    -30586.92805      -161.214          31.300  
E03  24984882.721 4     20368.38809     -1316.386          30.900    24982758.384 2   1035165.00405      -981.381          32.600  
E07  27132080.832 5         0.00000      3061.650          27.600    27129963.999 2         0.00000      2286.796          29.900  
E08  22109820.288 3   -410909.39105      1505.010          36.700    22107694.450 2  -5315451.13805      1125.004          33.500  
E13  23799317.161 3   -390479.56703      1144.077          42.600    23797189.840 2  -6892939.38905       855.674          32.200  
E15  23987075.990 6         0.00000     -1055.000          20.400    23984943.556 2         0.00000      -788.708          34.100  
E21  27632735.449 3    326316.42704     -1992.767          39.100    27630610.519 3         0.00000     -1485.700          28.000  
E26  26712560.270 3   -388304.05305      2314.228          37.100    26710441.028 2  -2216825.31704      1729.589          34.000  
E27         0.000 0         0.00000         0.000           0.000    28424198.922 3         0.00000     -1901.550          22.300  
> 2020 06 25 00 34 50.4479704  0 27
G10  21700830.809 3  -7679267.38902      1963.561          39.200    21698481.940 2 -14115020.16604      1466.562          34.200  
G13  24105818.387 4   2491400.20709     -2305.987          33.900           0.000 0         0.00000         0.000           0.000  
G15  21955095.297 3    -52145.82902     -1525.597          36.200           0.000 0         0.00000         0.000           0.000  
G16  23219430.407 3    469995.78201      -735.939          40.500           0.000 0         0.00000         0.000           0.000  
G18  20694195.193 3    922001.90702      -767.792          39.300           0.000 0         0.00000         0.000           0.000  
G20  20159806.147 3  -1445535.40802       229.489          38.400           0.000 0         0.00000         0.000           0.000  
G21  21504965.918 2  -1577111.48201      1030.285          45.000           0.000 0         0.00000         0.000           0.000  
G26  23589871.970 5         0.00000     -2266.069          26.600    23587514.987 2   3841401.95604     -1694.142          34.600  
G27  23228284.787 3   -273833.88702      3058.505          37.300    23225940.699 2  -7130735.35005      2284.150          33.600  
G29  23153029.082 4   3373185.27109     -3500.365          30.900           0.000 0         0.00000         0.000           0.000  
R02  21336441.191 5         0.00000     -3485.953          26.300  
R18  19540136.944 3 -12685469.85902       899.246          35.300  
R09  24278064.740 4   1516679.51009     -1382.477          34.700  
R19  21949354.873 4  -4657360.59407      3297.240          29.300  
R17  20865790.408 3   5109964.06202     -2334.693          38.500  
R03  19218001.859 2 -10058730.47401       191.404          41.600  
R04  21437022.745 4 -14428842.39209      3711.527          35.400  
E01  28373217.116 3      3827.13604      -223.493          38.000    28371092.483 2    -30421.93905      -167.364          31.500  
E03  24985134.545 4     21688.47209     -1323.339          31.600    24983010.819 2   1036150.70505      -987.926          31.900  
E07  27131499.252 5         0.00000      3052.350          28.000    27129383.011 2         0.00000      2280.534          29.700  
E08  22109533.075 4   -412410.77106      1498.674          36.400    22107408.458 2  -5316572.30705      1118.375          33.600  
E13  23799099.819 3   -391620.68303      1139.169          42.600    23796972.184 2  -6893791.58309       850.470          31.900  
E21  27633113.177 3    328311.75504     -1997.619          39.200    27630989.154 3         0.00000     -1488.900          27.800  
E26  26712118.378 4   -390615.83406      2309.575          36.300    26710000.637 2  -2218551.63105      1724.700          32.900  
G32         0.000 0         0.00000         0.000           0.000    25321916.296 3         0.00000      2667.043          26.600  
E15         0.000 0         0.00000         0.000           0.000    23985146.223 2         0.00000      -795.255          33.000  
E27         0.000 0         0.00000         0.000           0.000    28424684.283 3         0.00000     -1906.200          27.200  
> 2020 06 25 00 34 51.4479704  0 27
G10  21700457.584 3  -7681234.70401      1965.988          39.800    21698108.994 2 -14116489.21204      1467.994          34.300  
G13  24106256.981 4   2493704.33609     -2307.104          32.800           0.000 0         0.00000         0.000           0.000  
G15  21955390.590 3    -50622.31802     -1526.728          38.800           0.000 0         0.00000         0.000           0.000  
G16  23219575.505 3    470727.79101      -733.006          40.700           0.000 0         0.00000         0.000           0.000  
G18  20694342.089 3    922767.05201      -767.557          40.200           0.000 0         0.00000         0.000           0.000  
G20  20159765.680 3  -1445767.70902       230.335          39.000           0.000 0         0.00000         0.000           0.000  
G21  21504772.553 2  -1578145.41501      1032.500          46.000           0.000 0         0.00000         0.000           0.000  
G26  23590293.463 4         0.00000     -2266.277          28.700    23587945.501 1   3843093.20003     -1691.970          35.300  
G27  23227706.783 3   -276896.27402      3061.426          36.400    23225356.710 2  -7133022.11109      2285.791          31.600  
G29  23153682.628 4   3376683.28209     -3500.961          30.700           0.000 0         0.00000         0.000           0.000  
G32  25323575.637 4    -44472.18709      3576.691          29.500    25321233.661 2   -386310.52509      2670.872          32.400  
R02  21337067.444 5         0.00000     -3487.637          26.700  
R18  19539965.461 3 -12686371.56602       899.298          35.500  
R09  24278332.461 4   1518058.31409     -1379.968          33.400  
R19  21948719.022 4  -4660661.85809      3300.148          29.300  
R17  20866221.813 3   5112296.58402     -2335.772          38.500  
R03  19217962.578 2 -10058924.18901       191.049          42.000  
R04  21436335.625 4 -14432557.21509      3714.009          32.700  
E01  28373256.397 3      4046.38504      -220.067          38.100    28371135.655 3         0.00000      -164.178          27.500  
E03  24985381.274 4     23009.89209     -1324.101          30.800    24983262.939 2   1037137.40605      -988.777          32.900  
E07  27130915.856 5         0.00000      3055.250          29.200    27128800.506 2         0.00000      2282.491          31.300  
E08  22109247.676 3   -413911.37904      1497.659          37.700    22107122.152 2  -5317692.85105      1118.878          33.500  
E13  23798882.162 2   -392762.52803      1139.870          43.500    23796755.138 2  -6894644.20005       851.805          31.700  
E21  27633494.220 3    330304.87504     -1993.737          38.800    27631368.696 3         0.00000     -1488.073          26.900  
E26  26711683.676 3   -392930.01804      2313.912          38.500    26709559.653 2  -2220279.67705      1728.005          31.200  
E27  28427274.192 5         0.00000     -2548.800          26.200    28425169.660 2         0.00000     -1903.528          29.300  
E15         0.000 0         0.00000         0.000           0.000    23985347.686 2         0.00000      -795.694          32.900  
> 2020 06 25 00 34 52.4479704  0 27
G10  21700084.638 3  -7683196.36701      1961.483          39.900    21697735.455 2 -14117954.01805      1464.500          33.500  
G13  24106695.278 4   2496016.92009     -2314.337          34.200           0.000 0         0.00000         0.000           0.000  
G15  21955677.489 3    -49089.31902     -1535.106          38.300           0.000 0         0.00000         0.000           0.000  
G16  23219713.414 3    471464.10501      -735.904          41.300           0.000 0         0.00000         0.000           0.000  
G18  20694491.096 3    923540.50901      -774.967          40.700           0.000 0         0.00000         0.000           0.000  
G20  20159721.007 3  -1445993.04102       224.592          38.800           0.000 0         0.00000         0.000           0.000  
G21  21504574.981 2  -1579173.40801      1027.584          46.100           0.000 0         0.00000         0.000           0.000  
G26  23590723.366 4    392484.46109     -2268.621          30.900    23588378.092 1   3844787.79203     -1694.303          36.900  
G27  23227119.182 3   -279954.08502      3058.290          36.500    23224774.518 2  -7135305.60304      2283.527          34.200  
G29  23154351.163 4         0.00000     -3509.238          28.700           0.000 0         0.00000         0.000           0.000  
G32  25322898.115 4         0.00000      3572.250          28.900    25320554.638 1   -388978.07903      2667.438          35.600  
R02  21337741.982 5         0.00000     -3495.250          24.900  
R18  19539809.560 3 -12687265.45602       892.624          35.500  
R09  24278586.973 4   1519440.82109     -1382.523          33.400  
R19  21948094.549 4  -4663958.38707      3296.785          29.000  
R17  20866665.799 3   5114639.04901     -2344.575          39.100  
R03  19217930.801 2 -10059109.40701       183.681          41.200  
R04  21435651.210 5         0.00000      3709.700          28.400  
E01  28373299.865 3      4269.65004      -222.721          38.000    28371176.139 3    -30091.28709      -165.849          28.300  
E03  24985638.490 4     24340.05009     -1332.036          32.000    24983514.170 2   1038130.96505      -994.680          31.900  
E07  27130351.045 5         0.00000      3051.050          27.000    27128223.409 2         0.00000      2276.818          31.100  
E08  22108965.279 4   -415403.56906      1490.071          36.100    22106838.237 2  -5318807.07205      1113.029          33.600  
E13  23798666.321 2   -393898.29103      1134.468          43.600    23796538.389 2  -6895492.20305       848.011          32.400  
E15  23987678.564 6         0.00000     -1064.800          20.900    23985551.242 2         0.00000      -802.366          33.700  
E21  27633877.060 3    332301.80704     -1996.076          38.700    27631750.926 3         0.00000     -1490.558          25.800  
E26  26711240.876 3   -395240.73404      2311.735          38.800    26709120.151 2  -2222005.15709      1726.292          29.900  
E27  28427775.449 5         0.00000     -2549.900          27.700    28425653.520 3         0.00000     -1908.801          28.600  
> 2020 06 25 00 34 53.4479704  0 27
G10  21699709.301 3  -7685157.38102      1962.887          38.900    21697363.416 1 -14119418.39603      1465.520          35.600  
G13  24107140.765 4   2498333.66409     -2316.727          33.000           0.000 0         0.00000         0.000           0.000  
G15  21955968.890 3    -47551.67402     -1537.672          38.200           0.000 0         0.00000         0.000           0.000  
G16  23219852.527 2    472199.82901      -733.538          42.000           0.000 0         0.00000         0.000           0.000  
G18  20694637.696 3    924317.34601      -776.272          40.200           0.000 0         0.00000         0.000           0.000  
G20  20159679.633 3  -1446216.50102       224.630          38.600           0.000 0         0.00000         0.000           0.000  
G21  21504379.818 2  -1580200.42201      1028.603          45.700           0.000 0         0.00000         0.000           0.000  
G26  23591157.179 4    394753.13209     -2266.716          29.800    23588810.403 1   3846481.96703     -1692.510          37.900  
G27  23226540.882 3   -283012.26402      3060.045          36.600    23224193.810 2  -7137589.27904      2285.017          33.800  
G29  23155034.985 4   3383701.39109     -3512.680          31.400           0.000 0         0.00000         0.000           0.000  
G32  25322215.184 4    -51615.60909      3572.119          29.600    25319875.301 2   -391644.72505      2667.876          32.000  
R02  21338371.255 5         0.00000     -3495.788          26.000  
R18  19539639.892 4 -12688156.55303       891.934          34.500  
R09  24278847.208 4   1520823.70609     -1380.217          34.600  
R19  21947467.685 4  -4667255.08109      3298.815          29.100  
R17  20867099.297 3   5116986.59401     -2347.565          39.100  
R03  19217893.022 3 -10059291.24401       182.480          40.600  
R04  21434941.597 4         0.00000      3714.670          29.400  
E01  28373340.332 3      4492.33004      -220.494          39.700    28371218.107 2    -29925.00709      -164.385          29.900  
E03  24985894.520 4     25674.61009     -1333.780          32.300    24983768.385 2   1039127.61305      -998.005          31.200  
E07  27129759.255 5         0.00000      3049.800          26.700    27127641.218 2         0.00000      2276.887          31.800  
E08  22108685.273 4   -416892.13407      1489.432          35.000    22106554.933 2  -5319918.65004      1110.714          34.500  
E13  23798448.961 2   -395032.87402      1136.062          43.800    23796321.343 2  -6896339.40605       847.037          32.000  
E21  27634254.194 3    334297.52104     -1993.377          38.800    27632130.468 3         0.00000     -1488.895          25.200  
E26  26710803.487 3   -397552.66204      2314.601          38.500    26708679.760 2  -2223731.56405      1727.343          32.600  
E27  28428256.325 5         0.00000     -2552.350          25.200    28426139.788 3         0.00000     -1906.460          27.100  
E15         0.000 0         0.00000         0.000           0.000    23985756.893 2         0.00000      -804.579          33.600  
> 2020 06 25 00 34 54.4479704  0 27
G10  21699336.355 3  -7687123.89001      1969.021          40.300    21696988.376 2 -14120886.93404      1470.235          33.800  
G13  24107578.469 4   2500648.59304     -2312.992          31.600           0.000 0         0.00000         0.000           0.000  
G15  21956264.182 3    -46015.64702     -1534.697          38.600           0.000 0         0.00000         0.000           0.000  
G16  23219990.419 2    472929.53501      -727.258          42.100           0.000 0         0.00000         0.000           0.000  
G18  20694784.888 3    925091.30601      -772.132          40.000           0.000 0         0.00000         0.000           0.000  
G20  20159633.459 3  -1446444.28802       230.208          37.200           0.000 0         0.00000         0.000           0.000  
G21  21504185.248 2  -1581232.23101      1034.122          45.400           0.000 0         0.00000         0.000           0.000  
G26  23591589.473 5         0.00000     -2259.874          27.200    23589240.604 1   3848171.40603     -1687.538          37.800  
G27  23225958.393 4   -286076.10003      3065.956          35.000    23223609.524 2  -7139877.34705      2289.603          33.000  
G29  23155690.345 5         0.00000     -3505.497          26.000           0.000 0         0.00000         0.000           0.000  
G32  25321536.457 4    -55190.71109      3578.353          31.400    25319194.778 2   -394315.24809      2672.644          31.400  
R02  21339024.190 5         0.00000     -3492.300          24.600  
R18  19539476.802 4 -12689051.05403       896.578          34.500  
R09  24279106.518 4   1522200.36804     -1373.346          30.300  
R19  21946864.204 4  -4670557.35007      3304.606          29.200  
R17  20867542.690 3   5119332.22401     -2344.105          39.700  
R03  19217862.745 3 -10059476.20501       187.117          40.600  
R04  21434257.462 4 -14443686.42609      3714.651          30.400  
E01  28373383.208 3      4709.13204      -214.859          39.700    28371261.279 3    -29763.39209      -159.502          28.600  
E03  24986149.031 4     27007.25709     -1330.992          32.000    24984021.413 2   1040122.45205      -991.836          31.700  
E07  27129166.855 5         0.00000      3057.500          25.500    27127060.509 2         0.00000      2284.703          31.700  
E08  22108399.264 4   -418383.70308      1493.657          34.600    22106271.036 2  -5321032.63505      1117.414          33.600  
E13  23798234.916 2   -396171.95203      1141.357          43.200    23796103.983 2  -6897190.30809       854.083          30.700  
E21  27634631.032 3    336286.60604     -1986.660          39.300    27632508.195 3         0.00000     -1481.829          25.200  
E26  26710361.298 3   -399871.24505      2320.945          36.900    26708238.462 2  -2225463.10705      1735.194          33.700  
E27  28428740.481 5         0.00000     -2542.900          28.700    28426623.944 3         0.00000     -1899.303          23.800  
E15         0.000 0         0.00000         0.000           0.000    23985961.061 2         0.00000      -798.500          34.900  
> 2020 06 25 00 34 55.4479704  0 27
G10  21698962.816 3  -7689090.55301      1963.311          40.200    21696614.243 1 -14122355.47203      1466.066          34.900  
G13  24108018.249 4   2502964.79903     -2319.607          34.400           0.000 0         0.00000         0.000           0.000  
G15  21956553.490 3    -44478.23302     -1540.670          38.600           0.000 0         0.00000         0.000           0.000  
G16  23220130.736 2    473659.41101      -733.452          42.400           0.000 0         0.00000         0.000           0.000  
G18  20694932.395 3    925865.66601      -777.350          39.500           0.000 0         0.00000         0.000           0.000  
G20  20159591.492 3  -1446671.81802       224.399          38.000           0.000 0         0.00000         0.000           0.000  
G21  21503986.193 2  -1582264.21901      1028.899          46.000           0.000 0         0.00000         0.000           0.000  
G26  23592004.980 4         0.00000     -2265.507          29.400    23589670.804 1   3849860.78303     -1691.849          36.500  
G27  23225371.996 4   -289139.69503      3060.095          35.300    23223025.221 2  -7142164.90409      2285.240          31.200  
G29  23156349.876 5         0.00000     -3513.233          26.600           0.000 0         0.00000         0.000           0.000  
G32  25320863.717 4    -58766.36809      3572.704          30.500    25318513.347 1   -396985.45303      2667.690          35.500  
R02  21339699.932 5         0.00000     -3498.215          27.300  
R18  19539297.222 4 -12689944.85003       890.558          33.000  
R09  24279362.844 4         0.00000     -1380.252          28.700  
R19  21946265.208 4  -4673859.65507      3298.798          29.000  
R17  20867975.891 3   5121678.90002     -2349.922          38.900  
R03  19217827.967 3 -10059660.41801       180.760          40.700  
R04  21433553.258 4 -14447397.73004      3707.719          31.400  
E01  28373423.081 3      4926.27304      -220.621          38.300    28371302.339 3         0.00000      -165.062          26.000  
E03  24986400.262 4     28340.64109     -1336.423          30.600    24984276.535 2   1041118.36105      -999.377          31.800  
E07  27128595.448 5         0.00000      3055.850          24.900    27126479.225 2         0.00000      2277.920          30.200  
E08  22108113.255 3   -419875.08305      1488.150          36.700    22105986.841 2  -5322146.20205      1109.654          32.600  
E13  23798016.963 2   -397311.30602      1136.275          44.100    23795889.642 2  -6898040.90105       847.016          31.000  
E21  27635012.075 3    338275.40304     -1992.280          39.400    27632887.737 3         0.00000     -1479.693          25.900  
E26  26709918.499 3   -402190.02704      2315.520          37.900    26707797.774 2  -2227194.57705      1727.618          31.100  
E27  28429235.439 5         0.00000     -2551.900          26.800    28427111.713 2         0.00000     -1906.445          29.100  
E15         0.000 0         0.00000         0.000           0.000    23986166.415 1         0.00000      -806.181          35.700  
> 2020 06 25 00 34 56.4479704  0 27
G10  21698589.573 3  -7691052.72801      1959.894          40.200    21696241.001 1 -14123820.79203      1463.326          36.100  
G13  24108453.859 4   2505285.21204     -2322.699          33.300           0.000 0         0.00000         0.000           0.000  
G15  21956850.876 3    -42936.74802     -1543.609          38.300           0.000 0         0.00000         0.000           0.000  
G16  23220272.833 3    474394.40101      -737.720          41.300           0.000 0         0.00000         0.000           0.000  
G18  20695078.977 3    926643.75401      -780.142          39.900           0.000 0         0.00000         0.000           0.000  
G20  20159551.321 3  -1446895.40702       221.216          37.900           0.000 0         0.00000         0.000           0.000  
G21  21503789.529 2  -1583292.25101      1025.930          46.300           0.000 0         0.00000         0.000           0.000  
G26  23592432.196 4    401544.99509     -2269.701          30.300    23590101.301 1   3851553.74503     -1694.737          35.400  
G27  23224795.494 4   -292198.73703      3056.548          35.200    23222444.530 2  -7144449.28105      2282.032          32.800  
G29  23157032.808 5         0.00000     -3514.136          28.200           0.000 0         0.00000         0.000           0.000  
G32  25320185.898 5         0.00000      3571.273          27.600    25317834.324 1   -399652.37803      2665.029          35.300  
R02  21340335.783 4   7573657.19507     -3501.351          29.500  
R18  19539134.743 4 -12690834.77703       887.743          32.300  
R09  24279624.563 4   1524958.34609     -1385.355          30.600  
R19  21945629.357 4  -4677157.47709      3295.520          29.000  
R17  20868421.989 3   5124029.54402     -2352.648          38.500  
R03  19217790.798 3 -10059840.33401       177.379          40.800  
R04  21432870.623 4 -14451104.40903      3704.167          33.800  
E01  28373465.346 3      5148.50405      -224.392          37.600    28371343.417 3         0.00000      -168.410          27.300  
E03  24986657.792 4     29677.90209     -1338.777          31.700    24984530.453 2   1042116.97105     -1001.201          31.800  
E07  27128019.556 5         0.00000      3048.200          27.600    27125897.330 2         0.00000      2274.704          32.200  
E08  22107830.858 3   -421362.49805      1485.662          37.000    22105704.130 2  -5323256.98804      1107.916          34.200  
E13  23797801.418 2   -398446.72403      1133.650          43.500    23795674.394 2  -6898888.83309       845.372          30.900  
E21  27635390.413 3    340269.24804     -1995.907          38.500    27633266.983 2    615544.81709     -1492.228          30.700  
E26  26709479.608 3   -404504.18004      2312.426          39.300    26707357.069 2  -2228922.64409      1724.885          30.700  
E15         0.000 0         0.00000         0.000           0.000    23986370.268 2         0.00000      -807.558          34.400  
E27         0.000 0         0.00000         0.000           0.000    28427596.776 2         0.00000     -1908.960          33.000  
> 2020 06 25 00 34 57.4479704  0 27
G10  21698219.332 3  -7693010.45901      1957.569          41.100    21695868.055 1 -14125282.73903      1461.855          37.000  
G13  24108910.444 4   2507610.07304     -2324.612          32.000           0.000 0         0.00000         0.000           0.000  
G15  21957147.373 3    -41390.98202     -1545.666          36.400           0.000 0         0.00000         0.000           0.000  
G16  23220410.742 3    475134.37101      -740.334          40.600           0.000 0         0.00000         0.000           0.000  
G18  20695226.483 3    927425.88101      -781.966          39.900           0.000 0         0.00000         0.000           0.000  
G20  20159512.651 3  -1447114.63702       219.266          37.500           0.000 0         0.00000         0.000           0.000  
G21  21503597.664 2  -1584316.04101      1023.738          44.800           0.000 0         0.00000         0.000           0.000  
G26  23592881.278 4    403816.67209     -2271.688          29.700    23590533.002 1   3853250.15803     -1696.489          34.800  
G27  23224207.299 4   -295253.00403      3054.050          34.900    23221862.932 2  -7146730.03905      2280.688          33.500  
G29  23157697.452 5         0.00000     -3517.268          27.900           0.000 0         0.00000         0.000           0.000  
G32  25319512.860 5         0.00000      3572.550          25.300    25317154.987 2   -402316.61805      2664.402          33.400  
R02  21341008.820 4         0.00000     -3503.511          28.900  
R18  19538968.355 4 -12691720.20903       885.518          32.600  
R09  24279889.876 4   1526345.42709     -1388.465          29.300  
R19  21945048.055 4  -4680450.67504      3292.894          30.000  
R17  20868858.192 3   5126384.27202     -2354.499          37.600  
R03  19217763.820 3 -10060015.61301       175.201          40.300  
R04  21432175.110 4 -14454806.73603      3702.273          34.600  
E01  28373507.628 3      5375.87205      -227.566          37.200    28371385.681 3         0.00000      -180.100          22.100  
E03  24986910.209 4     31019.43509     -1341.392          31.700    24984782.592 2   1043118.77209     -1002.412          29.900  
E07  27127440.348 6         0.00000      3051.450          24.600    27125317.826 2         0.00000      2273.434          31.200  
E08  22107548.758 4   -422845.94606      1483.423          36.500    22105421.733 2  -5324364.74005      1106.737          33.500  
E13  23797585.559 2   -399577.95903      1131.092          42.900    23795458.238 3         0.00000       844.945          27.700  
E15  23988703.851 5         0.00000     -1081.450          26.000    23986574.733 2         0.00000      -808.387          32.400  
E21  27635771.438 3    342267.77504     -1998.994          38.000    27633645.915 3         0.00000     -1492.503          26.000  
E26  26709038.310 3   -406813.71905      2309.161          37.400    26706918.772 2  -2230647.37409      1723.432          30.300  
E27         0.000 0         0.00000         0.000           0.000    28428081.543 2         0.00000     -1909.370          32.900  
> 2020 06 25 00 34 58.4479704  0 27
G10  21697840.994 3  -7694969.51901      1961.410          40.300    21695495.719 1 -14126745.68003      1464.751          37.500  
G13  24109342.738 4   2509932.59104     -2319.663          33.200           0.000 0         0.00000         0.000           0.000  
G15  21957438.774 3    -39847.38402     -1540.532          36.300           0.000 0         0.00000         0.000           0.000  
G16  23220550.746 3    475873.52701      -736.919          40.900           0.000 0         0.00000         0.000           0.000  
G18  20695375.788 3    928205.71601      -776.807          40.100           0.000 0         0.00000         0.000           0.000  
G20  20159467.089 3  -1447335.47602       223.483          37.800           0.000 0         0.00000         0.000           0.000  
G21  21503402.187 2  -1585341.55801      1028.217          46.100           0.000 0         0.00000         0.000           0.000  
G26  23593309.680 4    406087.26009     -2268.315          31.000    23590965.610 1   3854945.65503     -1693.721          35.100  
G27  23223633.798 3   -298308.52202      3058.151          36.200    23221281.334 2  -7149011.74605      2283.608          32.800  
G29  23158373.473 5         0.00000     -3514.600          23.700           0.000 0         0.00000         0.000           0.000  
G32  25318823.036 5         0.00000      3572.225          27.600    25316474.760 3         0.00000      2668.137          28.200  
R02  21341645.875 4   7580663.36409     -3500.331          30.100  
R18  19538805.562 4 -12692607.55803       890.336          33.900  
R09  24280145.906 5         0.00000     -1384.565          27.300  
R19  21944408.592 4  -4683745.51007      3297.262          29.500  
R17  20869303.678 3   5128736.46002     -2349.007          38.800  
R03  19217729.042 2 -10060192.38001       179.558          41.400  
R04  21431475.687 4 -14458510.61909      3706.569          34.600  
E01  28373548.985 4      5602.20609      -223.615          33.600           0.000 0         0.00000         0.000           0.000  
E03  24987164.738 4     32358.18109     -1335.814          32.500    24985039.511 3   1044118.65909      -997.460          28.900  
E07  27126841.666 5         0.00000      3046.050          25.400    27124737.728 2         0.00000      2278.306          31.400  
E08  22107266.640 3   -424331.49905      1488.070          37.400    22105137.818 2  -5325474.04905      1111.422          31.700  
E13  23797371.811 2   -400710.98503      1135.121          43.500    23795243.286 2  -6900579.66209       848.463          30.800  
E15  23988910.409 6         0.00000     -1075.050          23.900    23986780.383 2         0.00000      -803.283          34.700  
E21  27636151.277 3    344265.14704     -1995.191          38.800    27634027.551 3         0.00000     -1488.935          23.700  
E26  26708596.121 3   -409124.75704      2313.500          37.800    26706478.677 2  -2232373.06309      1727.910          30.900  
E27  28430692.427 6         0.00000     -2554.150          20.800    28428566.904 2         0.00000     -1904.837          31.000  
> 2020 06 25 00 34 59.4479704  0 27
G10  21697469.845 2  -7696930.92401      1961.132          41.800    21695122.477 1 -14128210.34403      1464.507          37.800  
G13  24109783.129 4   2512252.13004     -2320.535          33.100           0.000 0         0.00000         0.000           0.000  
G15  21957728.064 4    -38307.04603     -1540.989          34.800           0.000 0         0.00000         0.000           0.000  
G16  23220690.138 2    476611.24601      -738.911          41.900           0.000 0         0.00000         0.000           0.000  
G18  20695522.980 3    928982.36801      -777.146          40.100           0.000 0         0.00000         0.000           0.000  
G20  20159424.807 3  -1447558.85002       222.798          38.600           0.000 0         0.00000         0.000           0.000  
G21  21503204.336 2  -1586369.57801      1027.012          45.900           0.000 0         0.00000         0.000           0.000  
G26  23593748.571 4    408355.56509     -2268.449          31.300    23591397.608 2   3856639.53004     -1694.056          34.600  
G27  23223045.603 3   -301365.86102      3055.652          35.800    23220699.735 2  -7151294.79409      2281.952          29.900  
G29  23159047.122 5         0.00000     -3509.072          27.400           0.000 0         0.00000         0.000           0.000  
G32  25318135.602 5         0.00000      3574.104          27.100    25315795.423 2   -407651.32204      2669.735          34.300  
R02  21342296.437 4         0.00000     -3501.087          28.500  
R18  19538642.769 3 -12693497.59202       889.072          35.000  
R09  24280426.208 5         0.00000     -1386.950          24.900  
R19  21943780.838 4  -4687042.55307      3295.316          29.700  
R17  20869738.381 3   5131084.73902     -2347.785          37.500  
R03  19217691.262 3 -10060371.79701       179.087          40.800  
R04  21430796.071 3 -14462217.47202      3707.401          36.400  
E01  28373599.049 4      5827.23009      -226.240          30.400           0.000 0         0.00000         0.000           0.000  
E03  24987416.562 4     33693.94308     -1336.200          32.700    24985292.225 2   1045116.12109      -998.540          30.600  
E07  27126276.855 4     -1721.08109      3052.651          31.800    27124155.833 2         0.00000      2278.597          30.900  
E08  22106981.242 3   -425820.47405      1489.292          36.900    22104855.718 2  -5326585.98305      1111.559          32.500  
E13  23797152.061 2   -401846.53403      1134.256          43.500    23795025.036 2  -6901427.59309       846.588          29.900  
E15  23989115.170 5         0.00000     -1076.550          28.900    23986985.144 1         0.00000      -803.626          36.400  
E21  27636529.912 3    346260.71404     -1996.142          39.700    27634406.482 3         0.00000     -1490.602          26.400  
E26  26708159.622 3   -411437.67505      2311.089          36.700    26706037.693 2  -2234100.27705      1725.541          32.400  
E27  28431170.005 6         0.00000     -2550.000          22.700    28429051.967 2         0.00000     -1904.251          31.100  
> 2020 06 25 00 35 00.4479704  0 27
G10  21697096.899 2  -7698892.76901      1964.638          42.000    21694748.920 1 -14129675.35003      1467.141          37.100  
G13  24110227.429 4   2514573.77009     -2322.582          31.500           0.000 0         0.00000         0.000           0.000  
G15  21958027.265 3    -36765.49902     -1540.470          38.900           0.000 0         0.00000         0.000           0.000  
G16  23220830.438 2    477350.88901      -738.578          42.000           0.000 0         0.00000         0.000           0.000  
G18  20695676.176 3    929759.95801      -776.123          40.500           0.000 0         0.00000         0.000           0.000  
G20  20159379.245 3  -1447781.36902       224.442          38.600           0.000 0         0.00000         0.000           0.000  
G21  21503008.859 2  -1587395.72301      1027.135          44.300           0.000 0         0.00000         0.000           0.000  
G26  23594169.784 4    410623.04204     -2264.543          32.500    23591827.215 2   3858332.82105     -1690.862          31.000  
G27  23222458.316 4   -304419.85909      3053.951          32.800    23220119.045 2  -7153575.44609      2280.480          32.600  
G29  23159707.263 3   3408287.06609     -3502.608          38.100           0.000 0         0.00000         0.000           0.000  
G32  25317454.782 5         0.00000      3587.000          25.100    25315114.603 1   -410323.06003      2675.397          35.100  
R02  21342954.781 4   7587662.94109     -3500.628          30.500  
R18  19538474.898 3 -12694385.96002       889.535          37.300  
R09  24280664.543 5         0.00000     -1392.100          25.100  
R19  21943201.630 5         0.00000      3294.217          27.300  
R17  20870168.878 4   5133431.58003     -2343.907          34.800  
R03  19217662.487 3 -10060550.95201       181.642          40.900  
R04  21430098.743 3 -14465927.23809      3713.958          36.600  
E01  28373641.331 5         0.00000      -230.700          28.300           0.000 0         0.00000         0.000           0.000  
E03  24987673.482 4     35030.58708     -1335.650          33.800    24985547.051 2   1046114.26905      -997.577          32.700  
E07  27125697.368 4     -4775.72209      3059.354          34.600    27123573.939 2   -416233.33209      2284.580          31.400  
E08  22106699.142 3   -427311.37205      1493.993          37.600    22104572.414 1  -5327699.23903      1115.914          36.400  
E13  23796938.906 2   -402980.18303      1134.057          43.300    23794808.880 2  -6902274.05809       847.360          30.800  
E15  23989316.040 4      2488.05009     -1072.642          32.100    23987189.905 1   2150062.81702      -801.021          39.400  
E21  27636910.362 3    348256.54204     -1994.066          40.200    27634787.229 2    621508.55909     -1488.382          30.700  
E26  26707718.026 3   -413748.12405      2310.818          37.500    26705598.191 2  -2235825.62305      1725.976          31.300  
E27  28431658.070 4         0.00000     -2538.750          31.500    28429537.328 2         0.00000     -1897.663          30.100  
> 2020 06 25 00 35 01.4479704  0 27
G10  21696723.656 3  -7700858.13302      1965.643          39.300    21694372.397 2         0.00000      1467.750          29.500  
G13  24110673.527 4         0.00000     -2328.200          30.800           0.000 0         0.00000         0.000           0.000  
G15  21958319.853 3    -35223.48401     -1543.793          40.500           0.000 0         0.00000         0.000           0.000  
G16  23220970.441 3    478091.04302      -742.047          37.600           0.000 0         0.00000         0.000           0.000  
G18  20695820.977 3    930537.48401      -779.156          39.600           0.000 0         0.00000         0.000           0.000  
G20  20159341.761 3  -1448004.97202       222.292          38.400           0.000 0         0.00000         0.000           0.000  
G21  21502814.603 2  -1588420.77001      1022.747          44.300           0.000 0         0.00000         0.000           0.000  
G26  23594597.890 3    412886.70602     -2262.905          35.500    23592257.711 2   3860023.12405     -1690.051          31.500  
G27  23221881.517 4         0.00000      3045.000          30.900    23219537.743 1  -7155853.44603      2275.298          35.000  
G29  23160366.794 4   3411786.90809     -3496.829          34.000           0.000 0         0.00000         0.000           0.000  
G32  25316794.343 5         0.00000      3586.200          25.400    25314431.374 1   -413001.21303      2680.695          36.200  
R02  21343637.696 4   7591166.68509     -3506.858          29.800  
R18  19538304.915 3 -12695273.51802       885.297          37.300  
R09  24280931.061 4   1531898.05609     -1396.450          31.100  
R19  21942563.982 6         0.00000      3285.450          22.300  
R17  20870612.863 4   5135774.01509     -2343.757          30.200  
R03  19217628.302 3 -10060732.24201       180.704          40.500  
R04  21429405.935 3 -14469644.31409      3718.930          40.800  
E01  28373682.392 4         0.00000      -234.900          30.500    28371560.759 3         0.00000      -173.900          22.600  
E03  24987928.011 4     36368.01307     -1339.160          34.700    24985802.173 1   1047112.74603      -999.625          35.100  
E07  27125116.957 4     -7839.09008      3066.549          34.100    27122992.934 2   -418520.84105      2290.424          32.400  
E08  22106413.743 4   -428807.44209      1497.564          35.500    22104288.202 1  -5328816.46603      1118.549          37.800  
E13  23796725.158 3   -404112.60803      1130.055          42.500    23794596.930 1  -6903119.75403       844.604          36.600  
E15  23989518.096 4      3560.34909     -1072.223          31.500    23987394.055 1   2150863.63902      -800.633          40.800  
E21  27637288.386 3    350250.78005     -1994.667          37.500    27635168.254 3         0.00000     -1489.350          27.900  
E26  26707280.619 3   -416056.31409      2305.689          38.300    26705158.987 3         0.00000      1721.834          25.100  
E27  28432141.022 4         0.00000     -2538.550          30.700    28430022.391 3         0.00000     -1894.607          27.500  
> 2020 06 25 00 35 02.4479704  0 27
G10  21696347.726 3  -7702825.95702      1966.907          38.900    21694000.340 1 -14132612.68403      1468.658          35.600  
G13  24111113.010 5         0.00000     -2332.814          27.100           0.000 0         0.00000         0.000           0.000  
G15  21958619.351 4    -33679.88209     -1545.803          34.300           0.000 0         0.00000         0.000           0.000  
G16  23221113.149 3    478833.34609      -745.002          35.500           0.000 0         0.00000         0.000           0.000  
G18  20695970.264 4    931316.10103      -780.787          34.700           0.000 0         0.00000         0.000           0.000  
G20  20159294.995 3  -1448228.17002       221.174          37.500           0.000 0         0.00000         0.000           0.000  
G21  21502621.534 2  -1589443.24801      1019.757          41.700           0.000 0         0.00000         0.000           0.000  
G26  23595031.982 3    415147.35002     -2261.236          38.600    23592689.709 2   3861711.25904     -1688.840          34.600  
G27  23221300.215 4         0.00000      3040.200          32.400    23218959.146 2  -7158127.67004      2271.179          34.200  
G29  23161034.736 3   3415278.83309     -3490.672          36.500           0.000 0         0.00000         0.000           0.000  
G32  25316082.933 5         0.00000      3597.398          28.100    25313748.443 1   -415686.02803      2686.067          36.700  
R02  21344282.865 4   7594675.55109     -3511.471          32.100  
R18  19538136.119 3 -12696158.85702       882.647          36.900  
R09  24281241.343 5         0.00000     -1403.754          25.500  
R19  21941962.595 6         0.00000      3277.150          21.800  
R17  20871086.846 5         0.00000     -2338.900          26.000  
R03  19217591.726 3 -10060914.43801       180.770          40.300  
R04  21428711.905 2 -14473366.72801      3723.755          43.100  
E01  28373730.973 5         0.00000      -238.550          26.200    28371605.135 3         0.00000      -180.124          24.900  
E03  24988178.631 4     37706.92709     -1340.935          31.600    24986058.499 2   1048112.50804     -1001.100          34.300  
E07  27124530.559 4    -10910.59909      3072.188          34.700    27122410.131 2   -420814.72909      2295.696          31.300  
E08  22106131.329 5         0.00000      1500.700          29.200    22104004.601 1  -5329937.09902      1121.551          39.800  
E13  23796505.705 3   -405242.30809      1126.156          38.100    23794382.589 1  -6903963.50603       842.232          36.900  
E15  23989719.244 4      4631.21909     -1071.390          31.600    23987598.519 1   2151663.39602      -799.634          40.700  
E21  27637667.631 4    352244.36907     -1995.095          34.800    27635544.795 3         0.00000     -1490.488          23.700  
E26  26706843.823 4   -418358.93709      2298.533          31.700    26704719.503 3         0.00000      1719.013          23.300  
E27  28432624.585 5         0.00000     -2531.400          27.500    28430506.269 3         0.00000     -1890.473          25.600  
> 2020 06 25 00 35 03.4479704  0 26
G10  21695973.576 3  -7704787.70601      1959.706          40.000    21693628.005 1 -14134077.52702      1463.444          38.900  
G15  21958912.550 5         0.00000     -1555.433          27.400           0.000 0         0.00000         0.000           0.000  
G16  23221263.343 3    479584.99009      -754.844          37.700           0.000 0         0.00000         0.000           0.000  
G18  20696130.352 4    932102.35404      -787.537          33.000           0.000 0         0.00000         0.000           0.000  
G20  20159251.823 3  -1448443.77302       213.591          37.100           0.000 0         0.00000         0.000           0.000  
G21  21502427.575 3  -1590456.34001      1010.650          40.400           0.000 0         0.00000         0.000           0.000  
G26  23595463.683 3    417413.63701     -2268.581          39.800    23593122.317 1   3863403.67403     -1694.005          36.800  
G27  23220732.106 3   -313515.93909      3030.633          35.800    23218381.439 1  -7160393.12903      2263.232          35.200  
G29  23161700.584 3   3418772.04809     -3493.307          36.200           0.000 0         0.00000         0.000           0.000  
G32  25315410.803 5         0.00000      3599.250          24.200    25313064.324 1   -418370.19003      2683.896          36.900  
R02  21344942.396 3   7598193.16209     -3520.114          35.000  
R18  19537980.533 3 -12697035.45302       874.648          36.800  
R09  24281442.806 4         0.00000     -1413.428          28.800  
R19  21941335.434 5         0.00000      3269.899          25.900  
R17  20871475.969 5         0.00000     -2345.813          27.600  
R03  19217560.560 3 -10061090.06901       174.008          39.200  
R04  21428010.685 3 -14477086.86101      3718.986          40.400  
E01  28373776.536 4       597.70708      -252.249          33.200    28371652.495 2    -28204.88709      -188.602          31.700  
E03  24988431.362 5         0.00000     -1348.350          27.500    24986313.918 2         0.00000     -1005.977          34.200  
E07  27123944.180 5         0.00000      3067.500          29.100    27121825.235 2   -423107.12605      2292.035          31.900  
E08  22105842.336 4   -431805.35607      1496.334          34.700    22103718.906 1         0.00000      1117.987          38.900  
E13  23796295.552 3   -406362.52204      1118.024          40.100    23794168.527 1  -6904800.11403       835.509          38.100  
E15  23989927.303 4      5707.64807     -1077.201          35.000    23987803.280 1   2152467.14403      -804.032          38.700  
E21  27638054.956 4         0.00000     -2007.150          30.800    27635928.839 4         0.00000     -1499.700          21.500  
E26  26706405.229 4   -420651.10306      2290.273          35.700    26704282.707 3         0.00000      1707.550          26.900  
E27  28433091.972 6         0.00000     -2534.750          23.100    28430987.720 2         0.00000     -1894.606          29.900  
> 2020 06 25 00 35 04.4479704  0 27
G10  21695600.037 3  -7706747.96201      1959.775          40.200    21693254.169 1 -14135541.28402      1463.343          39.800  
G13  24111996.201 6         0.00000     -2327.350          20.800           0.000 0         0.00000         0.000           0.000  
G15  21959200.059 5         0.00000     -1543.900          26.600           0.000 0         0.00000         0.000           0.000  
G16  23221398.250 3    480339.98909      -755.701          36.800           0.000 0         0.00000         0.000           0.000  
G18  20696267.354 4    932886.47509      -782.568          31.300           0.000 0         0.00000         0.000           0.000  
G20  20159216.451 3  -1448658.44402       215.079          36.100           0.000 0         0.00000         0.000           0.000  
G21  21502235.396 3  -1591468.00901      1011.939          39.500           0.000 0         0.00000         0.000           0.000  
G26  23595894.791 3    419681.90601     -2269.146          39.700    23593554.612 1   3865097.62903     -1694.634          36.400  
G27  23220149.321 4   -316546.89009      3030.755          35.100    23217805.233 1  -7162656.48103      2263.154          35.900  
G29  23162361.319 3   3422262.81009     -3489.332          38.700           0.000 0         0.00000         0.000           0.000  
G32  25314718.867 4         0.00000      3600.071          28.900    25312379.595 1   -421055.02603      2685.090          37.500  
R02  21345601.037 4   7601711.80409     -3516.312          33.800  
R18  19537805.159 3 -12697911.62202       877.229          36.600  
R09  24281715.919 5         0.00000     -1416.860          27.700  
R19  21940750.834 5         0.00000      3274.350          24.200  
R17  20871941.558 5         0.00000     -2342.296          26.900  
R03  19217529.080 3 -10061265.47002       176.033          37.800  
R04  21427324.769 3 -14480806.89101      3719.925          40.700  
E01  28373824.192 4       850.31409      -252.686          35.200    28371700.466 2    -28016.11004      -190.223          34.200  
E03  24988683.483 5         0.00000     -1343.050          24.900    24986570.244 2         0.00000     -1004.713          33.400  
E07  27123361.081 5         0.00000      3073.100          27.100    27121239.152 2         0.00000      2291.850          32.200  
E08  22105562.626 4   -433303.77307      1499.687          35.300    22103433.508 1  -5332173.89203      1118.452          38.600  
E13  23796082.100 3   -407481.68404      1119.902          39.000    23793955.669 1  -6905635.60603       834.663          37.500  
E15  23990131.174 4      6782.31307     -1072.666          35.400    23988007.430 1   2153269.70603      -802.062          37.800  
E21  27638433.295 5         0.00000     -2002.850          25.700    27636311.365 3         0.00000     -1499.750          22.100  
E26  26705972.935 4   -422941.77609      2291.120          34.500    26703848.004 3         0.00000      1709.771          25.800  
E27  28433594.730 6         0.00000     -2538.500          23.100    28431469.800 2         0.00000     -1894.197          29.200  
> 2020 06 25 00 35 05.4479704  0 25
G10  21695227.702 3  -7708709.44901      1963.096          39.500    21692881.223 1 -14137006.06302      1466.010          39.300  
G15  21959489.349 4    -29029.18709     -1537.208          31.100           0.000 0         0.00000         0.000           0.000  
G16  23221544.256 4    481094.16809      -752.036          34.700           0.000 0         0.00000         0.000           0.000  
G18  20696413.657 4    933664.18609      -773.874          32.700           0.000 0         0.00000         0.000           0.000  
G20  20159174.187 4  -1448876.85903       221.654          35.200           0.000 0         0.00000         0.000           0.000  
G21  21502039.936 3  -1592484.12809      1020.089          38.800           0.000 0         0.00000         0.000           0.000  
G26  23596332.198 3    421949.90501     -2266.735          39.500    23593985.108 1   3866791.22103     -1692.763          35.500  
G27  23219569.816 3   -319580.68009      3037.789          36.700    23217226.339 1  -7164921.98309      2268.493          35.800  
G29  23163023.869 3   3425747.86509     -3482.162          40.500           0.000 0         0.00000         0.000           0.000  
G32  25314038.343 4    -94600.41409      3599.742          32.800    25311695.459 1   -423742.07402      2688.022          39.800  
R02  21346245.596 4   7605221.88909     -3504.787          33.700  
R18  19537651.963 3 -12698793.30002       886.197          36.100  
R09  24281970.430 4   1537537.39209     -1409.611          29.400  
R19  21940132.660 5         0.00000      3277.911          27.900  
R17  20872379.244 4         0.00000     -2337.949          28.400  
R03  19217493.708 3 -10061445.26301       183.296          39.100  
R04  21426632.240 3 -14484528.82801      3723.268          40.600  
E01  28373868.568 4      1105.39409      -258.115          31.000    28371748.436 2    -27829.02009      -182.563          30.500  
E03  24988954.502 5         0.00000     -1313.650          24.900    24986824.477 2         0.00000      -992.939          32.700  
E07  27122775.591 4     -1759.12809      3073.689          31.600    27120654.255 2         0.00000      2297.603          31.700  
E08  22105273.633 4   -434806.81309      1505.705          34.500    22103148.092 1  -5333296.39203      1126.237          38.400  
E13  23795868.946 3   -408604.86004      1126.675          39.200    23793741.922 1  -6906474.50003       842.983          35.800  
E15  23990333.824 4      7849.76708     -1063.477          33.600    23988210.394 1   2154066.79502      -792.161          40.100  
E21  27638808.335 4      1233.22809     -2003.882          30.500    27636686.702 3         0.00000     -1500.832          24.100  
E26  26705537.325 4   -425234.27109      2295.192          32.500    26703410.301 3         0.00000      1704.800          25.400  
> 2020 06 25 00 35 06.4479704  0 27
G10  21694858.944 3  -7710665.76502      1950.786          37.600    21692509.184 1 -14138467.02403      1456.835          36.700  
G13  24112855.100 6         0.00000     -2316.100          22.300           0.000 0         0.00000         0.000           0.000  
G15  21959781.344 4    -27489.79309     -1539.719          33.200           0.000 0         0.00000         0.000           0.000  
G16  23221668.659 4    481851.22009      -761.345          31.000           0.000 0         0.00000         0.000           0.000  
G18  20696564.758 4    934440.58109      -777.591          35.000           0.000 0         0.00000         0.000           0.000  
G20  20159131.609 3  -1449093.47002       213.839          37.700           0.000 0         0.00000         0.000           0.000  
G21  21501850.165 3  -1593500.28801      1013.738          41.400           0.000 0         0.00000         0.000           0.000  
G26  23596762.695 3    424224.45602     -2280.818          39.000    23594415.623 2   3868489.66404     -1703.160          34.600  
G27  23218994.221 4   -322614.74509      3032.087          30.500    23216650.133 1  -7167187.77503      2264.079          36.900  
G29  23163687.902 3   3429237.19502     -3493.950          37.600           0.000 0         0.00000         0.000           0.000  
G32  25313344.627 5         0.00000      3582.609          27.200    25311010.434 2   -426423.56105      2676.278          32.100  
R02  21346910.240 4   7608728.62204     -3505.734          31.900  
R18  19537480.776 3 -12699675.98102       881.597          37.400  
R09  24282244.155 4   1538950.31009     -1416.284          30.600  
R19  21939469.220 5         0.00000      3280.450          23.800  
R17  20872807.350 5         0.00000     -2334.242          27.000  
R03  19217460.134 3 -10061622.97401       174.468          39.400  
R04  21425930.741 2 -14488243.51001      3707.685          43.700  
E01  28373918.039 5         0.00000      -253.250          29.400    28371796.407 3         0.00000      -189.215          26.700  
E03  24989203.622 5         0.00000     -1334.050          28.100    24987078.691 2         0.00000      -996.707          29.700  
E07  27122194.883 4     -4824.63207      3059.011          35.500    27120072.046 2   -429983.99505      2281.796          33.800  
E08  22104987.328 4   -436306.48409      1495.626          33.800    22102860.897 1  -5334416.40203      1114.786          37.100  
E13  23795653.994 3   -409728.66304      1122.297          37.900    23793528.174 1  -6907313.58509       836.658          37.000  
E15  23990540.085 4      8916.25409     -1068.184          33.100    23988413.654 1   2154863.15802      -798.912          41.500  
E21  27639192.972 4      3241.56706     -2013.546          36.100    27637072.544 2         0.00000     -1505.100          29.700  
E26  26705102.640 5         0.00000      2289.550          27.800    26702983.102 3         0.00000      1693.450          23.900  
E27  28434577.143 6         0.00000     -2549.350          21.300    28432435.425 3         0.00000     -1897.750          22.500  
> 2020 06 25 00 35 07.4479704  0 24
G10  21694487.202 3  -7712616.32301      1947.253          40.700    21692136.832 2 -14139923.57904      1454.076          33.900  
G13  24113329.677 5         0.00000     -2312.800          24.900           0.000 0         0.00000         0.000           0.000  
G15  21960079.044 3    -25956.19002     -1530.593          38.000           0.000 0         0.00000         0.000           0.000  
G16  23221837.141 4    482611.27109      -762.888          33.300           0.000 0         0.00000         0.000           0.000  
G18  20696711.951 3    935214.41009      -772.022          38.300           0.000 0         0.00000         0.000           0.000  
G20  20159090.845 3  -1449309.49602       215.597          37.500           0.000 0         0.00000         0.000           0.000  
G21  21501654.705 3  -1594517.42901      1017.408          41.200           0.000 0         0.00000         0.000           0.000  
G26  23597191.097 4    426506.52803     -2286.502          34.600    23594850.308 2   3870193.72404     -1707.558          34.400  
G29  23164353.139 3   3432730.29402     -3494.237          36.100           0.000 0         0.00000         0.000           0.000  
G32  25312691.972 6         0.00000      3577.250          22.800    25310328.409 2   -429101.65109      2674.821          29.800  
R02  21347569.474 4   7612227.03009     -3495.464          32.600  
R18  19537322.486 3 -12700561.55102       887.071          36.300  
R17  20873232.752 3   5149823.49509     -2331.725          35.600  
R03  19217427.153 3 -10061799.57701       176.418          39.400  
R04  21425237.619 3 -14491949.57102      3702.007          39.500  
E01  28373963.305 5         0.00000      -248.950          27.800           0.000 0         0.00000         0.000           0.000  
E03  24989456.650 4      5194.84909     -1326.776          32.000    24987330.515 2   1053109.46504      -992.240          34.000  
E07  27121613.284 4     -7881.35106      3052.937          36.000    27119489.558 2   -432266.67605      2278.032          33.600  
E08  22104705.821 3   -437803.14204      1496.061          38.900    22102576.388 1  -5335534.06503      1115.276          37.100  
E13  23795438.746 3   -410854.18904      1126.710          39.300    23793313.519 2  -6908154.12209       839.189          33.700  
E15  23990738.250 4      9980.34109     -1062.777          31.500    23988616.321 1   2155657.62402      -794.692          41.900  
E21  27639577.313 3      5256.25904     -2018.194          38.200    27637456.274 2    631987.63405     -1508.567          32.400  
E27  28435031.319 6         0.00000     -2558.350          24.300    28432920.489 3         0.00000     -1908.126          26.200  
G27         0.000 0         0.00000         0.000           0.000    23216073.037 3         0.00000      2267.634          28.600  
> 2020 06 25 00 35 08.4479704  0 26
G10  21694115.163 3  -7714557.57401      1936.881          40.800    21691767.184 1 -14141373.16303      1446.264          35.300  
G13  24113768.567 5         0.00000     -2305.936          27.600           0.000 0         0.00000         0.000           0.000  
G15  21960367.741 3    -24426.98002     -1526.022          37.300           0.000 0         0.00000         0.000           0.000  
G16  23221981.943 3    483381.22909      -774.875          41.300           0.000 0         0.00000         0.000           0.000  
G18  20696861.551 3    935986.34609      -770.408          38.300           0.000 0         0.00000         0.000           0.000  
G20  20159049.174 3  -1449521.82002       211.310          37.900           0.000 0         0.00000         0.000           0.000  
G21  21501462.543 3  -1595532.11502      1013.757          39.400           0.000 0         0.00000         0.000           0.000  
G26  23597621.001 4    428800.43609     -2299.729          31.300    23595287.104 1   3871906.85103     -1717.416          35.400  
G27  23217834.916 5         0.00000      3034.150          24.300    23215495.034 2         0.00000      2263.653          29.000  
G29  23165014.782 4   3436226.79304     -3496.220          32.000           0.000 0         0.00000         0.000           0.000  
R02  21348201.451 4   7615721.93009     -3495.373          29.300  
R18  19537149.502 3 -12701447.25209       886.534          35.200  
R09  24282772.983 4         0.00000     -1420.250          30.200  
R17  20873668.955 3   5152155.89502     -2329.563          37.800  
R03  19217393.875 3 -10061973.25801       173.698          39.600  
R04  21424560.079 4 -14495645.55809      3692.087          34.600  
E01  28374014.260 5         0.00000      -259.350          28.200    28371893.238 3         0.00000      -196.500          22.300  
E03  24989709.381 4      6519.66009     -1322.404          29.900    24987582.340 2   1054098.69809      -985.408          31.600  
E07  27121033.483 4    -10927.70207      3042.604          35.400    27118910.054 2   -434541.63309      2272.296          30.900  
E08  22104419.812 3   -439295.86605      1493.117          37.600    22102293.695 1  -5336648.90703      1114.730          37.400  
E13  23795226.795 3   -411977.58109      1123.803          37.800    23793098.567 2         0.00000       840.600          29.900  
E15  23990937.915 5         0.00000     -1062.050          28.800    23988817.784 1         0.00000      -790.082          39.300  
E21  27639962.248 3      7282.09804     -2031.462          38.500    27637841.505 2    633500.35805     -1517.090          32.500  
E26  26704234.125 5         0.00000      2283.000          24.900    26702104.099 3         0.00000      1702.800          27.000  
E27  28435526.888 6         0.00000     -2567.600          23.700    28433410.055 3         0.00000     -1917.683          27.200  
G32         0.000 0         0.00000         0.000           0.000    25309650.591 3         0.00000      2667.300          23.200  
> 2020 06 25 00 35 09.4479704  0 27
G10  21693748.516 3  -7716491.43301      1930.749          40.600    21691400.537 1 -14142817.24103      1441.738          37.100  
G13  24114216.165 4   2535481.40809     -2294.877          29.500           0.000 0         0.00000         0.000           0.000  
G15  21960666.628 4         0.00000     -1515.450          29.800           0.000 0         0.00000         0.000           0.000  
G16  23222130.636 2    484160.52909      -783.912          41.800           0.000 0         0.00000         0.000           0.000  
G18  20697006.353 3    936752.60809      -762.817          38.500           0.000 0         0.00000         0.000           0.000  
G20  20159007.206 3  -1449732.57602       210.795          37.700           0.000 0         0.00000         0.000           0.000  
G21  21501268.270 2  -1596545.24901      1012.471          43.600           0.000 0         0.00000         0.000           0.000  
G26  23598082.385 5         0.00000     -2310.649          28.300    23595726.309 1   3873627.80703     -1724.553          36.400  
G29  23165680.019 5         0.00000     -3489.700          25.500           0.000 0         0.00000         0.000           0.000  
R02  21348922.442 5         0.00000     -3491.200          23.200  
R18  19536984.318 3 -12702335.79709       891.115          36.600  
R09  24283042.502 4         0.00000     -1428.820          28.100  
R19  21937661.168 5         0.00000      3273.500          25.200  
R17  20874101.860 3   5154480.05602     -2319.204          38.300  
R03  19217356.096 3 -10062147.74601       176.045          39.300  
R04  21423862.768 3 -14499335.65809      3687.788          37.300  
E01  28374058.636 4      2158.48008      -264.674          34.300    28371943.006 3         0.00000      -198.450          26.000  
E03  24989959.094 5         0.00000     -1307.400          26.500    24987833.274 3         0.00000      -978.283          27.700  
E07  27120445.603 4    -13968.83009      3038.894          32.600    27118331.457 3   -436812.45009      2269.523          28.800  
E08  22104133.523 4   -440790.21306      1496.397          36.100    22102008.593 1  -5337764.83803      1117.521          36.300  
E13  23795010.046 3   -413100.71703      1123.066          41.700    23792884.819 2  -6909811.84305       838.967          31.400  
E15  23991154.368 6         0.00000     -1050.800          24.600    23989018.636 1         0.00000      -783.184          37.000  
E21  27640352.871 4      9318.69806     -2042.208          36.300    27638228.237 3    635021.45109     -1524.927          28.900  
E26  26703795.235 4         0.00000      2273.400          30.200    26701672.398 2         0.00000      1699.139          29.900  
G27         0.000 0         0.00000         0.000           0.000    23214918.827 2  -7173981.73405      2259.478          32.300  
G32         0.000 0         0.00000         0.000           0.000    25308974.255 3         0.00000      2667.200          23.000  
E27         0.000 0         0.00000         0.000           0.000    28433899.010 3         0.00000     -1922.787          24.800  
> 2020 06 25 00 35 10.4479704  0 27
G10  21693382.481 3  -7718420.48602      1924.663          39.200    21691032.407 1 -14144257.78303      1437.203          35.700  
G13  24114653.258 5         0.00000     -2283.750          25.100           0.000 0         0.00000         0.000           0.000  
G15  21960938.555 4    -21398.53309     -1503.901          34.500           0.000 0         0.00000         0.000           0.000  
G16  23222281.441 2    484948.02609      -793.453          42.600           0.000 0         0.00000         0.000           0.000  
G18  20697147.246 2    937510.26409      -756.461          41.500           0.000 0         0.00000         0.000           0.000  
G20  20158972.131 3  -1449944.32702       209.377          39.200           0.000 0         0.00000         0.000           0.000  
G21  21501075.497 2  -1597558.51201      1010.846          44.100           0.000 0         0.00000         0.000           0.000  
G26  23598509.287 4    433419.10509     -2318.362          33.100    23596167.311 1   3875354.74403     -1731.132          37.000  
G27  23216692.415 3     -1346.20509      3019.581          35.800    23214345.640 2         0.00000      2255.336          28.800  
G29  23166346.460 4   3443207.68309     -3483.411          30.100           0.000 0         0.00000         0.000           0.000  
R02  21349600.575 6         0.00000     -3449.200          22.100  
R18  19536826.934 3 -12703229.55602       893.708          36.800  
R09  24283352.488 5         0.00000     -1439.700          23.700  
R19  21937081.071 4  -4723128.44004      3267.840          30.000  
R17  20874535.952 3   5156791.52802     -2308.291          38.400  
R03  19217327.617 2 -10062326.48501       178.076          42.900  
R04  21423179.243 4 -14503024.08809      3685.936          31.900  
E01  28374118.298 5         0.00000      -274.950          24.700           0.000 0         0.00000         0.000           0.000  
E03  24990197.743 5         0.00000     -1302.100          25.500    24988080.002 3         0.00000      -972.186          26.300  
E07  27119882.589 5         0.00000      3032.050          25.000    27117756.158 3   -439082.40909      2265.763          28.100  
E08  22103850.219 3   -442290.67404      1500.428          38.400    22101722.881 2  -5338885.17005      1118.478          32.300  
E13  23794799.597 3   -414224.73103      1121.863          42.600    23792670.164 2  -6910651.05309       835.035          31.300  
E21  27640738.398 4     11364.54608     -2051.366          34.200    27638618.267 3         0.00000     -1533.313          26.500  
E26  26703360.829 5         0.00000      2264.150          29.400    26701242.809 3         0.00000      1692.200          22.300  
E27  28436497.609 6         0.00000     -2578.900          24.000    28434387.965 3         0.00000     -1929.050          24.400  
G32         0.000 0         0.00000         0.000           0.000    25308294.325 3         0.00000      2666.950          23.400  
E15         0.000 0         0.00000         0.000           0.000    23989218.301 2         0.00000      -778.997          30.400  
> 2020 06 25 00 35 11.4479704  0 26
G10  21693014.630 3  -7720345.06902      1928.246          38.400    21690666.651 2 -14145694.97704      1440.116          33.900  
G13  24115076.565 5         0.00000     -2272.450          23.500           0.000 0         0.00000         0.000           0.000  
G15  21961228.141 4    -19898.71709     -1495.681          32.500           0.000 0         0.00000         0.000           0.000  
G16  23222431.635 2    485742.44009      -791.464          43.400           0.000 0         0.00000         0.000           0.000  
G18  20697290.548 2    938263.75909      -749.803          41.500           0.000 0         0.00000         0.000           0.000  
G20  20158930.460 3  -1450155.34602       214.434          38.200           0.000 0         0.00000         0.000           0.000  
G21  21500883.039 2  -1598570.23101      1015.007          44.400           0.000 0         0.00000         0.000           0.000  
G26  23598958.665 4    435738.25009     -2315.337          34.300    23596607.702 1   3877086.52203     -1729.023          36.300  
G27  23216119.507 3     -4366.04209      3022.518          35.900    23213770.935 3         0.00000      2258.217          27.500  
G29  23167015.606 4   3446686.43209     -3473.914          30.500           0.000 0         0.00000         0.000           0.000  
R02  21350194.772 5         0.00000     -3463.500          25.800  
R18  19536647.965 3 -12704125.98802       899.923          37.600  
R09  24283565.328 6         0.00000     -1434.950          22.500  
R19  21936423.634 5         0.00000      3269.526          27.900  
R17  20874956.258 3   5159095.55702     -2299.534          37.900  
R03  19217292.839 2 -10062506.65101       183.853          43.800  
R04  21422487.918 4 -14506709.24209      3689.242          31.700  
E01  28374170.753 6         0.00000      -269.700          24.300           0.000 0         0.00000         0.000           0.000  
E03  24990452.255 5         0.00000     -1290.800          27.700    24988328.528 2         0.00000      -964.001          30.600  
E07  27119298.897 5         0.00000      3047.750          27.800    27117173.356 3         0.00000      2270.550          27.400  
E08  22103561.209 3   -443793.80604      1507.106          38.100    22101433.887 2  -5340007.76209      1128.035          30.600  
E13  23794585.849 3   -415347.34403      1125.608          42.600    23792457.010 2  -6911489.41405       842.501          33.800  
E15  23991544.397 6         0.00000     -1032.850          22.200    23989412.260 2         0.00000      -769.266          29.700  
E21  27641133.227 4     13418.11608     -2050.698          33.800    27639011.298 3         0.00000     -1529.924          23.800  
E26  26702928.238 5         0.00000      2270.600          29.300           0.000 0         0.00000         0.000           0.000  
E27  28436999.460 5         0.00000     -2572.850          25.400    28434879.031 3         0.00000     -1923.597          25.100  
> 2020 06 25 00 35 12.4479704  0 25
G10  21692649.188 3  -7722271.43902      1927.471          39.100    21690301.208 1 -14147133.61102      1439.437          38.800  
G15  21961522.247 4    -18399.12709     -1500.727          34.900           0.000 0         0.00000         0.000           0.000  
G16  23222578.234 3    486537.42002      -796.149          39.400           0.000 0         0.00000         0.000           0.000  
G18  20697435.646 3    939016.90802      -754.383          39.300           0.000 0         0.00000         0.000           0.000  
G20  20158886.991 3  -1450366.72602       211.131          37.000           0.000 0         0.00000         0.000           0.000  
G21  21500690.266 2  -1599581.40101      1009.507          43.100           0.000 0         0.00000         0.000           0.000  
G26  23599389.772 3    438055.77002     -2315.552          38.000    23597048.390 2   3878816.67504     -1729.249          34.200  
G27  23215543.912 4     -7386.22009      3017.011          31.800    23213194.135 2  -7180749.67909      2251.042          33.000  
G29  23167672.136 3   3450160.47602     -3471.127          37.500           0.000 0         0.00000         0.000           0.000  
G32  25309293.838 6         0.00000      3575.900          22.900    25306932.370 3         0.00000      2673.250          25.700  
R02  21350824.027 4   7629608.85303     -3474.521          34.200  
R18  19536477.075 3 -12705021.95002       894.231          38.100  
R19  21935814.447 5         0.00000      3261.991          26.000  
R17  20875397.853 4   5161397.11309     -2305.605          34.200  
R03  19217258.357 2 -10062687.82001       181.302          41.500  
R04  21421790.607 3 -14510398.49709      3692.346          41.100  
E01  28374227.414 5         0.00000      -276.950          24.900           0.000 0         0.00000         0.000           0.000  
E03  24990701.095 4      5148.26808     -1298.695          32.900    24988575.850 1   1057992.98803      -970.706          35.400  
E07  27118721.487 3     -4754.03105      3048.147          37.300    27116595.963 2         0.00000      2276.550          34.300  
E08  22103277.904 4   -445300.34307      1508.368          35.500    22101149.990 1  -5341132.48203      1125.741          35.900  
E13  23794371.787 3   -416469.61103      1120.558          41.400    23792245.356 1  -6912327.41403       836.336          38.900  
E15  23991739.561 4      1372.61609     -1034.387          31.500    23989611.036 1   2159562.76102      -773.537          39.500  
E21  27641524.164 4     15470.59509     -2052.775          30.400    27639401.625 3         0.00000     -1538.713          24.700  
E26  26702496.241 5         0.00000      2262.600          28.600           0.000 0         0.00000         0.000           0.000  
E27  28437486.024 5         0.00000     -2578.250          28.200    28435370.988 3         0.00000     -1929.696          23.000  
> 2020 06 25 00 35 13.4479704  0 26
G10  21692282.227 3  -7724204.07901      1932.156          39.700    21689933.061 1 -14148576.62801      1442.546          43.300  
G15  21961803.143 4         0.00000     -1504.250          30.400           0.000 0         0.00000         0.000           0.000  
G16  23222735.321 4    487331.88109      -798.126          35.400           0.000 0         0.00000         0.000           0.000  
G18  20697577.150 4    939769.37004      -755.279          32.700           0.000 0         0.00000         0.000           0.000  
G20  20158849.508 3  -1450580.38402       211.031          35.600           0.000 0         0.00000         0.000           0.000  
G21  21500497.808 3  -1600591.74101      1006.217          39.800           0.000 0         0.00000         0.000           0.000  
G26  23599832.572 3    440365.86401     -2310.328          40.200    23597488.781 1   3880541.85603     -1725.301          35.700  
G27  23214981.788 4         0.00000      3006.200          29.800    23212621.227 3         0.00000      2245.829          28.400  
G29  23168331.684 4   3453623.26209     -3460.915          34.100           0.000 0         0.00000         0.000           0.000  
G32  25308585.115 5         0.00000      3583.337          26.500    25306252.143 3         0.00000      2681.000          24.000  
R02  21351480.277 3   7633084.10302     -3480.307          35.100  
R18  19536315.189 3 -12705917.45902       891.544          38.000  
R09  24284091.173 6         0.00000     -1442.000          20.200  
R19  21935196.569 5         0.00000      3259.250          24.600  
R17  20875823.865 3         0.00000     -2293.500          36.500  
R03  19217225.394 3 -10062872.77202       183.834          35.800  
R04  21421112.474 3 -14514099.16109      3703.518          36.000  
E01  28374267.288 5         0.00000      -286.150          27.200    28372148.360 3         0.00000      -212.250          22.400  
E03  24990944.822 5         0.00000     -1303.050          28.200    24988823.190 1         0.00000      -972.206          35.000  
E07  27118138.388 4     -7810.09909      3059.357          30.500    27116014.068 2   -445840.53209      2284.098          29.800  
E08  22102988.911 3   -446814.73505      1515.830          37.500    22100860.979 2  -5342263.52204      1131.173          34.500  
E13  23794156.539 4   -417590.63706      1116.673          36.600    23792032.202 1  -6913164.60803       832.288          38.100  
E15  23991934.113 4      2404.05607     -1031.661          35.000    23989807.089 2   2160332.79505      -771.725          33.700  
E21  27641912.693 4     17519.07909     -2050.087          33.100    27639789.857 2         0.00000     -1534.250          30.100  
E26  26702062.132 5         0.00000      2259.400          24.900    26699945.909 3         0.00000      1684.150          22.100  
E27  28437983.390 6         0.00000     -2567.050          24.000    28435860.850 3         0.00000     -1918.500          22.100  
> 2020 06 25 00 35 14.4479704  0 26
G10  21691909.892 2  -7726129.78701      1923.260          44.100    21689566.118 1 -14150014.56403      1436.372          35.300  
G15  21962087.058 4    -15394.05909     -1511.852          34.200           0.000 0         0.00000         0.000           0.000  
G16  23222891.221 4    488140.82109      -815.612          34.200           0.000 0         0.00000         0.000           0.000  
G18  20697727.047 4    940532.20309      -765.913          34.700           0.000 0         0.00000         0.000           0.000  
G20  20158830.627 4         0.00000       200.361          29.300           0.000 0         0.00000         0.000           0.000  
G21  21500313.132 4  -1601588.27803       991.070          35.300           0.000 0         0.00000         0.000           0.000  
G26  23600269.961 3    442682.27102     -2318.992          36.900    23597928.282 1   3882271.90203     -1731.908          35.900  
G27  23214399.299 4         0.00000      2989.900          30.900    23212050.430 2  -7185236.95609      2230.829          32.100  
G29  23168987.935 4   3457082.59509     -3453.579          34.300           0.000 0         0.00000         0.000           0.000  
G32  25307921.082 5         0.00000      3591.050          24.000    25305570.101 3         0.00000      2683.650          26.000  
R02  21352123.928 4   7636574.14109     -3494.702          32.400  
R18  19536155.398 3 -12706800.95602       879.579          37.400  
R09  24284358.283 6         0.00000     -1475.550          22.100  
R19  21934582.898 6         0.00000      3238.800          21.600  
R17  20876252.861 2   5166005.13101     -2295.460          42.600  
R03  19217186.410 4 -10063050.75603       176.005          33.500  
R04  21420415.443 3 -14517799.80901      3701.477          40.100  
E01  28374335.641 5         0.00000      -306.050          26.300           0.000 0         0.00000         0.000           0.000  
E03  24991197.536 4      7753.23508     -1309.481          33.200    24989072.309 1   1059937.99803      -980.672          37.600  
E07  27117559.197 4    -10869.17109      3060.627          31.100    27115431.266 2   -448124.84309      2283.581          30.300  
E08  22102700.512 3   -448328.04504      1514.459          39.400    22100572.876 2  -5343393.62304      1128.499          34.200  
E13  23793947.590 3   -418698.17505      1102.002          37.200    23791820.862 1  -6913991.34703       820.107          37.000  
E15  23992127.182 3      3440.79605     -1037.424          36.700    23990005.550 1   2161106.79503      -777.192          36.200  
E21  27642303.927 3     19578.36104     -2063.475          38.600    27640182.295 3    642681.33209     -1538.628          28.600  
E26  26701642.419 4     -1325.79209      2245.586          30.700    26699518.989 3         0.00000      1671.950          26.900  
E27  28438461.247 4         0.00000     -2564.000          31.400    28436343.523 4         0.00000     -1918.700          21.700  
> 2020 06 25 00 35 15.4479704  0 25
G10  21691547.136 2  -7728054.64901      1928.314          45.900    21689199.471 1 -14151451.99602      1439.735          40.200  
G15  21962374.847 3    -13885.58709     -1503.236          36.500           0.000 0         0.00000         0.000           0.000  
G16  23223042.008 3    488958.12009      -817.826          37.300           0.000 0         0.00000         0.000           0.000  
G18  20697869.162 3    941295.27709      -758.939          40.300           0.000 0         0.00000         0.000           0.000  
G20  20158774.560 4  -1450985.40009       204.867          34.000           0.000 0         0.00000         0.000           0.000  
G21  21500123.064 2  -1602578.04601       990.611          42.700           0.000 0         0.00000         0.000           0.000  
G26  23600717.856 4    444999.57509     -2313.945          34.700    23598370.470 3         0.00000     -1727.672          28.000  
G27  23213832.080 4         0.00000      2983.800          34.200    23211483.508 1  -7187464.71903      2226.573          36.200  
G29  23169642.684 4   3460529.50509     -3436.207          33.600           0.000 0         0.00000         0.000           0.000  
R02  21352787.368 4         0.00000     -3490.200          30.100  
R18  19535986.008 3 -12707680.95402       883.345          35.100  
R19  21934021.385 5         0.00000      3231.878          26.300  
R17  20876681.875 3   5168293.14509     -2279.567          38.300  
R03  19217173.217 4 -10063229.65903       184.738          34.700  
R04  21419716.631 2 -14521507.13201      3714.410          44.200  
E01  28374376.125 5         0.00000      -313.400          25.200    28372265.574 4         0.00000      -230.650          21.300  
E03  24991445.172 4      9060.80109     -1303.806          31.900    24989321.149 2   1060914.22509      -973.619          29.600  
E07  27116969.799 3    -13937.33004      3075.586          38.600    27114846.666 2   -450416.00509      2296.843          30.300  
E08  22102408.517 4   -449848.34108      1528.213          34.000    22100283.883 2  -5344529.06409      1141.278          29.400  
E13  23793738.327 3   -419798.62203      1102.005          42.100    23791610.395 3         0.00000       824.350          26.100  
E15  23992327.441 3      4473.25404     -1026.614          38.500    23990200.713 1   2161877.80603      -765.653          35.600  
E21  27642697.552 3     21642.85305     -2063.885          36.900    27640574.715 2    644222.46609     -1542.169          34.900  
E26  26701215.517 4     -3561.85006      2232.301          36.200    26699093.588 2  -2261359.81704      1666.335          34.400  
E27  28438952.610 5         0.00000     -2556.000          28.100    28436829.477 4         0.00000     -1907.550          21.900  
G32         0.000 0         0.00000         0.000           0.000    25304885.076 3         0.00000      2689.000          22.100  
> 2020 06 25 00 35 16.4479704  0 23
G10  21691177.506 2  -7729985.77401      1930.071          43.000    21688832.528 1 -14152893.99402      1441.251          41.700  
G13  24117247.058 6         0.00000     -2294.150          22.200           0.000 0         0.00000         0.000           0.000  
G15  21962664.451 3    -12386.76509     -1497.835          37.300           0.000 0         0.00000         0.000           0.000  
G16  23223199.095 3    489776.57109      -823.169          40.200           0.000 0         0.00000         0.000           0.000  
G18  20698011.259 3    942050.87809      -755.870          39.100           0.000 0         0.00000         0.000           0.000  
G20  20158734.686 3  -1451191.63209       204.936          36.200           0.000 0         0.00000         0.000           0.000  
G21  21499934.794 2  -1603568.75301       987.459          41.600           0.000 0         0.00000         0.000           0.000  
G26  23601155.246 4    447311.75409     -2313.394          34.100    23598810.879 1   3885728.89903     -1727.285          36.000  
G27  23213261.580 3    -19343.10909      2973.221          36.700    23210916.602 1  -7189689.13103      2220.294          38.400  
G29  23170297.731 4   3463954.93309     -3420.316          34.000           0.000 0         0.00000         0.000           0.000  
R02  21353444.509 4         0.00000     -3490.550          31.200  
R18  19535817.526 3 -12708565.72002       883.506          36.900  
R17  20877116.577 4         0.00000     -2265.850          32.900  
R03  19217123.764 3 -10063417.64502       188.417          35.600  
R04  21419024.713 2 -14525228.52101      3723.769          45.300  
E03  24991694.605 5         0.00000     -1294.650          29.200    24989568.174 2         0.00000      -968.494          31.900  
E07  27116383.105 4    -17021.52809      3084.924          30.400    27114263.584 3         0.00000      2305.749          26.800  
E08  22102119.210 3   -451383.42104      1537.713          38.900    22099993.686 2  -5345675.18805      1149.259          32.900  
E13  23793527.581 3   -420900.32903      1098.392          40.700    23791402.353 2  -6915622.27905       821.572          33.700  
E15  23992516.619 3      5493.01405     -1018.126          37.600    23990395.283 1   2162639.36903      -758.837          37.300  
E21  27643089.676 3     23705.75605     -2066.252          37.400    27640966.246 2    645762.95605     -1541.368          33.600  
E26  26700790.412 4     -5791.01609      2224.455          30.500    26698671.781 3         0.00000      1664.650          23.500  
E27  28439436.470 5         0.00000     -2545.800          27.600           0.000 0         0.00000         0.000           0.000  
> 2020 06 25 00 35 17.4479704  0 24
G10  21690812.360 2  -7731912.97601      1927.045          43.200    21688466.178 1 -14154333.10402      1439.012          39.700  
G15  21962947.755 3    -10887.46709     -1500.462          36.700           0.000 0         0.00000         0.000           0.000  
G16  23223353.198 3    490606.12209      -832.115          40.800           0.000 0         0.00000         0.000           0.000  
G18  20698154.560 3    942809.18109      -758.844          38.700           0.000 0         0.00000         0.000           0.000  
G20  20158697.814 3  -1451393.07409       200.763          37.500           0.000 0         0.00000         0.000           0.000  
G21  21499748.931 2  -1604551.16001       980.212          41.900           0.000 0         0.00000         0.000           0.000  
G26  23601592.339 3    449628.29409     -2316.794          38.600    23599250.677 1   3887458.99303     -1730.328          36.400  
G27  23212715.057 4    -22310.60909      2964.026          30.900    23210352.402 1  -7191903.94003      2211.746          36.700  
G29  23170940.178 3   3467372.73909     -3414.296          35.600           0.000 0         0.00000         0.000           0.000  
G32  25305851.015 4   -137612.77009      3627.607          30.000           0.000 0         0.00000         0.000           0.000  
R02  21354118.139 5         0.00000     -3498.567          26.300  
R18  19535647.544 3 -12709445.38702       878.419          37.500  
R17  20877540.774 3   5172837.69609     -2263.748          40.000  
R03  19217084.483 4 -10063603.99503       186.700          34.800  
R04  21418331.590 2 -14528952.40701      3726.123          43.400  
E01  28374520.909 6         0.00000      -326.000          22.100    28372389.400 4         0.00000      -245.650          21.300  
E03  24991939.223 4     11661.15208     -1300.745          33.600    24989819.998 3         0.00000      -970.550          24.000  
E07  27115792.520 5         0.00000      3090.200          26.300    27113678.985 3         0.00000      2301.750          23.000  
E08  22101823.917 4   -452921.88606      1541.374          36.400    22099698.394 2  -5346824.04605      1150.727          32.300  
E13  23793318.911 4   -421993.88206      1092.779          36.000    23791194.294 3  -6916439.06909       815.653          28.000  
E15  23992712.079 3      6511.03005     -1017.237          37.200    23990588.352 1   2163399.53803      -758.802          37.500  
E21  27643481.800 4     25777.37208     -2073.448          34.500    27641359.871 2    647309.79909     -1547.365          30.700  
E26  26700369.810 4     -8007.93608      2213.765          33.000    26698246.083 3         0.00000      1665.229          26.400  
E27  28439920.644 5         0.00000     -2548.350          28.800           0.000 0         0.00000         0.000           0.000  
> 2020 06 25 00 35 18.4479704  0 24
G10  21690445.714 2  -7733844.63901      1931.529          43.600    21688098.624 1 -14155775.55803      1442.442          38.600  
G13  24118138.957 5         0.00000     -2304.908          27.000           0.000 0         0.00000         0.000           0.000  
G15  21963231.356 3     -9390.58801     -1497.340          40.400           0.000 0         0.00000         0.000           0.000  
G16  23223515.084 4    491436.21609      -832.278          33.800           0.000 0         0.00000         0.000           0.000  
G18  20698297.251 3    943564.69302      -755.926          37.700           0.000 0         0.00000         0.000           0.000  
G20  20158658.236 3  -1451597.12402       203.070          38.500           0.000 0         0.00000         0.000           0.000  
G21  21499558.550 2  -1605533.73301       980.551          41.600           0.000 0         0.00000         0.000           0.000  
G26  23602032.748 3    451940.79309     -2312.074          37.100    23599691.661 1   3889185.43403     -1726.354          36.500  
G27  23212133.162 4    -25272.97003      2959.051          34.800    23209787.887 2  -7194116.17104      2209.792          33.800  
G29  23171587.738 4   3470779.33203     -3403.330          34.700           0.000 0         0.00000         0.000           0.000  
G32  25305161.784 4   -141247.74004      3638.518          33.200           0.000 0         0.00000         0.000           0.000  
R02  21354753.100 4   7650580.79709     -3499.156          32.900  
R18  19535481.470 3 -12710326.55902       879.643          37.900  
R17  20877946.701 3   5175094.80701     -2255.809          39.800  
R03  19217049.408 4 -10063795.09603       190.890          32.100  
R04  21417628.277 3 -14532685.46001      3734.780          40.200  
E03  24992186.562 4     12957.98907     -1297.605          35.500    24990063.429 3   1063819.43609      -969.211          28.000  
E07  27115203.121 4     -1794.61909      3100.663          29.900    27113082.990 3         0.00000      2317.000          26.800  
E08  22101531.015 4   -454469.28507      1548.794          35.000    22099402.490 3  -5347979.50709      1157.075          28.500  
E13  23793109.055 4   -423087.78908      1091.761          33.900    23790985.031 4         0.00000       815.300          21.600  
E15  23992905.445 3      7522.52004     -1011.072          38.500    23990779.921 1   2164155.03503      -755.499          38.300  
E21  27643876.035 4     27846.31409     -2070.741          34.400    27641753.809 2    648854.89009     -1546.084          30.700  
E26  26699951.004 5         0.00000      2211.800          29.000           0.000 0         0.00000         0.000           0.000  
E27  28440397.610 5         0.00000     -2532.050          28.100           0.000 0         0.00000         0.000           0.000  
> 2020 06 25 00 35 19.4479704  0 25
G10  21690078.753 4  -7735773.14409      1928.986          34.400    21687731.681 2 -14157214.77809      1437.153          32.300  
G13  24118581.738 6         0.00000     -2315.900          22.400           0.000 0         0.00000         0.000           0.000  
G15  21963516.458 3     -7889.00401     -1503.745          40.200           0.000 0         0.00000         0.000           0.000  
G16  23223675.172 4         0.00000      -838.750          29.700           0.000 0         0.00000         0.000           0.000  
G18  20698446.555 3    944324.96502      -762.661          38.900           0.000 0         0.00000         0.000           0.000  
G20  20158622.272 3  -1451795.70509       195.116          37.200           0.000 0         0.00000         0.000           0.000  
G21  21499376.282 3  -1606508.70601       971.351          39.800           0.000 0         0.00000         0.000           0.000  
G26  23602478.827 4    454256.18109     -2317.468          34.300    23600132.052 1   3890914.84503     -1731.011          36.300  
G27  23211573.149 3    -28225.16602      2947.717          36.600    23209225.484 1  -7196320.66803      2201.095          36.100  
G29  23172248.473 4   3474183.66509     -3406.511          30.700           0.000 0         0.00000         0.000           0.000  
G32  25304460.582 4   -144885.31409      3637.059          33.100    25302121.589 3         0.00000      2720.374          25.200  
R02  21355410.258 4   7654085.66303     -3508.071          34.000  
R18  19535322.568 3 -12711201.23602       871.779          37.400  
R17  20878374.493 3   5177352.82401     -2258.618          39.300  
R03  19217013.443 4 -10063981.98309       182.225          30.700  
R04  21416929.465 3 -14536417.16509      3729.958          37.600  
E01  28374635.435 6         0.00000      -345.800          23.200    28372515.007 3         0.00000      -258.600          23.100  
E03  24992432.697 4     14260.28508     -1304.847          34.100    24990314.956 3         0.00000      -973.885          24.300  
E07  27114621.523 4     -4895.94009      3100.803          30.300    27112495.092 3   -459657.07409      2315.787          28.600  
E08  22101236.316 4   -456015.64809      1546.012          31.200    22099107.494 3  -5349134.34109      1156.029          28.400  
E13  23792902.200 4   -424173.94908      1083.327          34.400    23790785.069 3         0.00000       817.000          25.500  
E15  23993098.514 3      8537.11304     -1016.361          40.100    23990974.177 1   2164912.55702      -757.335          40.100  
E21  27644262.767 5         0.00000     -2083.750          27.500    27642149.528 3         0.00000     -1552.045          26.900  
E26  26699529.494 5         0.00000      2201.100          27.500    26697403.953 4         0.00000      1650.500          20.100  
E27  28440884.175 5         0.00000     -2537.300          25.200           0.000 0         0.00000         0.000           0.000  
> 2020 06 25 00 35 20.4479704  0 24
G10  21689716.015 3         0.00000      1918.350          40.100    21687365.331 1 -14158650.32009      1432.791          36.400  
G13  24118999.654 6         0.00000     -2307.300          23.000           0.000 0         0.00000         0.000           0.000  
G15  21963800.373 3     -6382.85401     -1508.633          39.800           0.000 0         0.00000         0.000           0.000  
G16  23223828.368 5         0.00000      -852.046          27.600           0.000 0         0.00000         0.000           0.000  
G18  20698592.857 3    945090.07102      -767.714          39.400           0.000 0         0.00000         0.000           0.000  
G20  20158581.490 4  -1451986.75209       188.377          35.400           0.000 0         0.00000         0.000           0.000  
G21  21499182.620 4  -1607475.64509       962.290          30.800           0.000 0         0.00000         0.000           0.000  
G26  23602918.329 4    456577.59109     -2324.385          34.300    23600573.944 1   3892648.32509     -1735.772          36.700  
G27  23211014.638 5         0.00000      2949.729          26.600    23208665.472 2         0.00000      2193.758          29.000  
G29  23172870.538 5         0.00000     -3406.151          26.500           0.000 0         0.00000         0.000           0.000  
G32  25303777.650 5         0.00000      3629.217          27.200           0.000 0         0.00000         0.000           0.000  
R02  21356060.802 4   7657596.83403     -3514.164          32.700  
R18  19535165.778 3 -12712069.75609       865.195          36.900  
R17  20878795.113 3   5179612.77902     -2261.632          38.000  
R03  19216976.257 4 -10064162.58509       180.760          29.100  
R04  21416241.141 2 -14540146.22001      3727.484          43.400  
E03  24992680.909 4     15566.96308     -1308.858          34.500    24990561.982 3         0.00000      -977.955          25.500  
E07  27114022.841 4     -7994.97009      3086.824          33.300    27111902.709 2   -461971.15609      2310.274          30.100  
E08  22100936.521 5         0.00000      1536.850          28.000    22098816.093 2  -5350287.36809      1151.286          29.200  
E13  23792695.641 5         0.00000      1083.300          28.700    23790575.824 3         0.00000       805.367          26.700  
E15  23993293.084 3      9554.57503     -1019.408          41.600    23991168.153 1   2165672.50902      -762.830          41.000  
E21  27644669.584 4         0.00000     -2088.600          30.200    27642545.857 2         0.00000     -1558.229          29.400  
E26  26699121.473 6         0.00000      2203.150          22.800           0.000 0         0.00000         0.000           0.000  
E27  28441370.146 4      1537.49809     -2540.919          31.100           0.000 0         0.00000         0.000           0.000  
> 2020 06 25 00 35 21.4479704  0 24
G10  21689346.961 3  -7739658.20209      1921.373          41.300    21686998.999 2 -14160082.74504      1434.830          34.600  
G15  21964092.071 3     -4874.13601     -1505.546          40.200           0.000 0         0.00000         0.000           0.000  
G16  23224002.556 4         0.00000      -854.903          29.300           0.000 0         0.00000         0.000           0.000  
G18  20698740.957 3    945858.31901      -764.945          40.100           0.000 0         0.00000         0.000           0.000  
G20  20158548.509 3  -1452175.65509       191.923          39.700           0.000 0         0.00000         0.000           0.000  
G21  21499004.540 3  -1608438.55409       966.051          38.000           0.000 0         0.00000         0.000           0.000  
G26  23603362.629 3    458902.98509     -2322.242          39.400    23601015.854 1   3894385.18002     -1734.190          39.000  
G27  23210455.219 5         0.00000      2940.750          26.300    23208106.053 2         0.00000      2194.450          29.200  
G29  23173529.494 4         0.00000     -3402.889          28.900           0.000 0         0.00000         0.000           0.000  
G32  25303110.912 6         0.00000      3638.550          22.200           0.000 0         0.00000         0.000           0.000  
R02  21356710.753 4         0.00000     -3513.100          29.100  
R18  19534991.608 3 -12712934.39001       867.717          39.000  
R17  20879213.011 3   5181873.77601     -2257.023          39.000  
R03  19216924.691 5         0.00000       181.942          27.700  
R04  21415542.627 2 -14543873.34501      3731.273          45.000  
E03  24992930.046 3     16876.42005     -1306.480          37.000    24990813.806 4         0.00000      -979.000          21.800  
E07  27113437.351 4         0.00000      3100.700          36.300    27111313.311 3   -464283.92509      2316.632          28.300  
E08  22100643.340 5         0.00000      1550.350          28.400    22098522.301 3         0.00000      1155.017          28.200  
E13  23792494.196 4   -426335.19409      1076.971          32.400    23790373.157 3         0.00000       797.289          23.300  
E15  23993486.746 3     10573.96304     -1016.005          39.900    23991362.113 1   2166433.67902      -757.548          40.100  
E21  27645064.116 4      3451.94406     -2085.094          36.400    27642941.872 2         0.00000     -1556.150          32.500  
E26  26698694.275 5         0.00000      2198.750          26.700    26696573.829 4         0.00000      1635.350          21.000  
E27  28441850.114 5         0.00000     -2538.300          29.100           0.000 0         0.00000         0.000           0.000  
E01         0.000 0         0.00000         0.000           0.000    28372649.915 3         0.00000      -265.550          22.700  
> 2020 06 25 00 35 22.4479704  0 23
G10  21688983.316 2  -7741581.97409      1921.618          42.000    21686633.853 1 -14161519.45303      1435.011          35.000  
G15  21964377.469 3     -3369.40901     -1509.189          39.600           0.000 0         0.00000         0.000           0.000  
G16  23224157.234 4    494822.75109      -851.530          33.500           0.000 0         0.00000         0.000           0.000  
G18  20698883.054 3    946621.99901      -767.529          40.200           0.000 0         0.00000         0.000           0.000  
G20  20158510.451 3  -1452368.98709       189.783          40.400           0.000 0         0.00000         0.000           0.000  
G21  21498823.459 3  -1609405.92109       963.739          40.600           0.000 0         0.00000         0.000           0.000  
G26  23603797.628 3    461222.95009     -2321.809          39.900    23601458.042 1   3896117.60502     -1733.805          38.800  
G27  23209895.817 4    -37072.89509      2936.045          35.300    23207547.245 1  -7202906.05803      2192.293          34.800  
G29  23174179.741 5         0.00000     -3396.443          27.800           0.000 0         0.00000         0.000           0.000  
R02  21357377.788 4   7664631.40904     -3516.832          31.300  
R18  19534834.207 3 -12713802.97301       864.236          40.000  
R17  20879644.119 3   5184128.57002     -2257.825          37.800  
R03  19216910.312 4 -10064525.26904       179.856          30.500  
R04  21414843.501 2 -14547607.79101      3732.908          44.300  
E01  28374851.294 5         0.00000      -359.450          25.700    28372718.860 2         0.00000      -272.933          30.100  
E03  24993177.979 4     18181.58807     -1308.924          34.800    24991057.847 3         0.00000      -979.500          25.000  
E07  27112844.061 5         0.00000      3102.800          26.100           0.000 0         0.00000         0.000           0.000  
E08  22100357.035 4   -460648.00209      1546.147          31.000    22098226.712 3         0.00000      1152.310          28.200  
E13  23792288.231 4   -427413.96906      1075.044          36.300    23790167.506 3         0.00000       802.300          24.100  
E15  23993678.018 3     11587.84604     -1016.924          39.600    23991554.885 1   2167190.87902      -761.858          39.900  
E21  27645460.131 3      5534.21305     -2084.498          36.800    27643338.498 2    655073.70905     -1558.204          31.800  
E26  26698271.264 5         0.00000      2191.050          25.900    26696149.631 3         0.00000      1632.250          22.200  
E27  28442330.379 4         0.00000     -2533.150          31.100           0.000 0         0.00000         0.000           0.000  
> 2020 06 25 00 35 23.4479704  0 25
G10  21688618.763 2  -7743505.37609      1926.566          43.100    21686268.097 1 -14162955.78103      1438.751          36.700  
G13  24120319.344 5         0.00000     -2313.750          25.600           0.000 0         0.00000         0.000           0.000  
G15  21964662.571 3     -1859.49702     -1509.140          39.000           0.000 0         0.00000         0.000           0.000  
G16  23224323.029 4    495673.40009      -847.799          33.600           0.000 0         0.00000         0.000           0.000  
G18  20699027.560 3    947389.80901      -766.436          40.300           0.000 0         0.00000         0.000           0.000  
G20  20158475.969 3  -1452559.68409       192.849          39.900           0.000 0         0.00000         0.000           0.000  
G21  21498639.691 2  -1610369.69209       965.418          41.500           0.000 0         0.00000         0.000           0.000  
G26  23604244.912 3    463542.19909     -2316.078          35.600    23601899.934 1   3897849.38203     -1729.077          36.900  
G27  23209333.397 3    -40008.56609      2936.651          36.600    23206988.419 1  -7205098.37503      2192.814          35.400  
G29  23174839.289 5         0.00000     -3393.400          23.700           0.000 0         0.00000         0.000           0.000  
G32  25301696.781 6         0.00000      3641.150          21.300           0.000 0         0.00000         0.000           0.000  
R02  21358025.051 4   7668149.47204     -3517.605          30.600  
R18  19534673.525 3 -12714667.32401       865.693          39.700  
R17  20880065.036 3   5186385.75502     -2254.803          35.900  
R03  19216881.520 4 -10064706.01703       182.916          32.100  
R04  21414148.895 2 -14551343.48001      3739.908          42.300  
E01  28374917.239 5         0.00000      -358.250          27.700    28372787.824 3         0.00000      -269.022          26.300  
E03  24993428.599 4     19491.76507     -1309.256          34.900    24991303.965 3         0.00000      -972.600          22.500  
E07  27112252.569 5         0.00000      3108.850          29.300    27110130.640 3         0.00000      2322.900          23.300  
E08  22100062.335 5         0.00000      1550.500          28.800    22097931.716 3         0.00000      1158.360          27.700  
E13  23792085.878 3   -428488.86805      1076.364          37.200           0.000 0         0.00000         0.000           0.000  
E15  23993874.979 3     12604.96504     -1015.497          39.900    23991748.251 1   2167950.26403      -756.878          38.900  
E21  27645859.165 4      7616.96809     -2079.040          34.800    27643735.735 2    656629.27809     -1553.267          29.700  
E26  26697859.648 5         0.00000      2190.650          26.600    26695746.409 4         0.00000      1632.000          21.200  
E27  28442808.847 5         0.00000     -2533.100          25.500           0.000 0         0.00000         0.000           0.000  
> 2020 06 25 00 35 24.4479704  0 24
G10  21688248.225 3         0.00000      1926.000          40.500    21685902.357 1 -14164392.96509      1437.590          38.200  
G13  24120808.596 5         0.00000     -2328.450          25.600           0.000 0         0.00000         0.000           0.000  
G15  21964951.878 3      -346.97109     -1514.916          36.900           0.000 0         0.00000         0.000           0.000  
G16  23224481.023 4         0.00000      -847.250          31.100           0.000 0         0.00000         0.000           0.000  
G18  20699172.658 3    948158.99301      -771.044          40.600           0.000 0         0.00000         0.000           0.000  
G20  20158436.392 3  -1452749.92201       189.626          40.500           0.000 0         0.00000         0.000           0.000  
G21  21498457.423 2  -1611332.29701       961.756          41.500           0.000 0         0.00000         0.000           0.000  
G26  23604684.099 3    465857.79409     -2314.739          35.600    23602340.325 1   3899578.68103     -1728.652          36.600  
G27  23208782.685 3    -42942.29202      2932.621          36.600    23206430.518 2  -7207289.54104      2189.912          34.300  
G29  23175475.734 5         0.00000     -3392.704          26.600           0.000 0         0.00000         0.000           0.000  
G32  25300999.471 5         0.00000      3653.422          26.600           0.000 0         0.00000         0.000           0.000  
R02  21358702.573 4   7671670.92503     -3523.950          34.700  
R18  19534509.545 3 -12715530.00801       860.779          39.200  
R17  20880485.342 3   5188642.62202     -2258.259          36.200  
R03  19216850.947 4 -10064886.66309       179.300          31.900  
R04  21413449.770 2 -14555083.57301      3740.513          43.300  
E01  28374991.891 5         0.00000      -366.250          25.800    28372856.769 3         0.00000      -271.929          25.700  
E03  24993680.719 4     20804.17708     -1314.577          33.200    24991553.695 3         0.00000      -979.800          24.000  
E07  27111668.580 5         0.00000      3110.750          28.900    27109539.444 3         0.00000      2321.861          24.200  
E08  22099766.746 4   -463745.62508      1548.744          33.200    22097636.109 3         0.00000      1156.763          27.300  
E13  23791882.618 3   -429563.11504      1072.720          37.800    23789755.576 3         0.00000       807.450          22.300  
E15  23994065.047 3     13622.26104     -1018.764          40.600    23991941.617 1   2168710.10703      -762.059          38.700  
E21  27646251.882 4      9694.72809     -2077.446          33.100    27644131.157 2    658183.61109     -1554.237          29.300  
E26  26697459.724 6         0.00000      2191.900          23.200    26695315.005 4         0.00000      1626.150          21.900  
> 2020 06 25 00 35 25.4479704  0 25
G10  21687881.875 2  -7747348.70309      1925.390          41.500    21685536.304 1 -14165830.39402      1437.710          39.900  
G13  24121249.597 5         0.00000     -2335.550          26.300           0.000 0         0.00000         0.000           0.000  
G15  21965244.169 3      1171.81502     -1520.551          38.700           0.000 0         0.00000         0.000           0.000  
G16  23224640.797 4    497384.35009      -851.916          34.300           0.000 0         0.00000         0.000           0.000  
G18  20699322.852 3    948932.97801      -775.193          40.000           0.000 0         0.00000         0.000           0.000  
G20  20158399.816 3  -1452937.54501       187.481          39.800           0.000 0         0.00000         0.000           0.000  
G21  21498272.154 3  -1612291.83601       959.187          41.200           0.000 0         0.00000         0.000           0.000  
G26  23605125.397 4    468173.48109     -2315.425          34.600    23602780.716 1   3901307.93003     -1728.021          35.900  
G27  23208226.564 4    -45874.12109      2931.508          30.800    23205873.804 2  -7209477.96309      2188.804          30.400  
G29  23176112.196 4   3494574.58409     -3396.792          29.800           0.000 0         0.00000         0.000           0.000  
G32  25300306.959 4   -166709.28409      3652.894          30.000           0.000 0         0.00000         0.000           0.000  
R02  21359357.026 4   7675198.95103     -3529.995          34.500  
R18  19534345.252 3 -12716387.95602       857.138          38.300  
R17  20880899.051 3   5190903.63902     -2262.140          37.300  
R03  19216814.668 4 -10065064.07309       176.469          33.200  
R04  21412753.960 2 -14558823.22601      3740.442          44.500  
E01  28375056.352 5         0.00000      -363.200          24.700    28372928.123 3         0.00000      -273.350          26.800  
E03  24993927.151 4     22122.59108     -1319.981          33.500    24991805.222 3   1070663.50009      -985.865          28.200  
E07  27111066.582 4     -7986.78708      3113.785          34.600    27108946.765 2         0.00000      2323.771          30.100  
E08  22099467.545 4   -465292.76206      1547.436          35.700    22097343.522 3         0.00000      1154.864          27.800  
E13  23791675.763 3   -430633.35205      1070.275          37.100    23789553.520 3         0.00000       798.450          26.200  
E15  23994260.506 3     14644.31104     -1022.948          39.800    23992135.279 1   2169473.21503      -765.031          36.800  
E21  27646650.916 4     11775.55809     -2082.543          31.000    27644525.375 3         0.00000     -1553.950          28.600  
E26  26697026.226 6         0.00000      2192.650          24.200    26694903.093 4         0.00000      1633.900          21.900  
E27  28443778.974 5         0.00000     -2522.400          27.900           0.000 0         0.00000         0.000           0.000  
> 2020 06 25 00 35 26.4479704  0 25
G10  21687515.840 3  -7749277.91309      1930.474          40.500    21685169.658 1 -14167271.06002      1441.431          40.400  
G13  24121671.701 5         0.00000     -2336.468          27.800           0.000 0         0.00000         0.000           0.000  
G15  21965532.272 3      2691.13502     -1520.159          38.900           0.000 0         0.00000         0.000           0.000  
G16  23224808.389 3    498232.45909      -847.227          39.900           0.000 0         0.00000         0.000           0.000  
G18  20699471.842 3    949706.24802      -773.529          38.600           0.000 0         0.00000         0.000           0.000  
G20  20158368.947 3  -1453127.56601       190.437          39.900           0.000 0         0.00000         0.000           0.000  
G21  21498090.777 2  -1613253.70601       962.312          42.300           0.000 0         0.00000         0.000           0.000  
G26  23605559.506 3    470483.55909     -2308.671          36.000    23603219.921 1   3903033.37109     -1724.027          35.400  
G27  23207653.970 3    -48807.09909      2933.504          35.700    23205315.292 1  -7211668.01703      2190.381          35.000  
G29  23176764.851 4   3497968.00609     -3393.052          31.900           0.000 0         0.00000         0.000           0.000  
G32  25299605.739 4   -170366.50709      3659.120          32.300           0.000 0         0.00000         0.000           0.000  
R02  21360011.776 4   7678727.39909     -3529.183          32.800  
R18  19534190.555 3 -12717246.93802       858.848          38.500  
R17  20881334.940 3   5193163.74501     -2260.227          39.000  
R03  19216782.001 4 -10065242.05103       178.673          33.800  
R04  21412053.333 2 -14562567.68601      3745.743          45.800  
E03  24994181.977 4     23441.10307     -1318.861          35.500    24992056.157 3   1071648.01309      -984.925          28.500  
E07  27110475.404 4    -11104.96409      3119.274          34.600    27108353.161 2   -475893.20409      2329.647          29.000  
E08  22099174.049 4   -466842.61206      1549.873          36.100    22097048.229 2  -5357220.77009      1157.875          29.400  
E13  23791472.189 3   -431705.87604      1072.529          38.500    23789348.463 3  -6923675.03409       801.297          28.800  
E15  23994455.670 3     15665.22904     -1021.119          38.600    23992329.238 1   2170235.64203      -761.471          37.400  
E21  27647044.541 4     13859.47909     -2079.854          35.500    27644922.315 2    661287.49905     -1547.501          32.600  
E26  26696615.814 6         0.00000      2192.750          23.600    26694486.085 4         0.00000      1638.500          21.100  
E27  28444252.643 4      4053.19708     -2515.879          33.100           0.000 0         0.00000         0.000           0.000  
E01         0.000 0         0.00000         0.000           0.000    28372997.977 3         0.00000      -269.051          25.500  
> 2020 06 25 00 35 27.4479704  0 25
G10  21687149.193 2  -7751206.87409      1927.807          42.700    21684801.807 1 -14168711.49202      1439.592          41.400  
G13  24122118.688 4     10369.07709     -2342.966          30.000           0.000 0         0.00000         0.000           0.000  
G15  21965824.267 3      4214.71402     -1526.248          36.800           0.000 0         0.00000         0.000           0.000  
G16  23224968.181 3    499080.82709      -849.286          39.200           0.000 0         0.00000         0.000           0.000  
G18  20699617.237 3    950482.52302      -778.431          38.300           0.000 0         0.00000         0.000           0.000  
G20  20158330.260 3  -1453315.75201       186.516          39.600           0.000 0         0.00000         0.000           0.000  
G21  21497904.601 2  -1614213.79001       958.459          42.900           0.000 0         0.00000         0.000           0.000  
G26  23606004.086 3    472793.64809     -2310.712          37.900    23603658.515 1   3904758.05209     -1724.314          35.000  
G27  23207105.039 4    -51738.18109      2928.610          32.100    23204757.967 1  -7213856.88803      2187.684          36.900  
G29  23177419.601 4   3501363.12409     -3396.399          33.400           0.000 0         0.00000         0.000           0.000  
G32  25298907.818 4   -174023.77609      3655.762          32.100    25296573.031 3         0.00000      2720.268          23.700  
R02  21360683.906 4   7682259.96104     -3535.403          30.800  
R18  19534024.168 3 -12718103.00002       853.951          38.500  
R17  20881755.857 3   5195426.82401     -2265.289          40.400  
R03  19216752.318 4 -10065418.06403       173.967          33.900  
R04  21411353.021 2 -14566311.80801      3743.328          44.100  
E01  28375199.653 6         0.00000      -372.450          21.000    28373066.329 3         0.00000      -276.850          25.200  
E03  24994432.597 4     24763.53908     -1324.914          34.200    24992307.981 3   1072635.59509      -989.539          28.100  
E07  27109882.410 4    -14222.09609      3116.469          34.400    27107760.481 2   -478221.56205      2328.893          31.900  
E08  22098882.945 3   -468390.55804      1546.371          38.100    22096754.123 2  -5358376.64509      1154.615          29.500  
E13  23791271.041 3   -432776.40804      1068.934          38.800    23789145.499 2  -6924474.43609       798.033          29.900  
E15  23994648.442 3     16689.25504     -1026.116          37.800    23992524.419 1   2171000.27103      -765.676          37.000  
E21  27647440.259 3     15935.44109     -2076.169          38.200    27645316.533 2    662837.41605     -1549.913          32.900  
E26  26696191.599 5         0.00000      2192.500          26.100    26694067.873 3         0.00000      1636.600          25.600  
E27  28444722.420 6         0.00000     -2515.450          23.800           0.000 0         0.00000         0.000           0.000  
> 2020 06 25 00 35 28.4479704  0 25
G10  21686782.843 3  -7753135.60609      1929.260          40.800    21684434.567 1 -14170152.17702      1441.179          40.600  
G13  24122565.379 3     12712.58009     -2345.342          35.900           0.000 0         0.00000         0.000           0.000  
G15  21966109.072 4      5741.45903     -1528.421          35.300           0.000 0         0.00000         0.000           0.000  
G16  23225125.861 3    499929.94009      -849.157          37.500           0.000 0         0.00000         0.000           0.000  
G18  20699768.932 3    951260.93902      -779.298          38.700           0.000 0         0.00000         0.000           0.000  
G20  20158293.701 3  -1453502.84202       187.002          38.800           0.000 0         0.00000         0.000           0.000  
G21  21497725.317 2  -1615172.83801       958.767          42.100           0.000 0         0.00000         0.000           0.000  
G26  23606446.885 4    475104.19509     -2309.631          32.600    23604099.516 1   3906482.28409     -1724.554          34.700  
G27  23206538.744 4         0.00000      2930.250          29.200    23204200.049 1  -7216044.92903      2187.595          37.400  
G29  23178066.847 4   3504758.80109     -3395.833          34.300           0.000 0         0.00000         0.000           0.000  
G32  25298215.899 4   -177681.95209      3659.912          32.800    25295876.314 3         0.00000      2731.950          23.300  
R02  21361345.845 4   7685795.69909     -3537.281          29.400  
R18  19533869.471 3 -12718956.99702       853.079          38.400  
R17  20882176.163 3   5197692.04302     -2266.046          37.600  
R03  19216705.848 4 -10065592.22003       173.535          34.700  
R04  21410658.398 2 -14570056.67001      3745.447          45.000  
E01  28375262.596 6         0.00000      -368.050          23.000    28373136.776 2         0.00000      -273.836          30.800  
E03  24994685.922 4     26088.65808     -1326.386          32.800    24992560.398 2   1073625.16409      -990.354          29.000  
E07  27109287.026 4    -17341.34309      3119.676          33.700    27107166.581 2   -480551.04705      2331.674          32.800  
E08  22098589.153 3   -469937.75604      1546.842          38.800    22096458.830 2  -5359532.06209      1155.857          30.200  
E13  23791068.374 3   -433845.93704      1068.607          38.600    23788940.442 2  -6925272.03209       799.285          30.100  
E15  23994840.901 3     17715.22305     -1026.774          37.600    23992720.176 1   2171766.43603      -765.931          37.600  
E21  27647833.291 4     18010.43409     -2075.561          32.600    27645711.362 2    664386.75809     -1547.523          29.300  
E26  26695777.296 4     -1251.48009      2190.445          31.800    26693651.755 3         0.00000      1636.627          24.500  
E27  28445215.284 4      1512.29407     -2513.520          34.700           0.000 0         0.00000         0.000           0.000  
> 2020 06 25 00 35 29.4479704  0 25
G10  21686418.291 3  -7755061.76809      1922.737          40.600    21684068.217 1 -14171590.52402      1435.935          40.900  
G13  24123014.181 3     15063.91809     -2356.551          37.000           0.000 0         0.00000         0.000           0.000  
G15  21966405.865 4      7275.44404     -1539.285          32.300           0.000 0         0.00000         0.000           0.000  
G16  23225288.061 3    500782.21609      -855.558          37.500           0.000 0         0.00000         0.000           0.000  
G18  20699915.235 3    952045.31701      -789.011          39.900           0.000 0         0.00000         0.000           0.000  
G20  20158258.016 3  -1453685.29602       178.186          38.500           0.000 0         0.00000         0.000           0.000  
G21  21497542.753 3  -1616127.22701       950.496          41.300           0.000 0         0.00000         0.000           0.000  
G26  23606884.589 4    477414.98709     -2314.229          34.200    23604539.611 1   3908207.82003     -1727.754          36.900  
G27  23205986.811 4         0.00000      2920.999          29.000    23203643.038 1  -7218229.38109      2181.583          34.800  
G29  23178709.608 4   3508158.75409     -3404.056          33.500           0.000 0         0.00000         0.000           0.000  
G32  25297519.182 4   -181338.78009      3653.334          30.900           0.000 0         0.00000         0.000           0.000  
R02  21361983.197 4   7689338.58709     -3547.818          29.200  
R18  19533703.398 3 -12719804.99802       843.170          37.200  
R17  20882590.780 3   5199963.18702     -2275.914          35.900  
R03  19216700.456 3 -10065760.83602       164.095          35.700  
R04  21409955.992 2 -14573798.82201      3738.991          45.200  
E03  24994944.342 4     27420.72009     -1336.670          31.200    24992813.723 3   1074619.90109      -998.934          28.500  
E07  27108694.923 4    -20458.85706      3114.687          36.500    27106573.308 2   -482878.86904      2324.308          34.000  
E08  22098294.157 3   -471480.46404      1538.582          39.600    22096168.337 2  -5360684.07305      1147.561          31.300  
E13  23790862.426 3   -434910.45104      1060.725          38.600    23788738.386 2  -6926066.96509       790.382          30.200  
E15  23995040.863 3     18747.12604     -1036.181          38.400    23992916.543 1   2172537.04003      -775.469          36.900  
E21  27648232.011 4     20087.09409     -2079.631          34.600    27646107.691 3         0.00000     -1553.576          27.400  
E26  26695351.877 5         0.00000      2182.650          27.700           0.000 0         0.00000         0.000           0.000  
E27  28445689.546 4      4029.90909     -2521.689          34.200           0.000 0         0.00000         0.000           0.000  
E01         0.000 0         0.00000         0.000           0.000    28373208.426 3         0.00000      -275.300          22.300  
> 2020 06 25 00 35 30.4479704  0 25
G10  21686048.346 2  -7756985.01401      1923.835          41.700    21683701.868 1 -14173027.08702      1436.579          41.700  
G13  24123461.762 4     17421.42603     -2357.753          34.500           0.000 0         0.00000         0.000           0.000  
G15  21966706.550 4         0.00000     -1540.669          29.400           0.000 0         0.00000         0.000           0.000  
G16  23225452.651 3    501637.73802      -854.181          38.700           0.000 0         0.00000         0.000           0.000  
G18  20700063.631 3    952834.58201      -789.509          39.800           0.000 0         0.00000         0.000           0.000  
G20  20158227.740 3  -1453863.99002       178.508          38.300           0.000 0         0.00000         0.000           0.000  
G21  21497363.173 2  -1617078.15501       951.305          41.900           0.000 0         0.00000         0.000           0.000  
G26  23607324.072 4    479729.08509     -2312.878          34.400    23604979.705 1   3909934.73703     -1726.789          37.900  
G27  23205437.304 4    -60509.96909      2924.454          30.100    23203086.620 1  -7220411.69909      2183.049          36.300  
G29  23179352.666 4         0.00000     -3405.800          30.200           0.000 0         0.00000         0.000           0.000  
G32  25296827.560 4   -184993.14303      3654.164          34.100           0.000 0         0.00000         0.000           0.000  
R02  21362665.535 5         0.00000     -3548.758          27.700  
R18  19533546.607 3 -12720648.33602       843.070          37.300  
R17  20883030.281 4   5202239.85709     -2277.445          32.200  
R03  19216641.091 3 -10065924.88002       163.310          35.200  
R04  21409258.070 2 -14577538.04601      3738.973          45.600  
E03  24995191.071 4     28758.69309     -1338.338          31.500    24993069.752 2   1075618.98709      -999.283          29.500  
E07  27108105.245 4    -23573.51406      3114.524          35.900    27105982.409 2   -485204.77504      2325.055          34.000  
E08  22098001.866 3   -473018.89704      1537.684          39.500    22095874.841 2  -5361832.97805      1147.570          32.300  
E13  23790661.260 3   -435971.41904      1061.102          39.600    23788535.422 2  -6926859.37805       791.603          32.500  
E15  23995236.933 3     19784.09005     -1037.612          37.300    23993114.097 1   2173311.34403      -775.678          36.500  
E21  27648625.949 4     22165.52809     -2077.953          36.500    27646503.706 3    667489.77209     -1551.529          28.500  
E26  26694941.762 4     -5623.70809      2186.040          29.700           0.000 0         0.00000         0.000           0.000  
E27  28446170.718 4      6548.70609     -2519.001          32.900           0.000 0         0.00000         0.000           0.000  
E01         0.000 0         0.00000         0.000           0.000    28373280.077 3         0.00000      -275.750          23.200  
> 2020 06 25 00 35 31.4479704  0 25
G10  21685680.513 2  -7758908.41401      1925.212          41.800    21683335.832 1 -14174463.39602      1437.745          40.800  
G13  24123915.345 3     19778.45202     -2352.847          35.500           0.000 0         0.00000         0.000           0.000  
G15  21966998.858 4     10356.30409     -1537.840          30.200           0.000 0         0.00000         0.000           0.000  
G16  23225619.022 3    502491.85302      -851.113          38.800           0.000 0         0.00000         0.000           0.000  
G18  20700214.122 3    953623.93301      -785.956          40.300           0.000 0         0.00000         0.000           0.000  
G20  20158191.461 3  -1454042.71802       181.659          38.800           0.000 0         0.00000         0.000           0.000  
G21  21497179.108 3  -1618030.15001       955.656          41.400           0.000 0         0.00000         0.000           0.000  
G26  23607765.982 3    482041.81009     -2311.103          36.500    23605418.893 1   3911661.80503     -1725.764          37.300  
G27  23204875.197 4    -63435.53009      2929.553          30.700    23202530.220 1  -7222595.34303      2186.582          37.300  
G29  23180005.008 4   3514967.97009     -3405.422          31.500           0.000 0         0.00000         0.000           0.000  
G32  25296126.951 4   -188646.13909      3653.457          29.900           0.000 0         0.00000         0.000           0.000  
R02  21363329.272 5         0.00000     -3544.196          26.200  
R18  19533391.615 3 -12721491.79802       847.187          36.700  
R17  20883453.275 4   5204518.43609     -2275.607          29.200  
R03  19216628.195 4 -10066087.79603       165.182          34.600  
R04  21408555.367 2 -14581275.58801      3738.421          45.700  
E03  24995449.805 4     30096.94208     -1335.032          33.100    24993323.077 2   1076618.26805      -995.415          31.900  
E07  27107511.345 3    -26686.81705      3114.012          36.700    27105389.712 2   -487529.68805      2326.942          33.800  
E08  22097711.669 3   -474555.82704      1538.228          39.600    22095581.940 2  -5362980.64005      1150.059          33.400  
E13  23790460.705 3   -437033.51504      1065.476          40.200    23788333.070 2  -6927652.44905       796.845          33.500  
E15  23995435.691 4     20821.81506     -1035.084          36.100    23993311.372 1   2174086.24203      -771.982          36.600  
E21  27649020.167 4     24243.47007     -2075.735          35.300    27646894.940 3         0.00000     -1549.355          27.800  
E26  26694525.051 5         0.00000      2192.800          28.000    26692403.419 3         0.00000      1638.800          25.000  
E27  28446658.469 5         0.00000     -2519.500          27.300           0.000 0         0.00000         0.000           0.000  
E01         0.000 0         0.00000         0.000           0.000    28373349.633 3         0.00000      -285.609          23.800  
> 2020 06 25 00 35 32.4479704  0 25
G10  21685318.962 2  -7760828.74401      1914.215          41.600    21682970.686 1 -14175897.40902      1429.511          41.100  
G13  24124355.754 4     22131.06303     -2352.477          34.800           0.000 0         0.00000         0.000           0.000  
G15  21967278.865 4     11895.28409     -1540.816          33.500           0.000 0         0.00000         0.000           0.000  
G16  23225777.627 3    503346.33401      -858.458          40.000           0.000 0         0.00000         0.000           0.000  
G18  20700364.927 3    954411.45402      -789.614          39.300           0.000 0         0.00000         0.000           0.000  
G20  20158158.480 3  -1454221.18901       174.956          39.500           0.000 0         0.00000         0.000           0.000  
G21  21496996.823 2  -1618984.17701       951.976          42.100           0.000 0         0.00000         0.000           0.000  
G26  23608201.277 3    484358.43209     -2323.583          36.900    23605858.987 1   3913391.71803     -1735.081          36.700  
G27  23204312.480 4    -66363.91709      2927.166          31.100    23201972.301 1  -7224781.40203      2185.357          36.500  
G29  23180652.864 4   3518379.54109     -3419.034          32.300           0.000 0         0.00000         0.000           0.000  
G32  25295415.541 6         0.00000      3639.450          22.800           0.000 0         0.00000         0.000           0.000  
R02  21363988.820 4   7699980.16809     -3543.931          29.700  
R18  19533251.315 3 -12722337.02402       843.367          36.700  
R17  20883877.489 4   5206798.57103     -2285.023          33.900  
R03  19216592.823 4 -10066249.09403       156.937          34.500  
R04  21407862.838 2 -14585006.99801      3722.877          45.900  
E03  24995694.126 5         0.00000     -1335.550          29.100    24993576.402 3         0.00000      -999.252          28.300  
E07  27106917.461 4    -29793.50606      3098.256          36.000    27104798.830 2   -489849.57804      2312.116          34.300  
E08  22097417.266 3   -476089.32004      1527.554          39.200    22095290.538 2  -5364125.70705      1138.966          33.800  
E13  23790255.037 3   -438097.81404      1062.668          39.500    23788130.717 2  -6928447.17204       792.419          34.100  
E15  23995632.355 3     21859.35005     -1040.606          37.100    23993509.222 1   2174861.08203      -778.459          38.300  
E21  27649411.994 4     26323.46909     -2085.487          31.500    27647290.362 3         0.00000     -1557.654          25.500  
E26  26694108.951 4    -10000.88309      2188.190          30.800    26691985.818 3         0.00000      1631.940          28.800  
E27  28447129.154 5         0.00000     -2531.650          25.000           0.000 0         0.00000         0.000           0.000  
E01         0.000 0         0.00000         0.000           0.000    28373420.080 3         0.00000      -279.500          24.100  
> 2020 06 25 00 35 33.4479704  0 23
G10  21684952.909 2  -7762742.80001      1913.397          41.600    21682606.134 1 -14177326.73302      1428.868          40.700  
G13  24124800.036 3     24475.87202     -2337.985          35.800           0.000 0         0.00000         0.000           0.000  
G15  21967573.861 3     13430.48909     -1530.681          35.700           0.000 0         0.00000         0.000           0.000  
G16  23225939.512 3    504202.24102      -853.862          39.400           0.000 0         0.00000         0.000           0.000  
G18  20700517.215 3    955196.29302      -780.849          38.800           0.000 0         0.00000         0.000           0.000  
G20  20158121.904 3  -1454398.95302       179.955          39.400           0.000 0         0.00000         0.000           0.000  
G21  21496816.353 2  -1619941.05501       961.079          41.800           0.000 0         0.00000         0.000           0.000  
G26  23608647.968 3    486683.01809     -2326.044          37.100    23606301.193 2   3915127.66004     -1736.983          34.200  
G27  23203758.471 4    -69296.18109      2937.785          30.200    23201414.976 1  -7226971.23103      2193.807          38.200  
G29  23181304.613 4   3521800.65009     -3423.651          34.200           0.000 0         0.00000         0.000           0.000  
R02  21364679.535 4         0.00000     -3529.480          28.700  
R18  19533084.020 3 -12723185.27702       852.477          36.000  
R17  20884307.096 3   5209082.39702     -2283.119          36.400  
R03  19216553.560 4 -10066407.85903       159.812          33.500  
R04  21407164.917 2 -14588726.72501      3716.271          46.200  
E03  24995958.845 5         0.00000     -1325.900          29.200    24993830.024 3         0.00000      -990.436          26.000  
E07  27106331.361 4    -32887.35509      3089.753          33.900    27104209.135 2   -492159.96305      2307.800          32.900  
E08  22097125.865 3   -477616.18404      1525.803          39.100    22094999.748 2  -5365265.97005      1140.274          33.200  
E13  23790054.185 3   -439165.31004      1071.629          38.200    23787928.347 2  -6929244.39805       800.928          33.300  
E15  23995829.316 3     22896.94804     -1035.257          37.700    23993707.090 1   2175635.85103      -772.283          37.800  
E21  27649816.717 4     28408.16309     -2084.801          31.300    27647688.489 3         0.00000     -1556.204          26.700  
E26  26693688.034 5         0.00000      2196.950          26.700           0.000 0         0.00000         0.000           0.000  
E01         0.000 0         0.00000         0.000           0.000    28373488.136 3         0.00000      -268.915          23.900  
> 2020 06 25 00 35 34.4479704  0 23
G10  21684591.951 3  -7764652.06601      1906.528          41.400    21682243.378 1 -14178752.49902      1423.720          39.900  
G13  24125254.824 4     26810.39003     -2330.082          34.500           0.000 0         0.00000         0.000           0.000  
G15  21967872.155 3     14960.39809     -1528.251          36.600           0.000 0         0.00000         0.000           0.000  
G16  23226107.698 3    505057.09901      -854.549          39.800           0.000 0         0.00000         0.000           0.000  
G18  20700663.518 3    955976.58102      -778.873          39.100           0.000 0         0.00000         0.000           0.000  
G20  20158090.127 3  -1454577.71101       178.744          39.500           0.000 0         0.00000         0.000           0.000  
G21  21496635.882 2  -1620903.20301       964.164          42.100           0.000 0         0.00000         0.000           0.000  
G26  23609088.656 3    489014.07809     -2334.664          38.200    23606744.882 1   3916868.43503     -1743.602          34.800  
G27  23203197.254 4    -72236.63809      2944.031          31.200    23200855.871 1  -7229167.02903      2198.519          38.000  
G29  23181955.453 4   3525230.96609     -3435.945          34.400           0.000 0         0.00000         0.000           0.000  
R02  21365323.186 5         0.00000     -3522.030          27.500  
R18  19532915.241 3 -12724038.44402       855.041          35.500  
R17  20884730.700 3   5211369.12802     -2289.007          36.100  
R03  19216536.162 4 -10066565.26203       156.077          32.900  
R04  21406477.500 2 -14592435.39901      3702.738          45.000  
E03  24996203.777 5         0.00000     -1323.950          29.300    24994083.942 3         0.00000      -988.670          23.200  
E07  27105744.667 4    -35969.55409      3077.423          30.600    27103622.145 2   -494461.16709      2297.004          29.800  
E08  22096835.965 3   -479137.18704      1517.191          38.900    22094711.348 2  -5366401.81705      1133.804          33.800  
E13  23789850.610 3   -440238.46004      1075.345          38.200    23787723.586 2  -6930045.81105       803.638          33.600  
E15  23996025.387 3     23933.45804     -1037.278          38.000    23993904.662 1   2176409.81303      -773.730          38.100  
E21  27650216.938 5         0.00000     -2085.650          27.400    27648087.819 3         0.00000     -1559.933          25.400  
E26  26693277.326 5         0.00000      2200.450          27.100    26691151.488 4         0.00000      1643.600          21.000  
E27  28448101.986 5         0.00000     -2556.850          26.100           0.000 0         0.00000         0.000           0.000  
> 2020 06 25 00 35 35.4479704  0 23
G10  21684226.805 3  -7766555.43101      1899.325          40.200    21681880.937 1 -14180173.82203      1418.388          38.000  
G13  24125688.322 4     29135.94003     -2322.228          33.800           0.000 0         0.00000         0.000           0.000  
G15  21968155.755 3     16486.44909     -1525.156          37.100           0.000 0         0.00000         0.000           0.000  
G16  23226265.988 3    505911.54102      -855.338          39.100           0.000 0         0.00000         0.000           0.000  
G18  20700809.524 3    956753.58002      -776.477          39.000           0.000 0         0.00000         0.000           0.000  
G20  20158060.758 3  -1454756.39902       177.740          38.700           0.000 0         0.00000         0.000           0.000  
G21  21496451.800 2  -1621869.82801       967.634          41.900           0.000 0         0.00000         0.000           0.000  
G26  23609536.847 3    491352.60409     -2344.803          37.500    23607190.072 1   3918614.71009     -1749.919          34.700  
G27  23202646.229 4    -75185.15709      2951.185          30.000    23200294.952 1  -7231368.36603      2203.287          37.100  
G29  23182603.310 4   3528672.63409     -3447.842          34.700           0.000 0         0.00000         0.000           0.000  
R02  21366004.914 4         0.00000     -3514.440          28.700  
R18  19532756.043 3 -12724895.45102       857.961          36.300  
R17  20885168.701 3   5213660.35402     -2294.305          38.800  
R03  19216509.481 4 -10066720.04503       152.599          33.800  
R04  21405786.472 2 -14596131.44201      3689.012          42.400  
E03  24996460.400 4     35411.99109     -1320.493          31.400    24994336.673 3         0.00000      -986.096          27.200  
E07  27105154.989 5         0.00000      3053.100          25.200    27103039.953 3         0.00000      2285.157          23.300  
E08  22096550.270 3   -480650.77804      1509.211          38.700    22094422.931 2  -5367532.06305      1125.672          33.300  
E13  23789645.256 3   -441316.48005      1079.004          37.400    23787518.825 2  -6930850.71905       804.219          32.900  
E15  23996224.441 3     24970.30304     -1037.950          38.200    23994101.622 1   2177184.17103      -776.677          38.200  
E21  27650608.468 5         0.00000     -2096.100          27.500    27648484.742 3         0.00000     -1563.953          24.900  
E26  26692864.209 6         0.00000      2221.550          24.200    26690730.274 4         0.00000      1646.950          21.000  
E27  28448580.454 5         0.00000     -2565.450          28.500           0.000 0         0.00000         0.000           0.000  
> 2020 06 25 00 35 36.4479704  0 22
G10  21683867.069 3  -7768451.83009      1894.908          40.300    21681519.980 1 -14181589.97603      1414.853          37.900  
G13  24126130.214 4     31454.01503     -2314.495          34.400           0.000 0         0.00000         0.000           0.000  
G15  21968447.157 3     18009.92502     -1521.649          37.700           0.000 0         0.00000         0.000           0.000  
G16  23226430.561 3    506767.15602      -855.027          38.900           0.000 0         0.00000         0.000           0.000  
G18  20700955.215 3    957528.73802      -773.523          39.100           0.000 0         0.00000         0.000           0.000  
G20  20158021.478 3  -1454933.77502       177.618          38.700           0.000 0         0.00000         0.000           0.000  
G21  21496264.437 3  -1622839.11801       971.514          40.300           0.000 0         0.00000         0.000           0.000  
G26  23609988.040 3    493701.82302     -2349.596          37.100    23607636.170 2   3920367.61505     -1754.493          33.600  
G27  23202077.230 4    -78138.41009      2955.575          30.100    23199733.142 2  -7233574.01604      2207.932          34.400  
G29  23183267.954 3   3532126.73802     -3456.965          36.500           0.000 0         0.00000         0.000           0.000  
R02  21366653.678 4   7714070.12509     -3506.408          29.200  
R18  19532583.373 3 -12725754.77302       860.887          36.300  
R17  20885594.399 3   5215957.28101     -2297.869          40.400  
R03  19216484.300 4 -10066870.96303       150.261          33.900  
R04  21405101.446 3 -14599814.10309      3677.832          41.500  
E03  24996711.927 4     36730.48008     -1316.355          32.900    24994587.590 2   1081572.95109      -983.705          30.900  
E07  27104579.377 5         0.00000      3047.250          27.400    27102459.245 3         0.00000      2276.477          28.800  
E08  22096261.870 3   -482156.02604      1502.781          38.100    22094136.346 2  -5368656.05805      1121.972          33.400  
E13  23789441.996 4   -442397.61707      1082.912          35.400    23787314.082 2  -6931658.04709       806.827          30.300  
E15  23996423.513 3     26008.69504     -1037.868          38.100    23994298.583 1   2177959.63703      -776.228          37.500  
E21  27651004.501 4      1374.28608     -2096.029          33.300    27648884.666 2         0.00000     -1566.450          30.400  
E26  26692445.090 6         0.00000      2218.250          23.300           0.000 0         0.00000         0.000           0.000  
> 2020 06 25 00 35 37.4479704  0 23
G10  21683503.110 3  -7770346.45909      1895.235          38.100    21681159.039 1 -14183004.86603      1415.475          35.200  
G13  24126574.514 4     33763.17403     -2303.082          33.900           0.000 0         0.00000         0.000           0.000  
G15  21968737.947 3     19528.38602     -1514.325          38.100           0.000 0         0.00000         0.000           0.000  
G16  23226590.353 3    507620.22002      -849.916          38.200           0.000 0         0.00000         0.000           0.000  
G18  20701103.909 3    958299.20102      -766.415          37.900           0.000 0         0.00000         0.000           0.000  
G20  20157982.512 3  -1455113.44602       182.489          38.600           0.000 0         0.00000         0.000           0.000  
G21  21496081.559 2  -1623814.22801       979.431          41.900           0.000 0         0.00000         0.000           0.000  
G26  23610429.635 3    496051.24509     -2349.975          35.700    23608084.954 2   3922122.50805     -1754.638          33.300  
G27  23201511.511 4    -81099.35609      2968.783          30.500    23199169.535 2  -7235785.47204      2215.785          33.700  
G29  23183928.689 4   3535585.92503     -3460.693          34.900           0.000 0         0.00000         0.000           0.000  
G32  25292004.791 5         0.00000      3580.864          26.200           0.000 0         0.00000         0.000           0.000  
R02  21367276.336 4         0.00000     -3496.517          28.400  
R18  19532426.286 3 -12726619.15002       868.740          36.600  
R17  20886023.395 3   5218255.06001     -2296.643          40.400  
R03  19216453.728 4 -10067022.32803       153.238          33.600  
R04  21404415.827 2 -14603489.74609      3674.290          43.400  
E03  24996961.360 4     38043.68908     -1309.285          33.300    24994837.023 2   1082553.46809      -976.329          29.400  
E07  27103998.075 6         0.00000      3040.450          23.500    27101880.351 3         0.00000      2264.928          23.200  
E08  22095975.861 3   -483658.21604      1501.936          37.700    22093850.634 2  -5369777.83905      1122.708          33.800  
E13  23789229.749 3   -443484.69805      1091.245          36.700    23787106.023 2  -6932469.83809       815.852          31.200  
E15  23996617.472 3     27045.00805     -1033.874          37.000    23994496.154 1   2178733.47803      -771.076          38.000  
E21  27651406.519 4      3470.38307     -2094.525          35.000    27649283.683 2    678403.02105     -1562.965          32.600  
E26  26692022.079 5         0.00000      2224.150          27.200    26689890.570 4         0.00000      1661.200          21.900  
> 2020 06 25 00 35 38.4479704  0 24
G10  21683145.153 3  -7772238.61709      1890.810          39.300    21680800.176 1 -14184417.82603      1412.507          37.400  
G13  24127009.216 4     36063.63403     -2295.773          35.200           0.000 0         0.00000         0.000           0.000  
G15  21969020.955 3     21042.11602     -1511.098          37.300           0.000 0         0.00000         0.000           0.000  
G16  23226755.834 3    508471.04602      -849.193          37.500           0.000 0         0.00000         0.000           0.000  
G18  20701251.415 3    959065.22802      -763.662          38.900           0.000 0         0.00000         0.000           0.000  
G20  20157954.923 3  -1455295.04702       183.106          35.800           0.000 0         0.00000         0.000           0.000  
G21  21495892.102 3  -1624794.71801       983.320          39.800           0.000 0         0.00000         0.000           0.000  
G26  23610880.811 4    498405.36309     -2355.349          31.800    23608532.535 2         0.00000     -1760.919          28.800  
G27  23200954.500 4    -84070.45809      2973.594          35.400    23198605.038 1  -7238002.94303      2220.625          36.700  
G29  23184590.628 4         0.00000     -3468.200          30.300           0.000 0         0.00000         0.000           0.000  
G32  25291315.280 5         0.00000      3568.950          23.600           0.000 0         0.00000         0.000           0.000  
R02  21367988.044 4   7721064.27909     -3487.997          30.200  
R18  19532263.196 3 -12727488.50702       872.194          37.200  
R17  20886451.205 3   5220554.81002     -2300.427          38.300  
R03  19216410.852 4 -10067173.45603       151.478          34.600  
R04  21403724.205 2 -14607157.41701      3664.864          45.900  
E03  24997209.276 4     39351.48807     -1305.248          35.300    24995085.846 3         0.00000      -970.150          24.300  
E07  27103423.073 4     -1702.82209      3035.874          30.100    27101301.754 2         0.00000      2264.200          29.600  
E08  22095690.166 4   -485156.49607      1496.627          35.200    22093565.829 2  -5370896.68704      1117.790          34.600  
E13  23789024.098 4   -444577.55006      1095.656          36.300    23786898.557 2  -6933285.98509       818.905          32.500  
E15  23996817.731 3     28079.80704     -1033.613          37.900    23994693.115 1   2179506.21103      -771.652          38.200  
E21  27651803.442 4      5567.00909     -2096.738          33.800    27649682.420 2    679968.66209     -1565.866          30.100  
E26  26691594.584 5         0.00000      2226.050          27.600    26689468.763 3         0.00000      1663.110          27.300  
E01         0.000 0         0.00000         0.000           0.000    28373819.707 3         0.00000      -240.200          22.600  
> 2020 06 25 00 35 39.4479704  0 25
G10  21682786.010 3  -7774131.88509      1893.789          38.700    21680440.125 1 -14185831.59303      1414.024          36.000  
G13  24127442.104 4     38353.21503     -2286.434          34.300           0.000 0         0.00000         0.000           0.000  
G15  21969312.653 3     22548.54401     -1504.469          40.300           0.000 0         0.00000         0.000           0.000  
G16  23226913.235 3    509316.13301      -843.520          40.200           0.000 0         0.00000         0.000           0.000  
G18  20701395.310 3    959824.18002      -756.903          39.200           0.000 0         0.00000         0.000           0.000  
G20  20157918.661 3  -1455481.66002       188.368          38.100           0.000 0         0.00000         0.000           0.000  
G21  21495704.425 3  -1625783.40602       991.388          39.400           0.000 0         0.00000         0.000           0.000  
G26  23611322.406 4    500758.79909     -2353.638          31.600    23608980.726 2   3925639.77009     -1757.453          33.700  
G27  23200389.392 4    -87050.14609      2982.711          34.800    23198038.115 2  -7240228.00605      2227.263          32.800  
G29  23185250.473 4   3542526.52809     -3469.695          31.900           0.000 0         0.00000         0.000           0.000  
G32  25290661.124 6         0.00000      3567.650          23.400           0.000 0         0.00000         0.000           0.000  
R02  21368613.407 4   7724543.14809     -3474.138          29.400  
R18  19532110.594 3 -12728365.41102       879.270          36.600  
R09  24291526.030 6         0.00000     -1485.100          20.500  
R17  20886879.311 3   5222853.09402     -2298.115          38.700  
R03  19216392.565 3 -10067327.66802       155.036          35.800  
R04  21403039.476 2 -14610822.32701      3663.792          47.200  
E03  24997458.116 4     40651.82508     -1297.999          34.200    24995336.187 3         0.00000      -969.955          23.000  
E07  27102842.678 4     -4735.71109      3031.889          30.400    27100726.752 2   -505825.52409      2263.629          30.100  
E08  22095402.359 4   -486654.33108      1497.960          32.700    22093278.336 2  -5372015.34409      1119.060          30.700  
E13  23788816.039 4   -445678.54609      1103.683          34.700    23786689.015 3         0.00000       824.741          27.800  
E15  23997012.301 3     29110.34804     -1028.964          38.000    23994889.168 1   2180275.67803      -768.150          36.800  
E21  27652208.461 5         0.00000     -2090.000          29.000    27650082.030 2    681531.91409     -1562.577          29.100  
E26  26691200.052 5         0.00000      2234.650          26.500    26689044.845 3         0.00000      1668.200          26.200  
E01         0.000 0         0.00000         0.000           0.000    28373878.759 2         0.00000      -235.390          29.300  
> 2020 06 25 00 35 40.4479704  0 26
G10  21682427.461 3  -7776021.63409      1886.862          38.100    21680080.075 2 -14187242.64004      1409.007          34.000  
G13  24127875.009 4     40641.05709     -2287.922          31.600           0.000 0         0.00000         0.000           0.000  
G15  21969590.565 3     24055.46602     -1508.322          38.200           0.000 0         0.00000         0.000           0.000  
G16  23227080.216 3    510162.46402      -848.102          37.400           0.000 0         0.00000         0.000           0.000  
G18  20701541.019 3    960583.39702      -760.532          39.000           0.000 0         0.00000         0.000           0.000  
G20  20157884.180 3  -1455666.79502       183.351          37.200           0.000 0         0.00000         0.000           0.000  
G21  21495513.450 3  -1626772.69202       988.214          38.500           0.000 0         0.00000         0.000           0.000  
G26  23611760.703 5         0.00000     -2361.501          27.000    23609430.418 2         0.00000     -1763.264          29.600  
G27  23199809.888 4    -90031.72109      2981.428          30.200    23197470.023 1  -7242454.24103      2226.183          35.300  
G29  23185915.414 4   3546001.95709     -3479.628          31.200           0.000 0         0.00000         0.000           0.000  
G32  25289968.001 6         0.00000      3554.550          22.800           0.000 0         0.00000         0.000           0.000  
R02  21369276.847 4         0.00000     -3480.043          28.700  
R18  19531942.706 3 -12729242.15602       875.504          36.500  
R09  24291801.237 5         0.00000     -1490.600          24.000  
R17  20887315.200 3   5225155.19002     -2304.952          37.700  
R03  19216367.681 4 -10067478.99503       148.763          34.500  
R04  21402359.249 2 -14614480.59101      3654.199          46.800  
E01  28376079.231 6         0.00000      -311.950          22.000    28373939.015 3         0.00000      -238.642          25.500  
E03  24997707.235 4     41951.96408     -1301.325          32.900    24995577.820 3         0.00000      -972.115          25.200  
E07  27102271.882 4     -7761.19109      3022.243          30.800    27100145.747 3         0.00000      2255.468          23.300  
E08  22095120.852 4   -488147.58809      1489.995          33.300    22092995.922 2  -5373130.36905      1112.206          33.900  
E13  23788602.291 4   -446780.66107      1101.204          35.600    23786479.752 3         0.00000       821.952          27.200  
E15  23997210.466 3     30142.56105     -1034.302          37.000    23995085.832 1   2181046.55502      -772.975          39.300  
E21  27652615.278 5         0.00000     -2100.050          27.800    27650481.361 3         0.00000     -1567.088          26.400  
E26  26690743.170 5         0.00000      2232.100          29.600    26688617.943 2         0.00000      1665.914          29.900  
E27  28451042.348 6         0.00000     -2601.050          23.700           0.000 0         0.00000         0.000           0.000  
> 2020 06 25 00 35 41.4479704  0 24
G10  21682073.396 4  -7777909.17009      1888.940          33.200    21679719.135 2 -14188652.21704      1410.709          33.700  
G13  24128328.889 4         0.00000     -2283.262          29.400           0.000 0         0.00000         0.000           0.000  
G15  21969883.153 3     25561.91702     -1504.686          39.200           0.000 0         0.00000         0.000           0.000  
G16  23227234.615 3    511009.11402      -844.776          35.500           0.000 0         0.00000         0.000           0.000  
G18  20701684.320 3    961342.10102      -756.708          38.400           0.000 0         0.00000         0.000           0.000  
G20  20157840.711 3  -1455851.50102       186.934          37.300           0.000 0         0.00000         0.000           0.000  
G21  21495330.885 3  -1627763.16902       992.505          37.400           0.000 0         0.00000         0.000           0.000  
G26  23612216.991 5         0.00000     -2359.123          28.300    23609878.906 3         0.00000     -1761.100          26.000  
G27  23199269.071 4    -93015.60409      2985.803          32.000    23196901.914 2  -7244682.49004      2229.881          34.300  
G29  23186560.269 5         0.00000     -3478.517          27.800           0.000 0         0.00000         0.000           0.000  
R02  21369902.821 4   7731499.12109     -3475.579          31.100  
R18  19531767.034 3 -12730119.53902       879.679          35.100  
R17  20887746.604 3   5227459.37002     -2302.713          36.600  
R03  19216327.807 3 -10067628.66402       151.514          35.000  
R04  21401682.023 2 -14618134.34201      3654.777          47.300  
E03  24997954.871 4     43251.36909     -1297.660          31.200    24995825.438 3         0.00000      -969.236          25.700  
E07  27101690.580 4    -10781.88809      3021.806          30.100           0.000 0         0.00000         0.000           0.000  
E08  22094839.346 4   -489637.88706      1492.101          35.800    22092711.117 2  -5374243.27305      1113.783          31.600  
E13  23788398.124 3   -447883.78905      1105.928          37.500    23786270.192 3         0.00000       825.675          26.100  
E15  23997404.128 4     31175.36707     -1030.981          35.200    23995281.309 1   2181817.85303      -769.723          37.300  
E21  27652992.430 5         0.00000     -2092.500          26.900    27650881.582 3         0.00000     -1564.954          23.100  
E26  26690327.070 5         0.00000      2237.300          28.500    26688192.245 3         0.00000      1669.866          26.200  
E27  28451537.899 6         0.00000     -2601.300          24.500           0.000 0         0.00000         0.000           0.000  
E01         0.000 0         0.00000         0.000           0.000    28374000.771 2         0.00000      -234.915          29.500  
> 2020 06 25 00 35 42.4479704  0 24
G10  21681703.155 4  -7779800.85403      1890.996          33.500    21679359.678 2 -14190064.88205      1412.052          33.300  
G13  24128748.602 4     45207.67203     -2281.822          33.700           0.000 0         0.00000         0.000           0.000  
G15  21970165.567 3     27064.05102     -1503.055          39.400           0.000 0         0.00000         0.000           0.000  
G16  23227392.592 3    511851.41302      -843.247          36.700           0.000 0         0.00000         0.000           0.000  
G18  20701826.714 3    962096.20001      -754.824          40.600           0.000 0         0.00000         0.000           0.000  
G20  20157810.121 3  -1456040.61002       188.130          37.100           0.000 0         0.00000         0.000           0.000  
G21  21495149.211 3  -1628758.50102       994.664          37.500           0.000 0         0.00000         0.000           0.000  
G26  23612676.578 4    507834.46809     -2357.080          29.600    23610328.895 3         0.00000     -1758.100          27.200  
G27  23198703.666 4    -96004.28207      2987.897          30.200    23196332.897 2  -7246914.31004      2231.309          34.300  
G29  23187230.305 4   3552957.31507     -3476.565          29.600           0.000 0         0.00000         0.000           0.000  
R02  21370548.270 4   7734971.86603     -3473.607          32.200  
R18  19531598.849 3 -12731001.58202       881.018          35.400  
R17  20888186.402 3   5229759.42002     -2301.001          37.500  
R03  19216321.211 3 -10067782.22602       152.472          37.100  
R04  21400997.294 2 -14621791.85801      3656.653          47.800  
E01  28376200.947 6         0.00000      -314.950          22.300    28374061.341 2         0.00000      -233.392          29.900  
E03  24998203.100 4     44546.21408     -1295.386          34.300    24996076.373 3         0.00000      -967.681          27.000  
E07  27101116.486 4    -13806.82509      3024.180          30.600    27098995.743 3         0.00000      2255.000          22.000  
E08  22094550.649 4   -491132.44108      1493.313          33.100    22092427.219 2  -5375359.29905      1117.052          33.000  
E13  23788190.065 3   -448991.97504      1107.265          38.200    23786059.149 3         0.00000       827.322          27.400  
E15  23997604.387 3     32203.73904     -1028.901          37.700    23995477.973 1   2182585.75603      -767.094          38.100  
E21  27653388.445 5         0.00000     -2095.900          26.700    27651276.707 3         0.00000     -1563.470          24.100  
E26  26689895.665 4     -5740.46409      2238.196          31.400           0.000 0         0.00000         0.000           0.000  
E27  28452023.556 5         0.00000     -2594.250          25.600           0.000 0         0.00000         0.000           0.000  
> 2020 06 25 00 35 43.4479704  0 25
G10  21681348.200 4  -7781688.85803      1887.754          33.500    21679001.128 2 -14191474.75804      1409.794          34.400  
G13  24129190.197 3     47492.33802     -2284.956          36.900           0.000 0         0.00000         0.000           0.000  
G15  21970459.655 3     28570.01801     -1506.412          39.700           0.000 0         0.00000         0.000           0.000  
G16  23227558.387 3    512697.59502      -846.563          37.800           0.000 0         0.00000         0.000           0.000  
G18  20701970.609 3    962853.77001      -757.845          39.500           0.000 0         0.00000         0.000           0.000  
G20  20157775.046 3  -1456225.94902       185.217          35.900           0.000 0         0.00000         0.000           0.000  
G21  21494959.440 3  -1629750.50302       991.856          39.400           0.000 0         0.00000         0.000           0.000  
G26  23613120.564 4    510194.20904     -2359.846          33.300    23610775.586 3         0.00000     -1762.679          24.200  
G27  23198134.964 4    -98989.37109      2984.873          30.800    23195765.399 1  -7249143.46403      2229.011          36.100  
G29  23187894.949 4   3556436.62609     -3479.648          29.600           0.000 0         0.00000         0.000           0.000  
G32  25287894.340 6         0.00000      3554.650          20.100           0.000 0         0.00000         0.000           0.000  
R02  21371202.723 4   7738448.55209     -3476.846          31.200  
R18  19531448.358 3 -12731879.66202       877.939          38.200  
R17  20888598.018 3   5232063.34402     -2304.360          37.400  
R03  19216282.838 3 -10067931.64702       149.019          37.500  
R04  21400312.862 2 -14625445.61501      3653.477          47.200  
E01  28376254.920 6         0.00000      -315.450          24.600    28374119.502 2         0.00000      -235.817          31.800  
E03  24998454.925 4     45844.75907     -1298.902          35.000    24996325.492 3         0.00000      -970.562          27.100  
E07  27100540.279 4    -16828.01309      3021.062          32.300    27098425.836 3         0.00000      2253.600          24.500  
E08  22094270.346 4   -492622.81906      1490.770          35.700    22092143.915 2  -5376472.41304      1113.104          34.100  
E13  23787979.615 3   -450096.64304      1105.044          38.400    23785848.385 3         0.00000       824.363          26.700  
E15  23997797.753 3     33235.68404     -1032.190          38.600    23995673.433 1   2183356.32303      -770.470          36.700  
E21  27653781.476 5         0.00000     -2094.600          25.000    27651673.630 3         0.00000     -1565.912          25.600  
E26  26689481.938 4     -7976.04809      2235.161          31.800    26687340.831 3         0.00000      1671.150          24.300  
E27  28452530.520 6         0.00000     -2594.400          23.100           0.000 0         0.00000         0.000           0.000  
> 2020 06 25 00 35 44.4479704  0 24
G10  21680986.055 4  -7783580.61203      1893.088          34.400    21678641.671 1 -14192887.46603      1413.720          35.600  
G13  24129631.199 4     49773.41503     -2279.681          34.000           0.000 0         0.00000         0.000           0.000  
G15  21970739.662 3     30072.57302     -1501.368          38.900           0.000 0         0.00000         0.000           0.000  
G16  23227717.567 3    513540.20002      -841.299          38.100           0.000 0         0.00000         0.000           0.000  
G18  20702115.114 3    963607.53402      -752.342          38.100           0.000 0         0.00000         0.000           0.000  
G20  20157736.080 3  -1456415.09802       190.518          37.800           0.000 0         0.00000         0.000           0.000  
G21  21494774.764 3  -1630746.42402       997.507          39.200           0.000 0         0.00000         0.000           0.000  
G26  23613573.554 4    512550.04904     -2354.299          31.900    23611227.983 3         0.00000     -1760.800          25.100  
G27  23197574.637 4   -101978.25109      2990.402          30.900    23195196.696 1  -7251375.47703      2233.072          36.500  
G29  23188558.389 4         0.00000     -3473.802          28.600           0.000 0         0.00000         0.000           0.000  
R02  21371883.246 4   7741921.35703     -3471.296          33.800  
R18  19531289.160 3 -12732761.46601       883.221          39.000  
R17  20889025.827 3   5234363.57602     -2298.877          37.500  
R03  19216262.456 3 -10068084.38602       154.049          37.100  
R04  21399628.150 2 -14629103.11501      3658.842          47.600  
E01  28376311.284 5         0.00000      -310.450          25.100    28374179.147 2         0.00000      -231.048          30.900  
E03  24998694.446 4     47139.52708     -1293.523          33.900    24996572.221 3         0.00000      -965.156          23.000  
E07  27099967.965 4    -19853.54009      3026.687          30.300    27097848.444 3         0.00000      2260.823          25.400  
E08  22093985.838 4   -494117.29907      1495.500          35.300    22091860.017 2  -5377588.32405      1117.875          33.400  
E13  23787766.758 3   -451205.34905      1110.071          37.000    23785640.030 3  -6938236.27209       829.624          28.400  
E15  23997990.822 4     34263.61706     -1026.744          35.900    23995870.394 1   2184123.91302      -765.883          39.100  
E21  27654178.102 5         0.00000     -2091.550          24.800    27652072.961 3         0.00000     -1561.038          23.800  
E26  26689061.632 5         0.00000      2239.950          28.500    26686916.023 2  -2309153.76805      1674.654          31.200  
E27  28453022.476 6         0.00000     -2597.000          24.100           0.000 0         0.00000         0.000           0.000  
> 2020 06 25 00 35 45.4479704  0 25
G10  21680633.194 4  -7785470.60203      1886.067          33.600    21678281.621 1 -14194298.74403      1408.389          36.000  
G13  24130067.384 4     52056.49504     -2287.408          32.400           0.000 0         0.00000         0.000           0.000  
G15  21971026.857 3     31577.26102     -1508.784          37.600           0.000 0         0.00000         0.000           0.000  
G16  23227885.159 3    514384.84402      -848.676          38.500           0.000 0         0.00000         0.000           0.000  
G18  20702256.321 3    964362.92802      -759.287          36.600           0.000 0         0.00000         0.000           0.000  
G20  20157701.301 3  -1456602.30202       182.999          36.900           0.000 0         0.00000         0.000           0.000  
G21  21494577.804 3  -1631740.83201       990.651          39.600           0.000 0         0.00000         0.000           0.000  
G26  23614027.434 4    514907.51804     -2361.730          31.200    23611672.562 3         0.00000     -1763.755          24.700  
G27  23197002.043 5         0.00000      2983.306          26.800    23194627.976 1  -7253606.13603      2227.812          36.700  
G29  23189223.033 5         0.00000     -3480.153          26.100           0.000 0         0.00000         0.000           0.000  
G32  25286556.972 6         0.00000      3557.050          20.300           0.000 0         0.00000         0.000           0.000  
R02  21372511.611 4   7745395.92603     -3478.623          32.800  
R18  19531109.894 3 -12733641.33402       875.502          37.700  
R17  20889451.822 3   5236665.68602     -2306.096          38.500  
R03  19216236.664 3 -10068234.93902       145.888          35.700  
R04  21398947.609 2 -14632758.73101      3651.529          47.100  
E03  24998946.584 4     48436.08909     -1300.513          31.500    24996821.951 3   1090307.16909      -971.445          28.500  
E07  27099387.570 4    -22877.62709      3020.633          30.500    27097274.035 3         0.00000      2254.906          25.400  
E08  22093701.644 4   -495609.77308      1488.537          34.200    22091574.008 2  -5378702.73305      1109.993          32.500  
E13  23787555.715 3   -452312.60005      1103.166          37.100    23785429.877 3         0.00000       823.400          26.900  
E15  23998188.097 4     35293.00106     -1032.832          36.200    23996066.150 1   2184892.81302      -773.547          39.400  
E21  27654590.312 5         0.00000     -2094.050          24.800    27652471.384 3         0.00000     -1567.800          22.900  
E26  26688632.933 4    -12454.58209      2235.069          29.900    26686490.918 2         0.00000      1667.546          31.400  
E27  28453507.540 5         0.00000     -2601.400          25.300           0.000 0         0.00000         0.000           0.000  
E01         0.000 0         0.00000         0.000           0.000    28374238.216 2         0.00000      -238.825          31.400  
> 2020 06 25 00 35 46.4479704  0 26
G10  21680270.753 4  -7787355.16609      1886.794          33.200    21677922.774 1 -14195706.11203      1409.084          36.800  
G13  24130501.197 4     54345.04904     -2287.128          31.800           0.000 0         0.00000         0.000           0.000  
G15  21971317.072 3     33087.56402     -1508.483          38.500           0.000 0         0.00000         0.000           0.000  
G16  23228039.559 3    515235.08602      -848.585          37.000           0.000 0         0.00000         0.000           0.000  
G18  20702402.920 3    965123.67402      -758.748          38.000           0.000 0         0.00000         0.000           0.000  
G20  20157675.213 3  -1456784.19302       183.887          38.200           0.000 0         0.00000         0.000           0.000  
G21  21494385.642 3  -1632730.04401       991.084          40.400           0.000 0         0.00000         0.000           0.000  
G26  23614478.923 4    517270.43607     -2360.671          30.000    23612123.161 3         0.00000     -1765.900          24.600  
G27  23196452.815 5         0.00000      2977.550          25.900    23194060.181 1  -7255832.90503      2228.047          36.600  
G29  23189880.470 5         0.00000     -3480.023          27.500           0.000 0         0.00000         0.000           0.000  
G32  25285875.838 5         0.00000      3557.700          24.500           0.000 0         0.00000         0.000           0.000  
R02  21373199.638 4   7748876.10803     -3478.421          32.700  
R18  19530953.994 3 -12734515.67802       876.107          38.600  
R19  21915492.412 6         0.00000      3243.000          22.200  
R17  20889886.524 3   5238973.44202     -2305.593          38.000  
R03  19216204.294 3 -10068379.48102       146.355          35.100  
R04  21398261.693 2 -14636408.75101      3652.476          47.400  
E03  24999194.203 4     49738.08509     -1300.308          32.300    24997068.086 3   1091279.48409      -970.912          28.900  
E07  27098816.774 4    -25896.49909      3021.134          31.400    27096698.143 3         0.00000      2256.528          24.000  
E08  22093415.338 4   -497096.89507      1488.969          34.900    22091292.205 2  -5379813.27205      1112.412          33.700  
E13  23787344.358 3   -453414.56405      1103.493          37.600    23785218.834 3         0.00000       824.824          27.800  
E15  23998385.947 4     36327.81907     -1032.918          35.500    23996262.814 1   2185665.50502      -770.619          39.100  
E21  27654994.441 6         0.00000     -2091.700          22.700    27652872.809 3         0.00000     -1566.140          26.700  
E26  26688206.327 5         0.00000      2233.250          28.800    26686066.407 2  -2312493.21405      1669.981          31.400  
E27  28454013.893 6         0.00000     -2603.550          23.600           0.000 0         0.00000         0.000           0.000  
E01         0.000 0         0.00000         0.000           0.000    28374299.379 2         0.00000      -236.350          31.100  
> 2020 06 25 00 35 47.4479704  0 26
G10  21679917.596 4  -7789244.10609      1891.212          33.900    21677564.225 1 -14197116.60803      1412.307          38.500  
G13  24130938.587 4     56630.41209     -2282.640          30.500           0.000 0         0.00000         0.000           0.000  
G15  21971602.173 3     34594.88902     -1505.167          36.900           0.000 0         0.00000         0.000           0.000  
G16  23228209.541 3    516082.11302      -844.612          36.100           0.000 0         0.00000         0.000           0.000  
G18  20702546.815 3    965880.84302      -754.762          36.800           0.000 0         0.00000         0.000           0.000  
G20  20157635.654 3  -1456969.60802       187.831          38.900           0.000 0         0.00000         0.000           0.000  
G21  21494197.668 3  -1633722.77102       995.287          37.800           0.000 0         0.00000         0.000           0.000  
G26  23614942.105 5         0.00000     -2357.800          24.200    23612575.244 3         0.00000     -1758.719          23.200  
G27  23195830.156 4         0.00000      2987.295          29.400    23193492.961 1  -7258061.84603      2230.942          35.300  
G29  23190537.017 5         0.00000     -3474.904          27.700           0.000 0         0.00000         0.000           0.000  
G32  25285236.392 5         0.00000      3562.928          26.200           0.000 0         0.00000         0.000           0.000  
R02  21373827.096 4   7752353.42904     -3475.030          31.100  
R18  19530794.202 3 -12735393.17402       880.062          36.100  
R09  24293724.705 5         0.00000     -1485.200          25.400  
R17  20890323.617 3   5241277.02902     -2301.245          37.800  
R03  19216166.514 4 -10068527.46003       150.223          34.100  
R04  21397577.854 2 -14640063.73601      3657.326          47.500  
E01  28376533.426 6         0.00000      -317.700          21.700    28374358.727 2         0.00000      -234.345          32.800  
E03  24999428.350 4     51036.96609     -1296.765          31.500    24997322.597 3         0.00000      -976.369          23.900  
E07  27098246.256 5         0.00000      3024.200          29.200    27096125.235 3   -523895.86909      2260.165          28.100  
E08  22093134.738 4   -498588.39407      1493.719          35.200    22091008.901 1  -5380927.15603      1115.409          35.400  
E13  23787134.798 4   -454519.90807      1107.937          34.800    23785004.475 3         0.00000       827.514          24.200  
E15  23998580.814 4     37358.73308     -1028.698          34.200    23996458.885 1   2186435.26503      -767.960          38.700  
E21  27655385.361 5         0.00000     -2091.900          24.800    27653271.825 2         0.00000     -1562.951          32.000  
E26  26687768.327 6         0.00000      2238.600          23.900    26685639.802 3         0.00000      1672.611          28.300  
E27  28454526.825 5         0.00000     -2595.650          25.800           0.000 0         0.00000         0.000           0.000  
> 2020 06 25 00 35 48.4479704  0 26
G10  21679552.450 4  -7791135.50303      1889.593          34.400    21677204.471 1 -14198528.95103      1411.133          38.600  
G13  24131381.089 5         0.00000     -2283.503          26.000           0.000 0         0.00000         0.000           0.000  
G15  21971892.371 3     36099.43602     -1506.109          37.500           0.000 0         0.00000         0.000           0.000  
G16  23228350.138 4    516926.42403      -845.972          34.400           0.000 0         0.00000         0.000           0.000  
G18  20702686.818 3    966635.03902      -755.572          35.700           0.000 0         0.00000         0.000           0.000  
G20  20157603.266 3  -1457157.77502       186.589          37.000           0.000 0         0.00000         0.000           0.000  
G21  21494009.101 3  -1634718.67502       994.678          38.300           0.000 0         0.00000         0.000           0.000  
G27  23195282.429 4         0.00000      2986.860          28.500    23192923.665 2  -7260293.19704      2230.435          34.300  
G29  23191210.647 4   3573823.80704     -3477.074          32.700           0.000 0         0.00000         0.000           0.000  
G32  25284560.650 5         0.00000      3561.652          27.300           0.000 0         0.00000         0.000           0.000  
R02  21374482.456 4   7755827.53209     -3475.413          31.200  
R18  19530607.432 3 -12736273.53802       878.949          36.600  
R09  24294065.560 4   1600659.29707     -1488.184          29.000  
R17  20890752.334 3   5243578.13902     -2302.926          38.500  
R03  19216143.742 4 -10068677.65903       148.350          34.700  
R04  21396897.331 2 -14643720.81601      3655.110          47.800  
E01  28376533.426 5         0.00000      -313.400          25.200    28374417.796 1         0.00000      -236.416          35.800  
E03  24999673.578 4     52332.88709     -1297.249          30.700    24997562.730 3         0.00000      -969.550          25.900  
E07  27097675.163 5         0.00000      3026.450          28.800    27095549.639 3         0.00000      2258.260          24.600  
E08  22092848.729 4   -500082.44308      1492.434          34.600    22090723.206 2  -5382042.64805      1112.884          33.900  
E13  23786922.848 4   -455628.67507      1107.607          35.100    23784796.416 2  -6941539.42409       826.746          29.900  
E15  23998780.776 4     38386.69107     -1029.253          35.600    23996654.956 1   2187202.91802      -770.258          39.400  
E26  26687339.924 6         0.00000      2243.800          24.400    26685210.805 3         0.00000      1670.500          22.600  
E27  28455000.511 6         0.00000     -2599.600          24.300           0.000 0         0.00000         0.000           0.000  
G26         0.000 0         0.00000         0.000           0.000    23613016.543 3         0.00000     -1759.150          25.000  
E21         0.000 0         0.00000         0.000           0.000    27653667.858 3         0.00000     -1563.874          26.000  
> 2020 06 25 00 35 49.4479704  0 26
G10  21679183.099 4  -7793029.49803      1899.612          35.400    21676843.827 1 -14199943.33702      1418.533          38.900  
G13  24131796.893 4     61193.39609     -2275.219          31.300           0.000 0         0.00000         0.000           0.000  
G15  21972172.377 3     37601.36102     -1496.580          37.800           0.000 0         0.00000         0.000           0.000  
G16  23228518.026 4    517767.99003      -836.034          35.200           0.000 0         0.00000         0.000           0.000  
G18  20702834.307 3    967386.19002      -745.554          37.900           0.000 0         0.00000         0.000           0.000  
G20  20157562.799 3  -1457348.81002       196.662          37.600           0.000 0         0.00000         0.000           0.000  
G21  21493815.125 3  -1635717.80202      1004.782          39.300           0.000 0         0.00000         0.000           0.000  
G26  23615828.000 6         0.00000     -2354.050          21.700    23613465.031 3         0.00000     -1752.203          27.000  
G27  23194707.723 4         0.00000      2996.697          29.100    23192356.464 1  -7262526.95603      2237.890          34.800  
G29  23191860.005 4   3577296.28604     -3466.713          32.100           0.000 0         0.00000         0.000           0.000  
G32  25283875.921 5         0.00000      3569.800          25.200           0.000 0         0.00000         0.000           0.000  
R02  21375129.109 4   7759298.54904     -3465.605          31.100  
R18  19530454.848 3 -12737156.88702       888.704          36.200  
R09  24294321.293 5         0.00000     -1478.437          26.700  
R19  21913583.934 6         0.00000      3252.700          20.700  
R17  20891189.724 3   5245876.57702     -2292.693          38.500  
R03  19216109.854 4 -10068830.28803       158.172          34.200  
R04  21396210.211 2 -14647380.34901      3665.380          46.900  
E01  28376607.467 5         0.00000      -306.150          24.700    28374476.848 1         0.00000      -226.837          35.500  
E03  24999930.498 4     53625.62208     -1287.483          33.900           0.000 0         0.00000         0.000           0.000  
E07  27097099.864 5         0.00000      3033.550          26.600    27094974.323 3         0.00000      2267.056          26.300  
E08  22092563.331 4   -501578.80808      1501.673          34.400    22090438.994 2  -5383160.23304      1122.491          34.600  
E13  23786712.398 4   -456740.50108      1117.309          34.000    23784583.559 2  -6942369.93209       834.951          29.800  
E15  23998973.252 4     39411.62706     -1019.714          35.800    23996849.822 1   2187968.25302      -760.043          39.400  
E21  27656188.211 6         0.00000     -2085.450          22.000    27654071.080 3         0.00000     -1555.269          26.700  
E26  26686924.417 6         0.00000      2252.850          23.700    26684786.591 3         0.00000      1680.361          24.100  
> 2020 06 25 00 35 50.4479704  0 25
G10  21678824.549 3  -7794928.84402      1897.582          36.800    21676481.980 1 -14201361.70002      1417.036          39.300  
G13  24132215.402 4     63468.19709     -2276.472          32.000           0.000 0         0.00000         0.000           0.000  
G15  21972461.370 3     39098.33302     -1498.768          35.700           0.000 0         0.00000         0.000           0.000  
G16  23228673.019 4    518604.64503      -838.487          34.100           0.000 0         0.00000         0.000           0.000  
G18  20702975.218 3    968132.00302      -747.449          37.800           0.000 0         0.00000         0.000           0.000  
G20  20157521.128 3  -1457545.03402       194.517          37.200           0.000 0         0.00000         0.000           0.000  
G21  21493623.556 3  -1636722.45402      1003.161          38.100           0.000 0         0.00000         0.000           0.000  
G26  23616282.177 5         0.00000     -2349.440          27.600    23613913.222 2   3944989.99705     -1754.278          30.700  
G27  23194152.806 4   -119908.21609      2994.980          31.100    23191784.445 2  -7264764.61704      2236.509          34.600  
G29  23192533.025 4   3580763.13103     -3468.851          34.900           0.000 0         0.00000         0.000           0.000  
G32  25283189.394 5         0.00000      3570.814          27.300           0.000 0         0.00000         0.000           0.000  
R02  21375801.239 4   7762764.46904     -3467.467          31.700  
R18  19530295.946 3 -12738045.31802       886.708          37.800  
R09  24294590.498 5         0.00000     -1476.392          26.100  
R17  20891608.843 3   5248169.61802     -2295.000          38.700  
R03  19216096.068 4 -10068987.94503       155.585          34.800  
R04  21395530.281 2 -14651045.39701      3663.048          47.700  
E01  28376644.950 6         0.00000      -309.850          23.300    28374535.603 1         0.00000      -230.085          35.400  
E03  25000170.037 5         0.00000     -1290.700          28.800    24998050.795 3         0.00000      -959.800          23.200  
E07  27096508.372 5         0.00000      3030.000          26.800    27094396.634 3         0.00000      2264.952          25.100  
E08  22092275.821 4   -503080.60709      1500.166          31.000    22090155.096 1  -5384281.71103      1118.931          36.500  
E13  23786496.539 4   -457857.81607      1116.350          34.900    23784370.108 3         0.00000       832.786          24.700  
E15  23999166.914 4     40431.19706     -1021.190          36.100    23997044.375 1   2188729.60402      -763.482          39.900  
E21  27656591.729 5         0.00000     -2086.550          27.700    27654465.595 3         0.00000     -1557.542          27.800  
E27  28455979.922 6         0.00000     -2587.900          24.600           0.000 0         0.00000         0.000           0.000  
> 2020 06 25 00 35 51.4479704  0 26
G10  21678469.594 3  -7796826.54802      1898.960          35.900    21676120.725 1 -14202778.85002      1418.087          39.200  
G13  24132657.590 4     65744.91809     -2276.520          31.800           0.000 0         0.00000         0.000           0.000  
G15  21972743.470 4     40597.41003     -1498.573          35.200           0.000 0         0.00000         0.000           0.000  
G16  23228846.596 3    519443.20802      -837.927          37.000           0.000 0         0.00000         0.000           0.000  
G18  20703116.425 3    968879.40402      -746.745          38.100           0.000 0         0.00000         0.000           0.000  
G20  20157486.960 3  -1457739.45102       195.713          38.000           0.000 0         0.00000         0.000           0.000  
G21  21493440.084 3  -1637725.59801      1003.793          40.300           0.000 0         0.00000         0.000           0.000  
G26  23616710.876 4         0.00000     -2346.492          29.000    23614359.006 2   3946744.26805     -1753.240          31.500  
G27  23193568.521 5         0.00000      2995.387          26.700    23191216.040 2  -7267001.02905      2236.651          33.200  
G29  23193200.670 4   3584231.48404     -3466.585          31.300           0.000 0         0.00000         0.000           0.000  
G32  25282530.753 5         0.00000      3569.795          26.700           0.000 0         0.00000         0.000           0.000  
R02  21376421.804 4   7766232.16609     -3467.549          30.000  
R18  19530128.075 3 -12738931.93702       887.582          38.600  
R09  24294843.823 5         0.00000     -1480.608          25.700  
R17  20892039.933 3   5250464.51401     -2293.684          39.100  
R03  19216058.602 3 -10069143.38302       156.620          35.700  
R04  21394846.145 2 -14654708.69201      3665.059          46.800  
E01  28376726.198 5         0.00000      -309.750          25.300    28374593.171 2         0.00000      -230.877          34.300  
E03  25000416.155 4     56202.90609     -1288.790          32.300    24998294.225 3         0.00000      -964.300          23.800  
E08  22091990.720 4   -504580.84409      1502.054          32.000    22089869.698 1  -5385401.95803      1119.631          35.400  
E13  23786285.478 4   -458973.82208      1116.765          32.900    23784159.955 3  -6944037.40609       833.569          28.600  
E15  23999361.484 3     41452.13605     -1020.148          37.000    23997237.444 1   2189492.07202      -763.080          39.100  
E21  27656988.652 5         0.00000     -2085.800          25.400    27654859.237 4         0.00000     -1558.500          21.300  
E26  26686050.824 5         0.00000      2249.300          25.300    26683928.895 3         0.00000      1679.500          26.000  
E27  28456479.382 5         0.00000     -2585.850          25.300           0.000 0         0.00000         0.000           0.000  
E07         0.000 0         0.00000         0.000           0.000    27093820.724 3         0.00000      2267.122          26.900  
> 2020 06 25 00 35 52.4479704  0 25
G10  21678106.543 3  -7798728.11402      1900.345          39.400    21675758.581 1 -14204198.89403      1419.175          38.300  
G13  24133093.793 4     68020.72109     -2278.706          32.400           0.000 0         0.00000         0.000           0.000  
G15  21973030.072 3     42094.44202     -1499.768          37.000           0.000 0         0.00000         0.000           0.000  
G16  23229003.980 4    520279.00009      -838.573          33.600           0.000 0         0.00000         0.000           0.000  
G18  20703257.615 3    969624.64102      -747.692          38.200           0.000 0         0.00000         0.000           0.000  
G20  20157449.774 3  -1457936.62802       195.146          37.800           0.000 0         0.00000         0.000           0.000  
G21  21493240.733 3  -1638730.83401      1002.600          41.000           0.000 0         0.00000         0.000           0.000  
G26  23617156.380 5         0.00000     -2345.013          28.100    23614807.790 2   3948495.25409     -1751.762          29.800  
G27  23193000.708 4   -125900.10109      2993.756          32.600    23190645.540 1  -7269238.49803      2234.921          34.700  
G29  23193839.837 4   3587694.58409     -3463.875          29.800           0.000 0         0.00000         0.000           0.000  
R02  21377097.842 4   7769698.77103     -3469.689          32.000  
R18  19529962.280 3 -12739820.55902       885.920          38.300  
R09  24295125.033 6         0.00000     -1482.600          21.900  
R19  21911764.801 6         0.00000      3251.500          22.700  
R17  20892473.746 3   5252755.70902     -2292.412          36.800  
R03  19216019.915 4 -10069301.64303       156.447          33.400  
R04  21394156.931 2 -14658377.07201      3668.084          45.700  
E01  28376770.557 5         0.00000      -310.150          28.900    28374650.722 2         0.00000      -230.958          34.200  
E03  25000663.791 4     57490.55809     -1289.962          33.000    24998540.361 3         0.00000      -967.000          22.400  
E07  27095356.570 5         0.00000      3041.350          28.200    27093235.234 3         0.00000      2269.561          28.500  
E08  22091704.117 4   -506085.13508      1503.507          33.100    22089582.485 1  -5386525.35303      1122.859          35.700  
E13  23786072.027 4   -460091.59106      1115.660          36.400    23783946.800 3  -6944872.35209       832.765          28.400  
E15  23999553.646 4     42470.00906     -1019.408          36.600    23997431.106 1   2190252.13802      -760.990          39.300  
E21  27657380.479 4      1372.13209     -2084.380          29.700    27655254.659 3         0.00000     -1554.400          23.600  
E26  26685636.503 5         0.00000      2249.650          28.000    26683503.790 3         0.00000      1679.444          28.800  
> 2020 06 25 00 35 53.4479704  0 25
G10  21677742.601 3  -7800634.79201      1914.400          41.400    21675395.529 1 -14205622.63903      1429.547          38.100  
G13  24133533.294 4     70297.59409     -2272.884          30.500           0.000 0         0.00000         0.000           0.000  
G15  21973313.080 3     43590.13402     -1490.748          38.700           0.000 0         0.00000         0.000           0.000  
G16  23229166.773 4         0.00000      -830.518          28.500           0.000 0         0.00000         0.000           0.000  
G18  20703400.619 3    970367.60002      -737.692          38.400           0.000 0         0.00000         0.000           0.000  
G20  20157409.604 3  -1458136.61602       206.093          37.200           0.000 0         0.00000         0.000           0.000  
G21  21493050.055 2  -1639737.37201      1011.341          42.500           0.000 0         0.00000         0.000           0.000  
G26  23617597.068 4    533723.93109     -2333.434          31.700    23615251.794 2   3950243.25609     -1741.968          30.300  
G27  23192421.518 3   -128895.50109      2998.748          36.600    23190074.743 1  -7271475.44503      2239.636          35.400  
G29  23194499.664 4   3591149.88109     -3444.412          33.200           0.000 0         0.00000         0.000           0.000  
G32  25281151.418 6         0.00000      3590.550          20.900           0.000 0         0.00000         0.000           0.000  
R02  21377717.203 4   7773165.73003     -3463.428          33.800  
R18  19529793.502 3 -12740710.56302       894.972          37.800  
R17  20892904.836 3   5255041.33202     -2277.561          37.400  
R03  19215992.937 4 -10069463.47003       168.671          32.000  
R04  21393470.108 2 -14662053.66301      3686.729          42.400  
E01  28376837.408 5         0.00000      -301.600          29.500    28374710.087 3         0.00000      -225.891          27.900  
E03  25000901.218 4     58776.36409     -1281.110          33.500    24998786.182 3         0.00000      -955.927          23.800  
E07  27094777.973 4     -4746.31409      3059.004          30.800    27092655.137 3         0.00000      2285.552          26.000  
E08  22091418.126 4   -507596.05408      1519.053          33.600    22089295.586 2  -5387653.65404      1135.924          34.400  
E13  23785859.484 3   -461210.78305      1123.203          36.900    23783735.147 3         0.00000       840.027          24.300  
E15  23999747.605 3     43483.90604     -1007.736          39.100    23997624.176 1   2191009.26202      -751.004          39.100  
E21  27657790.001 6         0.00000     -2072.600          24.600           0.000 0         0.00000         0.000           0.000  
E26  26685197.020 5         0.00000      2260.400          29.300    26683074.777 3         0.00000      1680.850          24.500  
E27  28457450.714 6         0.00000     -2560.900          23.100           0.000 0         0.00000         0.000           0.000  
> 2020 06 25 00 35 54.4479704  0 25
G10  21677379.846 2  -7802549.02301      1914.361          41.800    21675032.181 1 -14207052.17503      1429.725          38.100  
G13  24133965.292 5         0.00000     -2282.142          27.300           0.000 0         0.00000         0.000           0.000  
G15  21973599.089 3     45084.29201     -1496.817          40.300           0.000 0         0.00000         0.000           0.000  
G16  23229314.262 4    521944.33509      -831.013          31.800           0.000 0         0.00000         0.000           0.000  
G18  20703542.123 3    971108.21502      -743.000          37.600           0.000 0         0.00000         0.000           0.000  
G20  20157373.028 3  -1458340.51802       202.311          38.900           0.000 0         0.00000         0.000           0.000  
G21  21492859.394 2  -1640744.99701      1004.787          42.700           0.000 0         0.00000         0.000           0.000  
G26  23618040.461 4    536055.19803     -2329.551          35.400    23615695.779 1   3951983.12003     -1739.641          38.000  
G27  23191856.410 4   -131889.21109      2989.330          31.800    23189505.726 2  -7273711.16405      2232.456          31.400  
G29  23195155.321 4   3594591.82809     -3439.001          30.600           0.000 0         0.00000         0.000           0.000  
G32  25280481.068 6         0.00000      3600.900          23.200           0.000 0         0.00000         0.000           0.000  
R02  21378363.262 4   7776634.29103     -3472.661          34.400  
R18  19529625.910 3 -12741602.00602       888.732          38.000  
R09  24295785.768 6         0.00000     -1467.850          20.900  
R17  20893313.154 3   5257318.84402     -2277.264          35.700  
R03  19215954.861 4 -10069630.57903       166.239          32.600  
R04  21392783.878 2 -14665742.89001      3691.397          42.800  
E01  28376897.978 6         0.00000      -298.400          22.300    28374768.842 2         0.00000      -233.580          29.300  
E03  25001155.747 4     60060.94909     -1287.214          33.500    24999027.815 3         0.00000      -962.200          26.100  
E07  27094196.968 4     -7809.37909      3066.351          32.500    27092073.835 2   -539784.31109      2289.717          30.300  
E08  22091132.413 4   -509116.43307      1521.436          35.000    22089005.685 2  -5388788.94405      1136.266          33.600  
E13  23785647.237 4   -462330.84407      1117.324          35.600    23783520.509 3         0.00000       833.556          26.600  
E15  23999941.582 3     44492.50703     -1009.753          40.700    23997816.355 1   2191762.40802      -753.291          39.400  
E21  27658168.636 5         0.00000     -2072.400          28.400    27656047.003 3         0.00000     -1548.450          23.400  
E26  26684779.104 6         0.00000      2243.950          24.200    26682648.171 3         0.00000      1679.650          23.600  
> 2020 06 25 00 35 55.4479704  0 24
G10  21677014.403 2  -7804469.51801      1922.566          42.900    21674667.035 1 -14208486.32802      1435.688          40.500  
G13  24134376.018 5         0.00000     -2277.400          25.900           0.000 0         0.00000         0.000           0.000  
G15  21973885.692 3     46578.94601     -1497.334          39.700           0.000 0         0.00000         0.000           0.000  
G16  23229476.165 3    522774.52409      -831.880          37.300           0.000 0         0.00000         0.000           0.000  
G18  20703683.627 3    971848.54802      -742.337          38.700           0.000 0         0.00000         0.000           0.000  
G20  20157334.655 3  -1458546.48902       205.188          38.500           0.000 0         0.00000         0.000           0.000  
G21  21492667.528 2  -1641751.83601      1004.284          42.600           0.000 0         0.00000         0.000           0.000  
G26  23618481.759 3    538378.03802     -2320.083          35.700    23616137.671 1   3953717.66203     -1732.426          37.000  
G27  23191292.489 4         0.00000      2981.350          28.900    23188935.523 2         0.00000      2229.530          29.200  
G29  23195810.368 4   3598022.52109     -3424.937          31.100           0.000 0         0.00000         0.000           0.000  
R02  21379014.121 4   7780107.39309     -3477.896          30.700  
R18  19529461.023 3 -12742492.90302       888.136          38.500  
R17  20893748.153 3   5259589.55209     -2269.063          36.000  
R03  19215923.398 4 -10069801.32403       170.783          34.500  
R04  21392097.352 3 -14669443.51801      3705.984          41.900  
E03  25001396.490 4     61345.81109     -1287.405          32.300           0.000 0         0.00000         0.000           0.000  
E07  27093609.367 5         0.00000      3077.750          26.500    27091486.251 3   -542081.66509      2301.701          28.200  
E08  22090838.028 4   -510644.83906      1531.161          36.100    22088714.284 2  -5389930.35305      1143.521          32.700  
E13  23785433.175 3   -463449.88005      1115.969          37.400    23783306.744 3         0.00000       833.443          27.400  
E15  24000133.744 3     45497.55804     -1005.249          40.400    23998007.312 1   2192513.02903      -750.971          37.900  
E21  27658565.558 5         0.00000     -2066.050          29.500    27656439.738 3         0.00000     -1544.156          28.400  
E27  28458429.234 6         0.00000     -2544.050          24.100           0.000 0         0.00000         0.000           0.000  
E01         0.000 0         0.00000         0.000           0.000    28374829.412 3         0.00000      -229.000          22.100  
E26         0.000 0         0.00000         0.000           0.000    26682218.582 4         0.00000      1683.650          21.300  
> 2020 06 25 00 35 56.4479704  0 24
G10  21676648.664 2  -7806386.10801      1914.467          42.800    21674302.482 1 -14209917.49202      1429.683          41.000  
G13  24134841.293 4         0.00000     -2310.500          30.700           0.000 0         0.00000         0.000           0.000  
G15  21974170.497 3     48087.23501     -1514.255          40.200           0.000 0         0.00000         0.000           0.000  
G16  23229634.142 3    523615.73309      -845.849          37.300           0.000 0         0.00000         0.000           0.000  
G18  20703823.333 3    972601.16102      -757.958          37.100           0.000 0         0.00000         0.000           0.000  
G20  20157297.189 3  -1458742.71901       191.799          39.700           0.000 0         0.00000         0.000           0.000  
G21  21492479.258 2  -1642745.13401       987.476          43.200           0.000 0         0.00000         0.000           0.000  
G26  23618925.152 3    540702.76202     -2325.925          37.900    23616579.581 1   3955453.67809     -1737.228          36.900  
G27  23190718.988 4   -137856.35809      2965.504          32.600    23188370.118 1  -7278164.44103      2214.847          36.800  
G29  23196460.615 4   3601449.02809     -3427.896          30.100           0.000 0         0.00000         0.000           0.000  
G32  25279076.553 5         0.00000      3622.000          25.000           0.000 0         0.00000         0.000           0.000  
R02  21379688.345 4   7783598.98809     -3498.980          30.300  
R18  19529300.935 3 -12743370.06302       870.968          37.000  
R17  20894169.959 3   5261865.04802     -2278.402          38.300  
R03  19215882.617 3 -10069963.97409       159.041          36.000  
R04  21391403.339 2 -14673146.77101      3703.905          44.500  
E03  25001641.422 4     62644.59508     -1304.241          33.200    24999522.773 3         0.00000      -970.650          24.400  
E07  27093019.078 4     -1757.52909      3082.080          30.900    27090900.151 2         0.00000      2299.569          29.900  
E08  22090549.925 4   -512171.36606      1525.490          36.200    22088423.494 2  -5391070.07405      1135.920          32.300  
E13  23785221.521 3   -464555.08204      1099.205          38.200    23783097.795 2  -6948205.16909       818.200          31.800  
E15  24000323.811 3     46511.07504     -1016.797          38.500    23998199.474 1   2193269.97203      -762.419          37.600  
E21  27658954.087 4         0.00000     -2075.150          32.800    27656834.863 2         0.00000     -1553.772          31.300  
E26  26683927.988 6         0.00000      2231.650          23.100           0.000 0         0.00000         0.000           0.000  
E27  28458911.000 6         0.00000     -2538.400          22.100           0.000 0         0.00000         0.000           0.000  
> 2020 06 25 00 35 57.4479704  0 24
G10  21676282.018 3  -7808309.45109      1937.246          39.300    21673933.445 1 -14211354.06403      1446.736          37.100  
G13  24135272.383 4     79447.48509     -2294.354          31.900           0.000 0         0.00000         0.000           0.000  
G15  21974457.692 2     49595.70701     -1497.277          42.300           0.000 0         0.00000         0.000           0.000  
G16  23229802.624 3    524454.66709      -826.838          36.800           0.000 0         0.00000         0.000           0.000  
G18  20703969.933 3    973352.78502      -740.017          36.100           0.000 0         0.00000         0.000           0.000  
G20  20157255.518 3  -1458942.11102       212.145          38.300           0.000 0         0.00000         0.000           0.000  
G21  21492291.284 2  -1643738.48401      1004.256          42.500           0.000 0         0.00000         0.000           0.000  
G26  23619360.447 3    543018.71909     -2302.160          35.700    23617019.361 1   3957182.97009     -1718.281          34.800  
G27  23190157.178 4   -140826.35009      2977.861          30.400    23187804.714 2  -7280382.54205      2225.520          33.600  
G29  23197110.566 4         0.00000     -3400.250          34.700           0.000 0         0.00000         0.000           0.000  
G32  25278390.026 4         0.00000      3656.650          30.600           0.000 0         0.00000         0.000           0.000  
R02  21380314.005 4   7787093.54809     -3484.799          30.600  
R18  19529132.453 3 -12744247.54402       889.525          36.700  
R17  20894595.064 3   5264134.15902     -2255.353          38.400  
R03  19215873.316 3 -10070131.09202       180.645          36.000  
R04  21390710.513 3 -14676862.93409      3730.818          40.600  
E03  25001886.946 4     63943.39109     -1288.135          32.500    24999767.704 3   1101888.97209      -960.289          28.900  
E07  27092430.587 5         0.00000      3098.550          26.900    27090313.754 3         0.00000      2315.900          23.700  
E08  22090257.930 4   -513706.50506      1549.118          36.600    22088132.686 2  -5392216.59405      1157.263          33.500  
E13  23785012.572 3   -465659.67905      1116.346          36.800    23782886.734 3  -6949030.26509       835.432          28.400  
E15  24000515.677 3     47520.82505      -997.845          37.400    23998391.950 1   2194023.82003      -744.066          38.500  
E21  27659351.918 4      7568.83209     -2055.027          32.300    27657226.394 2         0.00000     -1533.402          29.700  
E26  26683488.800 5         0.00000      2251.200          28.200    26681368.965 3         0.00000      1674.850          23.600  
E27  28459395.453 6         0.00000     -2519.550          23.000           0.000 0         0.00000         0.000           0.000  
> 2020 06 25 00 35 58.4479704  0 24
G10  21675912.073 3  -7810248.96509      1928.152          40.900    21673565.891 1 -14212802.37409      1438.427          36.800  
G13  24135705.881 4         0.00000     -2309.750          28.500           0.000 0         0.00000         0.000           0.000  
G15  21974740.997 3     51092.69102     -1510.799          38.600           0.000 0         0.00000         0.000           0.000  
G16  23229951.632 3    525281.53009      -842.045          35.700           0.000 0         0.00000         0.000           0.000  
G18  20704105.137 3    974092.37002      -753.219          35.900           0.000 0         0.00000         0.000           0.000  
G20  20157216.831 3  -1459154.15802       197.658          38.100           0.000 0         0.00000         0.000           0.000  
G21  21492100.623 2  -1644742.62001       989.540          42.300           0.000 0         0.00000         0.000           0.000  
G26  23619796.650 4    545317.99409     -2313.376          34.700    23617457.972 1   3958900.47409     -1727.824          35.400  
G27  23189587.864 4   -143804.70209      2974.130          30.500    23187237.495 2  -7282607.17809      2212.400          31.600  
G29  23197753.327 4   3608280.35609     -3406.051          32.400           0.000 0         0.00000         0.000           0.000  
G32  25277701.999 4    -76728.90809      3648.951          31.700           0.000 0         0.00000         0.000           0.000  
R02  21381003.236 4   7790579.07903     -3500.978          33.200  
R18  19528975.959 3 -12745136.18202       873.327          36.100  
R17  20895013.573 3   5266386.41302     -2264.048          38.400  
R03  19215838.852 3 -10070312.32902       167.151          35.900  
R04  21390016.204 3 -14680599.09809      3725.847          39.600  
E03  25002133.378 4     65230.83908     -1300.485          33.500    25000012.932 2   1102850.33609      -973.311          29.800  
E07  27091842.689 4         0.00000      3103.650          31.100    27089718.666 3         0.00000      2316.900          28.800  
E08  22089962.935 4   -515259.31306      1541.504          35.800    22087836.800 2  -5393376.10305      1149.901          32.900  
E13  23784800.011 4   -466775.38706      1100.960          36.300    23782674.191 3         0.00000       821.623          27.300  
E15  24000703.354 3     48515.88604     -1006.762          38.600    23998581.425 1   2194766.96602      -753.836          39.200  
E21  27659741.057 4      9622.23409     -2065.870          33.600    27657619.722 2    711118.09605     -1544.085          31.600  
E26  26683062.195 5         0.00000      2226.800          26.100    26680944.454 3         0.00000      1662.900          25.700  
E01         0.000 0         0.00000         0.000           0.000    28375017.682 4         0.00000      -249.900          21.800  
> 2020 06 25 00 35 59.4479704  0 23
G10  21675552.023 2  -7812162.10309      1907.370          42.400    21673202.839 1 -14214230.99409      1425.397          38.600  
G15  21975030.600 3     52619.69109     -1532.401          39.100           0.000 0         0.00000         0.000           0.000  
G16  23230113.517 4    526134.45009      -856.189          32.200           0.000 0         0.00000         0.000           0.000  
G18  20704251.143 3    974861.86202      -774.605          36.500           0.000 0         0.00000         0.000           0.000  
G20  20157185.962 3  -1459336.55602       178.132          38.800           0.000 0         0.00000         0.000           0.000  
G21  21491913.243 3  -1645715.20502       967.291          38.100           0.000 0         0.00000         0.000           0.000  
G26  23620237.338 3    547647.28809     -2331.630          37.100    23617901.661 1   3960639.05202     -1740.716          39.800  
G27  23189026.055 4         0.00000      2940.850          31.100    23186679.280 3         0.00000      2190.851          27.600  
G29  23198399.666 4   3611699.48009     -3421.844          32.100           0.000 0         0.00000         0.000           0.000  
G32  25276998.982 5         0.00000      3628.959          28.000           0.000 0         0.00000         0.000           0.000  
R02  21381643.293 3   7794097.46602     -3524.337          35.200  
R18  19528805.087 3 -12745993.64202       852.567          37.000  
R17  20895432.989 3   5268665.27202     -2282.664          36.600  
R03  19215800.182 3 -10070464.38402       147.986          35.400  
R04  21389314.984 3 -14684309.60409      3707.804          40.600  
E03  25002383.701 4     66548.39708     -1322.580          34.600    25000260.568 3   1103834.12409      -989.559          28.400  
E07  27091256.903 4         0.00000      3093.350          32.300    27089129.879 2         0.00000      2310.150          31.700  
E08  22089670.923 4   -516786.34507      1524.749          35.200    22087546.603 2  -5394516.48005      1135.340          32.600  
E13  23784594.657 4   -467859.58609      1079.583          33.700    23782469.727 3         0.00000       805.700          26.000  
E15  24000901.815 3     49538.78404     -1026.898          39.900    23998776.588 1   2195530.73602      -768.937          39.700  
E21  27660136.183 4     11705.21209     -2087.098          35.000    27658012.753 2    712672.50009     -1561.119          30.200  
E26  26682619.989 5         0.00000      2204.550          25.100    26680522.647 4         0.00000      1646.850          21.800  
E01         0.000 0         0.00000         0.000           0.000    28375083.923 3         0.00000      -277.400          23.900  
> 2020 06 25 00 36 00.4479704  0 24
G10  21675188.971 3  -7814074.27809      1910.690          40.900    21672838.601 1 -14215658.88709      1427.946          36.200  
G15  21975323.188 2     54147.83901     -1529.725          41.500           0.000 0         0.00000         0.000           0.000  
G16  23230282.592 4    526995.06909      -862.872          34.700           0.000 0         0.00000         0.000           0.000  
G18  20704398.039 3    975631.96102      -771.598          37.200           0.000 0         0.00000         0.000           0.000  
G20  20157150.887 3  -1459518.36602       179.831          38.800           0.000 0         0.00000         0.000           0.000  
G21  21491726.176 2  -1646686.25001       968.861          41.500           0.000 0         0.00000         0.000           0.000  
G26  23620687.327 4    549974.23009     -2328.701          31.000    23618343.850 2         0.00000     -1738.700          33.600  
G27  23188465.449 4   -149717.67303      2939.402          35.100    23186116.580 2  -7286999.55609      2194.919          32.400  
G29  23199052.618 5         0.00000     -3415.550          28.100           0.000 0         0.00000         0.000           0.000  
G32  25276304.969 6         0.00000      3641.650          22.900           0.000 0         0.00000         0.000           0.000  
R02  21382309.123 3   7797618.30702     -3523.052          36.000  
R18  19528644.405 3 -12746849.68302       853.877          37.100  
R17  20895852.405 3   5270942.33902     -2278.005          35.600  
R03  19215771.686 3 -10070616.36302       150.158          36.500  
R04  21388623.066 3 -14688023.58609      3712.801          39.500  
E01  28377286.804 6         0.00000      -343.250          20.000           0.000 0         0.00000         0.000           0.000  
E03  25002635.229 4     67866.74508     -1319.953          33.700    25000511.799 2   1104818.64909      -985.318          29.500  
E07  27090660.612 4         0.00000      3093.450          35.000    27088540.480 2         0.00000      2312.591          31.800  
E08  22089382.837 4   -518315.47207      1528.340          35.100    22087254.294 2  -5395658.36705      1141.542          33.300  
E13  23784385.708 4   -468941.74707      1080.185          35.100           0.000 0         0.00000         0.000           0.000  
E15  24001094.570 3     50560.79004     -1023.131          40.400    23998971.454 1   2196293.95102      -763.961          40.900  
E21  27660530.401 4     13788.56709     -2092.311          32.900    27658410.269 2    714228.22309     -1555.205          29.000  
E26  26682225.771 5         0.00000      2206.350          25.400           0.000 0         0.00000         0.000           0.000  
E27  28460856.647 6         0.00000     -2529.050          20.300           0.000 0         0.00000         0.000           0.000  
> 2020 06 25 00 36 01.4479704  0 22
G10  21674821.417 2  -7815981.37609      1905.405          42.000    21672474.642 1 -14217084.60409      1422.846          36.800  
G15  21975611.885 3     55681.28201     -1534.243          40.600           0.000 0         0.00000         0.000           0.000  
G16  23230447.794 4    527859.83009      -867.483          32.000           0.000 0         0.00000         0.000           0.000  
G18  20704550.327 3    976407.60602      -776.598          36.200           0.000 0         0.00000         0.000           0.000  
G20  20157113.718 3  -1459694.21902       174.316          37.300           0.000 0         0.00000         0.000           0.000  
G21  21491545.706 3  -1647651.12709       963.392          37.500           0.000 0         0.00000         0.000           0.000  
G26  23621134.018 3    552306.51909     -2333.476          37.300    23618788.150 1   3964116.16702     -1742.503          42.000  
G27  23187908.141 4   -152652.82709      2932.225          34.700    23185558.662 2  -7289190.83709      2190.007          31.400  
G29  23199704.663 4   3618530.66609     -3418.616          30.000           0.000 0         0.00000         0.000           0.000  
R02  21382962.075 3   7801145.52202     -3528.182          35.500  
R18  19528484.299 3 -12747699.54002       848.381          37.600  
R17  20896294.000 4   5273223.22509     -2281.702          34.400  
R03  19215757.010 3 -10070762.57702       144.586          37.700  
R04  21387931.147 2 -14691732.94309      3707.522          43.100  
E01  28377335.368 6         0.00000      -364.950          24.000    28375221.239 4         0.00000      -266.350          21.200  
E03  25002888.554 4     69190.56108     -1324.678          33.700    25000764.217 2   1105807.13909      -989.601          30.800  
E07  27090070.027 4    -11068.37209      3092.411          30.700    27087951.989 3         0.00000      2307.665          26.500  
E08  22089089.935 4   -519840.49408      1523.727          34.600    22086965.005 2  -5396797.18004      1138.322          34.800  
E13  23784185.746 4   -470017.46809      1073.437          32.700    23782056.610 4         0.00000       801.600          21.000  
E15  24001292.735 3     51587.32904     -1027.239          40.500    23999166.914 1   2197060.52502      -767.156          41.800  
E21  27660933.919 4         0.00000     -2091.900          31.900    27658807.802 2    715788.28509     -1561.196          33.200  
E26         0.000 0         0.00000         0.000           0.000    26679680.831 3         0.00000      1642.700          22.300  
> 2020 06 25 00 36 02.4479704  0 23
G10  21674459.273 2  -7817885.66409      1903.549          41.500    21672113.091 1 -14218506.53803      1421.463          36.100  
G15  21975906.287 3     57215.63501     -1534.540          40.600           0.000 0         0.00000         0.000           0.000  
G16  23230610.273 4    528730.13009      -870.716          33.800           0.000 0         0.00000         0.000           0.000  
G18  20704699.927 3    977184.00702      -776.546          36.600           0.000 0         0.00000         0.000           0.000  
G20  20157085.221 3  -1459868.25002       173.642          38.800           0.000 0         0.00000         0.000           0.000  
G21  21491358.029 3  -1648614.91309       963.106          38.900           0.000 0         0.00000         0.000           0.000  
G26  23621572.611 3    554640.54009     -2334.907          37.200    23619232.136 1   3965859.11702     -1743.568          41.000  
G27  23187351.724 4   -155584.73709      2933.066          33.600    23184999.853 2  -7291381.05405      2190.079          30.700  
G29  23200373.512 4         0.00000     -3417.193          28.700           0.000 0         0.00000         0.000           0.000  
G32  25274951.705 6         0.00000      3631.250          21.800           0.000 0         0.00000         0.000           0.000  
R02  21383643.210 4   7804673.29603     -3527.746          33.500  
R18  19528321.227 3 -12748548.04702       848.348          37.800  
R17  20896714.899 3   5275505.10609     -2281.991          35.300  
R03  19215727.624 3 -10070906.89702       143.621          36.900  
R04  21387245.511 3 -14695438.89409      3705.427          40.100  
E03  25003138.877 4     70514.95408     -1324.099          33.000    25001017.838 2   1106796.18909      -990.929          30.000  
E07  27089484.833 4    -14170.30709      3092.591          30.400    27087363.794 3         0.00000      2306.750          28.900  
E08  22088798.237 4   -521363.96508      1522.744          33.200    22086674.807 2  -5397934.78904      1135.709          34.600  
E13  23783974.686 4   -471091.26608      1074.722          32.700    23781853.961 3         0.00000       808.800          24.300  
E15  24001488.212 3     52614.43804     -1027.039          40.400    23999362.374 1   2197827.54602      -768.789          41.100  
E21  27661328.451 4     17981.42408     -2091.936          34.100    27659205.615 2         0.00000     -1563.124          32.000  
E26  26681385.753 6         0.00000      2204.000          24.100    26679262.916 3         0.00000      1643.050          23.300  
E01         0.000 0         0.00000         0.000           0.000    28375290.482 3         0.00000      -274.450          23.400  
> 2020 06 25 00 36 03.4479704  0 24
G10  21674098.926 3  -7819790.27609      1907.589          38.100    21671750.353 1 -14219928.82509      1424.620          34.700  
G13  24137928.550 5         0.00000     -2333.950          24.100           0.000 0         0.00000         0.000           0.000  
G15  21976201.876 3     58748.83902     -1529.771          39.000           0.000 0         0.00000         0.000           0.000  
G16  23230778.458 4    529598.51809      -862.893          33.500           0.000 0         0.00000         0.000           0.000  
G18  20704847.713 3    977958.75302      -770.913          37.600           0.000 0         0.00000         0.000           0.000  
G20  20157048.960 3  -1460043.63202       179.219          39.400           0.000 0         0.00000         0.000           0.000  
G21  21491177.856 3  -1649580.27709       969.583          39.200           0.000 0         0.00000         0.000           0.000  
G26  23622018.115 4    556975.00909     -2331.191          33.000    23619675.825 1   3967601.91403     -1740.449          37.000  
G27  23186792.008 3   -158520.04709      2940.204          35.500    23184441.027 2  -7293572.97405      2195.569          32.500  
G29  23201011.161 4         0.00000     -3420.052          28.600           0.000 0         0.00000         0.000           0.000  
G32  25274238.201 5         0.00000      3637.437          28.400    25271893.520 3         0.00000      2720.917          23.900  
R02  21384287.454 4   7808198.96603     -3521.286          34.600  
R18  19528161.139 3 -12749398.33402       854.430          36.800  
R17  20897148.694 4   5277785.76209     -2278.055          32.200  
R03  19215685.656 3 -10071051.53202       147.951          36.100  
R04  21386549.404 2 -14699144.52001      3707.761          43.400  
E01  28377477.168 6         0.00000      -365.150          24.600    28375360.631 3         0.00000      -270.701          27.800  
E03  25003389.497 4     71837.85808     -1319.075          34.200    25001272.664 3         0.00000      -984.535          26.400  
E07  27088901.438 5         0.00000      3090.500          28.300    27086776.211 3         0.00000      2307.200          24.700  
E08  22088508.930 4   -522887.33008      1525.761          33.900    22086384.296 2  -5399072.31705      1139.797          33.000  
E13  23783772.333 4   -472168.15207      1081.204          34.900           0.000 0         0.00000         0.000           0.000  
E15  24001682.171 3     53640.60704     -1022.947          40.000    23999557.834 1   2198593.86402      -763.539          41.100  
E21  27661723.577 4     20072.06209     -2084.944          30.800    27659604.038 2    718912.75109     -1559.365          30.100  
E26  26680962.149 5         0.00000      2206.450          28.900    26678841.406 3         0.00000      1647.300          24.000  
> 2020 06 25 00 36 04.4479704  0 24
G10  21673735.577 3  -7821696.69409      1903.927          39.400    21671387.895 1 -14221352.53109      1422.148          36.900  
G15  21976493.888 3     60279.29302     -1531.460          37.100           0.000 0         0.00000         0.000           0.000  
G16  23230946.346 4    530461.20309      -864.610          31.400           0.000 0         0.00000         0.000           0.000  
G18  20704994.313 3    978730.45202      -772.732          37.200           0.000 0         0.00000         0.000           0.000  
G20  20157017.183 3  -1460221.61201       176.784          39.800           0.000 0         0.00000         0.000           0.000  
G21  21490991.679 3  -1650549.84809       969.181          40.200           0.000 0         0.00000         0.000           0.000  
G26  23622470.198 4    559307.26409     -2336.069          30.800    23620119.514 2   3969343.47209     -1743.037          33.700  
G27  23186226.307 4   -161460.66709      2941.097          33.300    23183881.922 2  -7295768.98305      2196.247          33.500  
G29  23201662.909 4         0.00000     -3425.894          29.000           0.000 0         0.00000         0.000           0.000  
G32  25273554.676 4         0.00000      3631.729          28.700    25271201.304 3         0.00000      2711.500          22.100  
R02  21384950.912 3   7811720.17802     -3521.447          36.200  
R18  19528004.034 3 -12750251.87202       852.594          36.700  
R09  24298589.128 6         0.00000     -1524.600          20.800  
R17  20897576.504 4   5280066.50909     -2283.811          34.100  
R03  19215677.559 3 -10071197.57602       144.020          36.800  
R04  21385856.281 3 -14702849.76909      3702.432          41.500  
E01  28377553.024 6         0.00000      -364.050          24.500    28375433.783 3         0.00000      -261.650          22.500  
E03  25003636.540 4     73157.60109     -1320.399          32.500    25001522.690 3         0.00000      -986.837          24.200  
E07  27088304.553 5         0.00000      3083.850          27.400    27086188.609 3         0.00000      2304.600          27.500  
E08  22088217.529 4   -524410.93508      1520.897          34.000    22086094.710 2  -5400210.14004      1136.424          34.400  
E13  23783567.572 4   -473249.26506      1080.634          36.000    23781446.830 3         0.00000       819.550          22.200  
E15  24001877.038 3     54664.77704     -1025.637          38.700    23999752.404 1   2199358.69902      -765.576          41.200  
E21  27662120.796 4     22160.67809     -2090.828          30.700    27660000.961 2    720471.88309     -1559.763          31.500  
E26  26680537.934 5         0.00000      2213.500          24.900    26678421.711 3         0.00000      1640.535          23.200  
> 2020 06 25 00 36 05.4479704  0 24
G10  21673368.634 3  -7823602.76009      1905.993          39.000    21671025.157 1 -14222776.31509      1423.205          36.800  
G13  24138845.018 6         0.00000     -2255.350          20.200           0.000 0         0.00000         0.000           0.000  
G15  21976776.285 3     61807.82609     -1527.710          38.100           0.000 0         0.00000         0.000           0.000  
G16  23231098.931 5         0.00000      -863.446          28.200           0.000 0         0.00000         0.000           0.000  
G18  20705140.022 3    979499.65202      -768.179          37.000           0.000 0         0.00000         0.000           0.000  
G20  20156982.701 3  -1460401.51701       180.292          40.300           0.000 0         0.00000         0.000           0.000  
G21  21490806.707 3  -1651523.38209       975.383          40.700           0.000 0         0.00000         0.000           0.000  
G26  23622900.695 4    561640.51909     -2332.481          34.400    23620563.814 1   3971084.86102     -1741.961          38.700  
G27  23185670.186 5         0.00000      2949.519          27.800    23183322.207 2  -7297969.02409      2202.415          30.600  
G29  23202317.065 4         0.00000     -3426.823          29.400           0.000 0         0.00000         0.000           0.000  
G32  25272842.358 5         0.00000      3626.630          27.600    25270512.073 3         0.00000      2707.353          23.500  
R02  21385614.648 4   7815236.75703     -3514.209          34.900  
R18  19527840.945 3 -12751108.31602       857.619          37.300  
R17  20897995.920 4         0.00000     -2283.450          31.600  
R03  19215643.392 3 -10071343.97802       145.832          35.800  
R04  21385164.956 3 -14706553.42109      3701.196          38.800  
E01  28377616.578 6         0.00000      -355.050          22.800    28375500.635 3         0.00000      -262.450          27.200  
E03  25003891.051 4     74475.19609     -1316.358          31.800    25001772.717 3         0.00000      -983.288          24.200  
E07  27087722.658 4     -1756.97008      3085.162          34.000    27085599.822 2         0.00000      2301.471          32.400  
E08  22087933.335 4   -525933.05107      1520.020          35.200    22085805.403 2  -5401346.68504      1133.932          34.500  
E13  23783361.014 4   -474334.26607      1086.505          35.300           0.000 0         0.00000         0.000           0.000  
E15  24002070.404 3     55688.20304     -1023.354          39.600    23999947.271 1   2200122.95202      -765.902          40.300  
E21  27662516.829 4     24246.24809     -2085.433          29.800    27660399.088 2    722028.65509     -1558.167          30.500  
E26  26680120.333 5         0.00000      2221.300          24.700           0.000 0         0.00000         0.000           0.000  
> 2020 06 25 00 36 06.4479704  0 25
G10  21673008.584 3  -7825507.21509      1905.298          39.800    21670663.309 1 -14224198.48103      1423.217          36.400  
G13  24139285.410 6         0.00000     -2316.450          22.900           0.000 0         0.00000         0.000           0.000  
G15  21977073.375 3     63335.57502     -1526.060          37.900           0.000 0         0.00000         0.000           0.000  
G16  23231271.322 3    532187.77109      -856.438          38.400           0.000 0         0.00000         0.000           0.000  
G18  20705286.918 3    980267.64902      -765.857          36.500           0.000 0         0.00000         0.000           0.000  
G20  20156948.516 3  -1460581.86501       182.663          40.100           0.000 0         0.00000         0.000           0.000  
G21  21490625.033 2  -1652500.32801       980.946          42.800           0.000 0         0.00000         0.000           0.000  
G26  23623351.277 3    563975.98702     -2333.508          35.700    23621007.800 1   3972828.46609     -1741.480          36.100  
G27  23185108.376 5         0.00000      2958.174          27.100    23182760.397 2  -7300173.48205      2208.850          30.800  
G29  23202966.702 4   3635647.55109     -3434.825          34.400           0.000 0         0.00000         0.000           0.000  
G32  25272161.537 5         0.00000      3620.568          26.900    25269825.547 3         0.00000      2701.100          22.300  
R02  21386255.595 4   7818749.07109     -3508.661          33.400  
R18  19527682.060 3 -12751966.70902       861.091          37.300  
R09  24299113.472 6         0.00000     -1457.500          20.400  
R17  20898421.321 3   5284641.70802     -2287.889          36.500  
R03  19215619.101 3 -10071488.47002       145.340          36.800  
R04  21384476.929 2 -14710249.08009      3694.877          42.800  
E03  25004144.376 4     75791.17109     -1314.854          32.200    25002028.747 3         0.00000      -981.776          23.000  
E07  27087135.354 4     -4836.02909      3078.435          35.500    27085014.018 1   -567460.33603      2297.148          37.000  
E08  22087642.841 3   -527450.18205      1516.016          37.600    22085517.596 1  -5402479.56603      1131.179          37.700  
E13  23783154.752 3   -475423.02705      1092.593          37.200    23781029.229 3         0.00000       818.600          26.800  
E15  24002264.066 3     56713.16505     -1024.427          37.300    24000141.841 1   2200888.37002      -766.130          39.800  
E21  27662918.253 3     26332.44305     -2082.583          37.000    27660795.417 2    723586.56905     -1556.628          33.300  
E26  26679697.618 5         0.00000      2227.300          25.100    26677578.080 3         0.00000      1659.750          22.800  
E01         0.000 0         0.00000         0.000           0.000    28375565.392 3         0.00000      -257.982          27.000  
> 2020 06 25 00 36 07.4479704  0 24
G10  21672644.328 3  -7827413.74109      1906.459          38.900    21670299.647 1 -14225622.18302      1423.859          38.800  
G15  21977369.279 4     64863.78004     -1531.667          33.300           0.000 0         0.00000         0.000           0.000  
G16  23231430.503 4    533039.77809      -849.970          34.200           0.000 0         0.00000         0.000           0.000  
G18  20705429.015 3    981034.11802      -768.522          36.600           0.000 0         0.00000         0.000           0.000  
G20  20156910.143 3  -1460765.13402       182.884          38.300           0.000 0         0.00000         0.000           0.000  
G21  21490432.574 3  -1653483.77301       984.639          40.400           0.000 0         0.00000         0.000           0.000  
G26  23623791.982 4    566307.70409     -2331.925          31.800    23621451.804 2   3974568.85309     -1740.868          33.900  
G27  23184541.768 4   -170322.11709      2965.984          33.600    23182196.790 2  -7302385.68609      2214.734          31.300  
G29  23203614.262 4   3639086.59909     -3445.681          31.000           0.000 0         0.00000         0.000           0.000  
G32  25271463.913 4         0.00000      3613.998          28.500           0.000 0         0.00000         0.000           0.000  
R02  21386939.730 4   7822256.99509     -3508.488          29.300  
R18  19527522.565 3 -12752828.23602       860.794          38.700  
R09  24299403.076 5         0.00000     -1485.859          26.400  
R17  20898862.009 3   5286934.38809     -2298.812          35.700  
R03  19215599.016 4 -10071632.46003       141.430          34.500  
R04  21383781.119 2 -14713941.37101      3689.466          44.900  
E03  25004393.216 4     77107.65109     -1319.734          30.300    25002268.582 2         0.00000      -984.250          31.900  
E07  27086548.067 4     -7910.56206      3071.566          35.800    27084429.732 1   -569756.28403      2291.932          35.300  
E08  22087354.441 3   -528963.09504      1509.239          38.100    22085229.197 2  -5403609.50204      1125.302          34.900  
E13  23782948.805 3   -476517.91804      1096.341          40.100    23780819.669 2  -6957142.34504       816.612          34.800  
E15  24002461.027 4     57740.38606     -1030.598          36.600    24000337.894 1   2201655.31303      -771.391          38.800  
E21  27663317.270 4     28412.41809     -2077.725          35.600    27661191.450 2    725139.77909     -1553.007          32.100  
E26  26679280.907 4         0.00000      2237.050          31.300    26677156.570 3         0.00000      1665.521          28.800  
E01         0.000 0         0.00000         0.000           0.000    28375630.743 3         0.00000      -241.856          25.200  
> 2020 06 25 00 36 08.4479704  0 24
G10  21672283.981 2  -7829323.25709      1911.779          43.200    21669935.705 1 -14227048.30903      1427.655          36.800  
G15  21977648.377 3     66398.35702     -1539.111          35.900           0.000 0         0.00000         0.000           0.000  
G16  23231588.794 3    533883.76809      -837.723          37.300           0.000 0         0.00000         0.000           0.000  
G18  20705574.410 3    981803.53302      -771.532          36.500           0.000 0         0.00000         0.000           0.000  
G20  20156880.775 4  -1460949.75903       185.451          34.100           0.000 0         0.00000         0.000           0.000  
G21  21490243.100 4  -1654472.10809       991.075          34.400           0.000 0         0.00000         0.000           0.000  
G26  23624244.065 4    568635.30509     -2323.649          33.800    23621893.695 2   3976306.65604     -1734.981          34.000  
G27  23183979.347 4         0.00000      2980.599          28.600    23181631.682 2  -7304605.19409      2224.017          31.300  
G29  23204277.702 3   3642538.16609     -3458.753          39.000           0.000 0         0.00000         0.000           0.000  
G32  25270742.922 6         0.00000      3604.450          21.700           0.000 0         0.00000         0.000           0.000  
R02  21387577.693 4   7825766.24904     -3510.057          31.000  
R18  19527364.885 4 -12753689.83609       861.169          34.100  
R09  24299658.198 3         0.00000     -1493.500          35.000  
R17  20899276.626 3   5289237.87601     -2310.444          39.700  
R03  19215567.832 4 -10071772.98403       138.598          34.400  
R04  21383092.795 3 -14717630.31309      3687.388          39.900  
E01  28377812.945 5         0.00000      -321.050          28.300    28375692.500 3         0.00000      -239.700          27.700  
E03  25004644.133 4     78428.19409     -1323.549          32.300    25002520.703 1   1112702.66303      -988.707          36.200  
E07  27085966.765 3    -10980.98604      3068.468          38.500    27083844.836 2   -572049.36409      2293.514          30.500  
E08  22087071.137 3   -530469.20505      1501.556          37.000    22084944.095 2  -5404734.18609      1122.239          32.400  
E13  23782736.244 4   -477617.58209      1099.839          35.700    23780609.813 3         0.00000       825.539          26.600  
E15  24002659.488 3     58774.32904     -1038.351          37.700    24000533.964 2   2202427.45904      -775.077          34.300  
E21  27663708.504 4     30484.48409     -2066.252          34.700    27661585.668 2    726687.02309     -1543.383          31.500  
E26  26678852.208 4         0.00000      2247.650          34.100    26676728.778 2         0.00000      1679.786          30.500  
