     2.11           OBSERVATION DATA    M (MIXED)           RINEX VERSION / TYPE 
CONVBIN 2.4.2                           20240629 131238 UTC PGM / RUN BY / DATE 
log: rtk_base.rtcm3                                         COMMENT             
format: RTCM 3, station ID: 3793                            COMMENT             
HNOI                                                        MARKER NAME         
0001                                                        MARKER NUMBER       
                                                            OBSERVER / AGENCY   
1832414             LEICA GR50          4.20                REC # / TYPE / VERS 
                    GPPNULLANTENNA                          ANT # / TYPE        
 -1619893.6000  5730732.7900  2276112.2500                  APPROX POSITION XYZ 
        0.0000        0.0000        0.0000                  ANTENNA: DELTA H/E/N
     1     1                                                WAVELENGTH FACT L1/2
     6    C1    L1    P1    P2    L2    C2                  # / TYPES OF OBSERV 
  2024     6    29    13     6   20.0000000     GPS         TIME OF FIRST OBS   
  2024     6    29    13    11   12.0000000     GPS         TIME OF LAST OBS    
                                                            END OF HEADER       
 24  6 29 13  6 20.0000000  0 26G10G23G31G32R02R12R13E07E08E13E26E27
                                E30J02J04C01C02C03C04C05C06C08C09C10
                                C13C16
  20139308.529   105832780.393                    20139313.336    82467121.624  
  20139312.907  
  21540263.928   113194851.351                    21540269.271    88203802.362  
  21540269.128  
  21938800.088   115289172.896                    21938806.879    89835746.924  
  21938807.254  
  21847330.936   114808499.126                    21847335.297    89461185.794  
  21847335.493  
  21337873.995   113862983.857                    21337879.606    88560121.657  
  21337879.570  
  19250132.044   102830750.631                    19250136.887    79979492.811  
  19250136.833  
  20400124.574   108935527.747                    20400132.204    84727664.716  
  20400132.258  
  24867441.481   130679287.247                                                  
                
  27873731.694   146477448.979                                                  
                
  27624171.472   145166000.855                                                  
                
  25295420.538   132928333.373                                                  
                
  24397672.444   128210634.250                                                  
                
  25562265.788   134330613.853                                                  
                
  38106949.739   200253372.583                                   156041613.924  
  38106955.922  
  37893732.018   199132905.460                                   155168512.292  
  37893735.449  
                 195255680.558                                   195255680.558  
  37496800.603  
                 189859092.713                                   189859092.713  
  36460442.587  
                 188257011.094                                   188257011.094  
  36152779.700  
                 204440883.404                                   204440883.404  
  39260722.246  
                 200782358.874                                   200782358.874  
  38558141.032  
                 189255799.031                                   189255799.031  
  36344586.364  
                 187612778.314                                   187612778.314  
  36029061.518  
                 192371475.714                                   192371475.714  
  36942919.394  
                 207715622.144                                   207715622.144  
  39889601.317  
                 185510064.879                                   185510064.879  
  35625257.462  
                 192232754.371                                   192232754.371  
  36916279.397  
 24  6 29 13  6 21.0000000  0 26G10G23G31G32R02R12R13E07E08E13E26E27
                                E30J02J04C01C02C03C04C05C06C08C09C10
                                C13C16
  20139331.723   105832902.342                    20139336.548    82467216.650  
  20139336.101  
  21540742.192   113197364.791                    21540747.553    88205760.882  
  21540747.410  
  21938437.115   115287265.543                    21938443.923    89834260.682  
  21938444.280  
  21847219.988   114807916.069                    21847224.330    89460731.463  
  21847224.544  
  21337454.698   113860746.365                    21337460.309    88558381.386  
  21337460.274  
  19250227.590   102831260.908                    19250232.415    79979889.691  
  19250232.361  
  20399562.915   108932528.485                    20399570.545    84725331.959  
  20399570.599  
  24867478.416   130679481.388                                                  
                
  27873927.181   146478476.154                                                  
                
  27624672.966   145168636.187                                                  
                
  25295800.809   132930331.671                                                  
                
  24397355.680   128208969.579                                                  
                
  25562419.497   134331421.530                                                  
                
  38107010.601   200253692.549                                   156041863.251  
  38107016.801  
  37893523.379   199131809.115                                   155167657.998  
  37893526.828  
                 195255716.858                                   195255716.858  
  37496807.572  
                 189859118.275                                   189859118.275  
  36460447.501  
                 188257048.328                                   188257048.328  
  36152786.847  
                 204440916.646                                   204440916.646  
  39260728.661  
                 200782364.003                                   200782364.003  
  38558142.033  
                 189256334.869                                   189256334.869  
  36344689.254  
                 187613350.822                                   187613350.822  
  36029171.466  
                 192371970.957                                   192371970.957  
  36943014.511  
                 207714911.110                                   207714911.110  
  39889464.779  
                 185510391.378                                   185510391.378  
  35625320.182  
                 192233352.613                                   192233352.613  
  36916394.277  
 24  6 29 13  6 22.0000000  0 26G10G23G31G32R02R12R13E07E08E13E26E27
                                E30J02J04C01C02C03C04C05C06C08C09C10
                                C13C16
  20139355.114   105833025.217                    20139359.938    82467312.389  
  20139359.492  
  21541220.635   113199878.979                    21541225.996    88207719.997  
  21541225.853  
  21938074.302   115285358.909                    21938081.093    89832774.999  
  21938081.450  
  21847109.093   114807333.317                    21847113.435    89460277.373  
  21847113.649  
  21337035.438   113858509.177                    21337041.048    88556641.351  
  21337041.031  
  19250323.314   102831772.331                    19250328.157    79980287.465  
  19250328.085  
  20399001.417   108929530.152                    20399009.047    84722999.933  
  20399009.100  
  24867515.423   130679675.807                                                  
                
  27874122.704   146479503.639                                                  
                
  27625174.478   145171271.644                                                  
                
  25296181.169   132932330.464                                                  
                
  24397039.005   128207305.518                                                  
                
  25562573.314   134332229.903                                                  
                
  38107071.570   200254012.876                                   156042112.856  
  38107077.770  
  37893314.812   199130713.058                                   155166803.922  
  37893318.261  
                 195255753.426                                   195255753.426  
  37496814.576  
                 189859144.140                                   189859144.140  
  36460452.450  
                 188257085.829                                   188257085.829  
  36152794.066  
                 204440950.152                                   204440950.152  
  39260735.094  
                 200782369.420                                   200782369.420  
  38558143.069  
                 189256871.004                                   189256871.004  
  36344792.233  
                 187613923.833                                   187613923.833  
  36029281.521  
                 192372466.499                                   192372466.499  
  36943109.646  
                 207714200.232                                   207714200.232  
  39889328.260  
                 185510718.372                                   185510718.372  
  35625382.974  
                 192233951.123                                   192233951.123  
  36916509.211  
 24  6 29 13  6 23.0000000  0 26G10G23G31G32R02R12R13E07E08E13E26E27
                                E30J02J04C01C02C03C04C05C06C08C09C10
                                C13C16
  20139378.594   105833148.672                    20139383.418    82467408.588  
  20139382.989  
  21541699.150   113202393.582                    21541704.511    88209679.420  
  21541704.350  
  21937711.543   115283452.635                    21937718.334    89831289.598  
  21937718.709  
  21846998.180   114806750.527                    21847002.522    89459823.253  
  21847002.736  
  21336616.195   113856271.954                    21336621.805    88554901.293  
  21336621.770  
  19250419.200   102832284.562                    19250424.042    79980685.871  
  19250423.988  
  20398440.043   108926532.393                    20398447.673    84720668.344  
  20398447.709  
  24867552.394   130679870.146                                                  
                
  27874318.227   146480531.107                                                  
                
  27625675.937   145173906.890                                                  
                
  25296561.529   132934329.390                                                  
                
  24396722.401   128205641.747                                                  
                
  25562727.219   134333038.661                                                  
                
  38107132.521   200254333.204                                   156042362.464  
  38107138.722  
  37893106.227   199129616.944                                   155165949.810  
  37893109.676  
                 195255789.942                                   195255789.942  
  37496821.617  
                 189859169.946                                   189859169.946  
  36460457.418  
                 188257123.281                                   188257123.281  
  36152801.250  
                 204440983.583                                   204440983.583  
  39260741.509  
                 200782374.765                                   200782374.765  
  38558144.088  
                 189257407.069                                   189257407.069  
  36344895.177  
                 187614496.975                                   187614496.975  
  36029391.577  
                 192372962.021                                   192372962.021  
  36943204.816  
                 207713489.174                                   207713489.174  
  39889191.723  
                 185511045.531                                   185511045.531  
  35625445.802  
                 192234549.569                                   192234549.569  
  36916624.144  
 24  6 29 13  6 24.0000000  0 26G10G23G31G32R02R12R13E07E08E13E26E27
                                E30J02J04C01C02C03C04C05C06C08C09C10
                                C13C16
  20139402.199   105833272.664                    20139407.023    82467505.205  
  20139406.594  
  21542177.736   113204908.551                    21542183.097    88211639.138  
  21542182.954  
  21937348.838   115281546.676                    21937355.646    89829804.440  
  21937356.003  
  21846887.284   114806167.654                    21846891.609    89459369.069  
  21846891.841  
  21336196.916   113854034.623                    21336202.527    88553161.144  
  21336202.491  
  19250515.246   102832797.581                    19250520.070    79981084.888  
  19250520.017  
  20397878.742   108923535.112                    20397886.372    84718337.125  
  20397886.425  
  24867589.365   130680064.369                                                  
                
  27874513.732   146481558.501                                                  
                
  27626177.359   145176541.893                                                  
                
  25296941.942   132936328.436                                                  
                
  24396405.834   128203978.208                                                  
                
  25562881.179   134333847.750                                                  
                
  38107193.472   200254653.513                                   156042612.059  
  38107199.691  
  37892897.624   199128520.734                                   155165095.618  
  37892901.073  
                 195255826.359                                   195255826.359  
  37496828.604  
                 189859195.651                                   189859195.651  
  36460462.350  
                 188257160.646                                   188257160.646  
  36152808.451  
                 204441016.926                                   204441016.926  
  39260747.888  
                 200782380.060                                   200782380.060  
  38558145.124  
                 189257943.047                                   189257943.047  
  36344998.102  
                 187615070.234                                   187615070.234  
  36029501.668  
                 192373457.491                                   192373457.491  
  36943299.986  
                 207712777.913                                   207712777.913  
  39889055.114  
                 185511372.777                                   185511372.777  
  35625508.629  
                 192235147.924                                   192235147.924  
  36916739.024  
 24  6 29 13  6 25.0000000  0 26G10G23G31G32R02R12R13E07E08E13E26E27
                                E30J02J04C01C02C03C04C05C06C08C09C10
                                C13C16
  20139425.911   105833397.240                    20139430.718    82467602.275  
  20139430.307  
  21542656.393   113207423.957                    21542661.754    88213599.195  
  21542661.611  
  21936986.222   115279641.112                    21936993.012    89828319.592  
  21936993.369  
  21846776.353   114805584.785                    21846780.678    89458914.885  
  21846780.910  
  21335777.637   113851797.235                    21335783.248    88551420.958  
  21335783.212  
  19250611.434   102833311.429                    19250616.277    79981484.548  
  19250616.205  
  20397317.565   108920538.418                    20397325.177    84716006.368  
  20397325.213  
  24867626.318   130680258.544                                                  
                
  27874709.237   146482585.904                                                  
                
  27626678.746   145179176.702                                                  
                
  25297322.392   132938327.643                                                  
                
  24396089.338   128202314.975                                                  
                
  25563035.228   134334657.223                                                  
                
  38107254.424   200254973.829                                   156042861.660  
  38107260.642  
  37892689.021   199127424.486                                   155164241.399  
  37892692.470  
                 195255862.750                                   195255862.750  
  37496835.573  
                 189859221.318                                   189859221.318  
  36460467.282  
                 188257197.953                                   188257197.953  
  36152815.599  
                 204441050.258                                   204441050.258  
  39260754.303  
                 200782385.276                                   200782385.276  
  38558146.089  
                 189258478.985                                   189258478.985  
  36345101.028  
                 187615643.649                                   187615643.649  
  36029611.794  
                 192373952.958                                   192373952.958  
  36943395.139  
                 207712066.480                                   207712066.480  
  39888918.488  
                 185511700.178                                   185511700.178  
  35625571.510  
                 192235746.236                                   192235746.236  
  36916853.958  
 24  6 29 13  6 26.0000000  0 26G10G23G31G32R02R12R13E07E08E13E26E27
                                E30J02J04C01C02C03C04C05C06C08C09C10
                                C13C16
  20139449.748   105833522.456                    20139454.573    82467699.846  
  20139454.126  
  21543135.158   113209939.844                    21543140.519    88215559.627  
  21543140.376  
  21936623.695   115277735.974                    21936630.467    89826835.078  
  21936630.825  
  21846665.440   114805001.927                    21846669.783    89458460.712  
  21846669.997  
  21335358.340   113849559.845                    21335363.951    88549680.770  
  21335363.916  
  19250707.802   102833826.154                    19250712.627    79981884.894  
  19250712.555  
  20396756.478   108917542.335                    20396764.125    84713676.081  
  20396764.161  
  24867663.253   130680452.711                                                  
                
  27874904.760   146483613.355                                                  
                
  27627180.097   145181811.352                                                  
                
  25297702.859   132940327.077                                                  
                
  24395772.895   128200652.093                                                  
                
  25563189.330   134335467.143                                                  
                
  38107315.393   200255294.221                                   156043111.314  
  38107321.593  
  37892480.418   199126328.252                                   155163387.193  
  37892483.849  
                 195255899.141                                   195255899.141  
  37496842.542  
                 189859246.999                                   189859246.999  
  36460472.196  
                 188257235.277                                   188257235.277  
  36152822.764  
                 204441083.581                                   204441083.581  
  39260760.718  
                 200782390.542                                   200782390.542  
  38558147.108  
                 189259014.933                                   189259014.933  
  36345203.935  
                 187616217.315                                   187616217.315  
  36029721.957  
                 192374448.460                                   192374448.460  
  36943490.274  
                 207711354.972                                   207711354.972  
  39888781.861  
                 185512027.805                                   185512027.805  
  35625634.427  
                 192236344.553                                   192236344.553  
  36916968.838  
 24  6 29 13  6 27.0000000  0 26G10G23G31G32R02R12R13E07E08E13E26E27
                                E30J02J04C01C02C03C04C05C06C08C09C10
                                C13C16
  20139473.675   105833648.215                    20139478.499    82467797.840  
  20139478.053  
  21543613.976   113212456.078                    21543619.355    88217520.331  
  21543619.194  
  21936261.204   115275831.148                    21936267.976    89825350.807  
  21936268.334  
  21846554.510   114804418.990                    21846558.834    89458006.483  
  21846559.048  
  21334939.044   113847322.353                    21334944.655    88547940.501  
  21334944.619  
  19250804.295   102834341.648                    19250809.137    79982285.839  
  19250809.048  
  20396195.497   108914546.778                    20396203.145    84711346.198  
  20396203.181  
  24867700.189   130680646.745                                                  
                
  27875100.283   146484640.720                                                  
                
  27627681.395   145184445.739                                                  
                
  25298083.362   132942326.586                                                  
                
  24395456.506   128198989.426                                                  
                
  25563343.522   134336277.391                                                  
                
  38107376.362   200255614.566                                   156043360.935  
  38107382.562  
  37892271.797   199125231.889                                   155162532.884  
  37892275.210  
                 195255935.429                                   195255935.429  
  37496849.528  
                 189859272.570                                   189859272.570  
  36460477.110  
                 188257272.482                                   188257272.482  
  36152829.894  
                 204441116.764                                   204441116.764  
  39260767.061  
                 200782395.692                                   200782395.692  
  38558148.108  
                 189259550.783                                   189259550.783  
  36345306.843  
                 187616791.056                                   187616791.056  
  36029832.155  
                 192374943.871                                   192374943.871  
  36943585.408  
                 207710643.199                                   207710643.199  
  39888645.181  
                 185512355.505                                   185512355.505  
  35625697.362  
                 192236942.743                                   192236942.743  
  36917083.735  
 24  6 29 13  6 28.0000000  0 26G10G23G31G32R02R12R13E07E08E13E26E27
                                E30J02J04C01C02C03C04C05C06C08C09C10
                                C13C16
  20139497.744   105833774.628                    20139502.551    82467896.341  
  20139502.122  
  21544092.902   113214972.817                    21544098.281    88219481.426  
  21544098.120  
  21935898.802   115273926.785                    21935905.593    89823866.892  
  21935905.950  
  21846443.579   114803836.103                    21846447.921    89457552.289  
  21846448.135  
  21334519.729   113845084.924                    21334525.358    88546200.281  
  21334525.322  
  19250900.966   102834858.050                    19250905.791    79982687.484  
  19250905.719  
  20395634.660   108911551.855                    20395642.290    84709016.819  
  20395642.326  
  24867737.124   130680840.809                                                  
                
  27875295.788   146485668.146                                                  
                
  27628182.693   145187080.014                                                  
                
  25298463.883   132944326.328                                                  
                
  24395140.171   128197327.128                                                  
                
  25563497.785   134337088.079                                                  
                
  38107437.313   200255934.984                                   156043610.616  
  38107443.531  
  37892063.159   199124135.562                                   155161678.603  
  37892066.589  
                 195255971.742                                   195255971.742  
  37496856.515  
                 189859298.164                                   189859298.164  
  36460482.042  
                 188257309.734                                   188257309.734  
  36152837.059  
                 204441150.018                                   204441150.018  
  39260773.459  
                 200782400.845                                   200782400.845  
  38558149.091  
                 189260086.665                                   189260086.665  
  36345409.751  
                 187617365.012                                   187617365.012  
  36029942.354  
                 192375439.356                                   192375439.356  
  36943680.579  
                 207709931.335                                   207709931.335  
  39888508.447  
                 185512683.452                                   185512683.452  
  35625760.332  
                 192237540.939                                   192237540.939  
  36917198.580  
 24  6 29 13  6 29.0000000  0 26G10G23G31G32R02R12R13E07E08E13E26E27
                                E30J02J04C01C02C03C04C05C06C08C09C10
                                C13C16
  20139521.903   105833901.642                    20139526.728    82467995.311  
  20139526.281  
  21544571.917   113217489.989                    21544577.278    88221442.859  
  21544577.117  
  21935536.490   115272022.818                    21935543.262    89822383.286  
  21935543.620  
  21846332.666   114803253.216                    21846336.990    89457098.092  
  21846337.204  
  21334100.451   113842847.527                    21334106.061    88544460.086  
  21334106.044  
  19250997.781   102835375.271                    19251002.623    79983089.770  
  19251002.552  
  20395073.930   108908557.562                    20395081.543    84706687.924  
  20395081.578  
  24867774.041   130681034.811                                                  
                
  27875491.311   146486695.582                                                  
                
  27628683.919   145189714.066                                                  
                
  25298844.439   132946326.254                                                  
                
  24394823.907   128195665.133                                                  
                
  25563652.138   134337899.193                                                  
                
  38107498.300   200256255.446                                   156043860.332  
  38107504.518  
  37891854.538   199123039.202                                   155160824.297  
  37891857.951  
                 195256008.025                                   195256008.025  
  37496863.466  
                 189859323.744                                   189859323.744  
  36460486.938  
                 188257346.950                                   188257346.950  
  36152844.225  
                 204441183.227                                   204441183.227  
  39260779.838  
                 200782405.997                                   200782405.997  
  38558150.092  
                 189260622.518                                   189260622.518  
  36345512.658  
                 187617939.172                                   187617939.172  
  36030052.623  
                 192375934.843                                   192375934.843  
  36943775.713  
                 207709219.341                                   207709219.341  
  39888371.713  
                 185513011.562                                   185513011.562  
  35625823.338  
                 192238139.108                                   192238139.108  
  36917313.442  
 24  6 29 13  6 30.0000000  0 26G10G23G31G32R02R12R13E07E08E13E26E27
                                E30J02J04C01C02C03C04C05C06C08C09C10
                                C13C16
  20139546.169   105834029.177                    20139550.994    82468094.691  
  20139550.565  
  21545050.985   113220007.535                    21545056.346    88223404.583  
  21545056.203  
  21935174.214   115270119.162                    21935181.022    89820899.920  
  21935181.379  
  21846221.717   114802670.244                    21846226.059    89456643.832  
  21846226.273  
  21333681.136   113840610.029                    21333686.765    88542719.812  
  21333686.711  
  19251094.756   102835893.263                    19251099.598    79983492.659  
  19251099.509  
  20394513.272   108905563.760                    20394520.902    84704359.412  
  20394520.956  
  24867810.923   130681228.699                                                  
                
  27875686.816   146487722.944                                                  
                
  27629185.127   145192347.888                                                  
                
  25299225.050   132948326.275                                                  
                
  24394507.679   128194003.364                                                  
                
  25563806.544   134338710.618                                                  
                
  38107559.269   200256575.859                                   156044110.004  
  38107565.470  
  37891645.881   199121942.731                                   155159969.901  
  37891649.312  
                 195256044.195                                   195256044.195  
  37496870.417  
                 189859349.222                                   189859349.222  
  36460491.834  
                 188257384.068                                   188257384.068  
  36152851.319  
                 204441216.324                                   204441216.324  
  39260786.181  
                 200782411.036                                   200782411.036  
  38558151.039  
                 189261158.275                                   189261158.275  
  36345615.548  
                 187618513.437                                   187618513.437  
  36030162.893  
                 192376430.260                                   192376430.260  
  36943870.848  
                 207708507.086                                   207708507.086  
  39888234.926  
                 185513339.763                                   185513339.763  
  35625886.362  
                 192238737.173                                   192238737.173  
  36917428.322  
 24  6 29 13  6 31.0000000  0 26G10G23G31G32R02R12R13E07E08E13E26E27
                                E30J02J04C01C02C03C04C05C06C08C09C10
                                C13C16
  20139570.561   105834157.259                    20139575.367    82468194.493  
  20139574.938  
  21545530.125   113222525.447                    21545535.486    88225366.590  
  21545535.343  
  21934812.026   115268215.846                    21934818.834    89819416.819  
  21934819.192  
  21846110.768   114802087.207                    21846115.092    89456189.520  
  21846115.307  
  21333261.822   113838372.415                    21333267.415    88540979.448  
  21333267.379  
  19251191.856   102836412.065                    19251196.699    79983896.177  
  19251196.645  
  20393952.756   108902570.528                    20393960.369    84702031.347  
  20393960.404  
  24867847.805   130681422.481                                                  
                
  27875882.285   146488750.250                                                  
                
  27629686.281   145194981.462                                                  
                
  25299605.660   132950326.398                                                  
                
  24394191.487   128192341.856                                                  
                
  25563961.022   134339522.366                                                  
                
  38107620.238   200256896.245                                   156044359.658  
  38107626.457  
  37891437.207   199120846.166                                   155159115.435  
  37891440.655  
                 195256080.289                                   195256080.289  
  37496877.350  
                 189859374.627                                   189859374.627  
  36460496.730  
                 188257421.090                                   188257421.090  
  36152858.431  
                 204441249.347                                   204441249.347  
  39260792.543  
                 200782415.991                                   200782415.991  
  38558152.004  
                 189261693.919                                   189261693.919  
  36345718.402  
                 187619087.809                                   187619087.809  
  36030273.216  
                 192376925.628                                   192376925.628  
  36943965.983  
                 207707794.623                                   207707794.623  
  39888098.121  
                 185513668.047                                   185513668.047  
  35625949.404  
                 192239335.141                                   192239335.141  
  36917543.148  
 24  6 29 13  6 32.0000000  0 26G10G23G31G32R02R12R13E07E08E13E26E27
                                E30J02J04C01C02C03C04C05C06C08C09C10
                                C13C16
  20139595.077   105834286.126                    20139599.901    82468294.908  
  20139599.455  
  21546009.373   113225043.979                    21546014.733    88227329.085  
  21546014.590  
  21934449.946   115266313.085                    21934456.754    89817934.151  
  21934457.112  
  21845999.855   114801504.326                    21846004.179    89455735.334  
  21846004.394  
  21332842.525   113836134.941                    21332848.118    88539239.195  
  21332848.082  
  19251289.171   102836931.873                    19251294.013    79984300.472  
  19251293.942  
  20393392.330   108899578.030                    20393399.978    84699703.851  
  20393400.014  
  24867884.704   130681616.393                                                  
                
  27876077.825   146489777.736                                                  
                
  27630187.418   145197615.009                                                  
                
  25299986.324   132952326.882                                                  
                
  24393875.401   128190680.820                                                  
                
  25564115.589   134340334.712                                                  
                
  38107681.243   200257216.833                                   156044609.469  
  38107687.444  
  37891228.586   199119749.753                                   155158261.087  
  37891231.999  
                 195256116.537                                   195256116.537  
  37496884.319  
                 189859400.146                                   189859400.146  
  36460501.626  
                 188257458.260                                   188257458.260  
  36152865.560  
                 204441282.516                                   204441282.516  
  39260798.904  
                 200782421.088                                   200782421.088  
  38558152.986  
                 189262229.748                                   189262229.748  
  36345821.292  
                 187619662.527                                   187619662.527  
  36030383.593  
                 192377421.182                                   192377421.182  
  36944061.171  
                 207707082.193                                   207707082.193  
  39887961.315  
                 185513996.683                                   185513996.683  
  35626012.518  
                 192239933.241                                   192239933.241  
  36917657.992  
 24  6 29 13  6 33.0000000  0 26G10G23G31G32R02R12R13E07E08E13E26E27
                                E30J02J04C01C02C03C04C05C06C08C09C10
                                C13C16
  20139619.718   105834415.693                    20139624.543    82468395.868  
  20139624.096  
  21546488.745   113227563.032                    21546494.106    88229291.984  
  21546493.963  
  21934087.956   115264410.820                    21934094.764    89816451.866  
  21934095.121  
  21845888.942   114800921.538                    21845893.266    89455281.214  
  21845893.499  
  21332423.210   113833897.545                    21332428.839    88537498.998  
  21332428.803  
  19251386.664   102837452.605                    19251391.489    79984705.491  
  19251391.435  
  20392832.083   108896586.250                    20392839.695    84697376.915  
  20392839.731  
  24867921.622   130681810.351                                                  
                
  27876273.384   146490805.318                                                  
                
  27630688.537   145200248.462                                                  
                
  25300367.041   132954327.624                                                  
                
  24393559.388   128189020.186                                                  
                
  25564270.263   134341147.537                                                  
                
  38107742.266   200257537.545                                   156044859.379  
  38107748.466  
  37891019.929   199118653.393                                   155157406.776  
  37891023.378  
                 195256152.832                                   195256152.832  
  37496891.270  
                 189859425.752                                   189859425.752  
  36460506.540  
                 188257495.488                                   188257495.488  
  36152872.726  
                 204441315.723                                   204441315.723  
  39260805.283  
                 200782426.221                                   200782426.221  
  38558153.951  
                 189262765.621                                   189262765.621  
  36345924.200  
                 187620237.530                                   187620237.530  
  36030494.006  
                 192377916.800                                   192377916.800  
  36944156.342  
                 207706369.661                                   207706369.661  
  39887824.457  
                 185514325.590                                   185514325.590  
  35626075.685  
                 192240531.396                                   192240531.396  
  36917772.890  
 24  6 29 13  6 34.0000000  0 26G10G23G31G32R02R12R13E07E08E13E26E27
                                E30J02J04C01C02C03C04C05C06C08C09C10
                                C13C16
  20139644.574   105834546.221                    20139649.381    82468497.577  
  20139648.952  
  21546968.260   113230082.893                    21546973.621    88231255.514  
  21546973.460  
  21933726.108   115262509.301                    21933732.898    89814970.170  
  21933733.273  
  21845778.118   114800339.103                    21845782.443    89454827.366  
  21845782.657  
  21332004.003   113831660.497                    21332009.596    88535759.076  
  21332009.560  
  19251484.354   102837974.537                    19251489.197    79985111.438  
  19251489.143  
  20392271.978   108893595.395                    20392279.590    84695050.701  
  20392279.644  
  24867958.575   130682004.629                                                  
                
  27876468.996   146491833.261                                                  
                
  27631189.674   145202882.089                                                  
                
  25300747.901   132956328.903                                                  
                
  24393243.499   128187360.216                                                  
                
  25564425.098   134341961.148                                                  
                
  38107803.360   200257858.656                                   156045109.604  
  38107809.561  
  37890811.380   199117557.362                                   155156552.726  
  37890814.811  
                 195256189.467                                   195256189.467  
  37496898.311  
                 189859451.683                                   189859451.683  
  36460511.508  
                 188257533.065                                   188257533.065  
  36152879.945  
                 204441349.290                                   204441349.290  
  39260811.734  
                 200782431.763                                   200782431.763  
  38558155.041  
                 189263301.829                                   189263301.829  
  36346027.161  
                 187620813.048                                   187620813.048  
  36030604.526  
                 192378412.799                                   192378412.799  
  36944251.583  
                 207705657.379                                   207705657.379  
  39887687.651  
                 185514655.032                                   185514655.032  
  35626138.923  
                 192241129.867                                   192241129.867  
  36917887.788  
 24  6 29 13  6 35.0000000  0 26G10G23G31G32R02R12R13E07E08E13E26E27
                                E30J02J04C01C02C03C04C05C06C08C09C10
                                C13C16
  20139669.519   105834677.320                    20139674.326    82468599.735  
  20139673.897  
  21547447.847   113232603.159                    21547453.208    88233219.355  
  21547453.065  
  21933364.332   115260608.157                    21933371.122    89813488.766  
  21933371.479  
  21845667.277   114799756.633                    21845671.583    89454373.495  
  21845671.816  
  21331584.760   113829423.384                    21331590.353    88534019.104  
  21331590.335  
  19251582.223   102838497.280                    19251587.047    79985518.016  
  19251586.994  
  20391711.999   108890605.127                    20391719.629    84692724.940  
  20391719.665  
  24867995.546   130682198.828                                                  
                
  27876664.591   146492861.192                                                  
                
  27631690.811   145205515.519                                                  
                
  25301128.744   132958330.317                                                  
                
  24392927.682   128185700.527                                                  
                
  25564579.987   134342775.114                                                  
                
  38107864.490   200258179.770                                   156045359.825  
  38107870.673  
  37890602.813   199116461.284                                   155155698.644  
  37890606.226  
                 195256226.038                                   195256226.038  
  37496905.333  
                 189859477.553                                   189859477.553  
  36460516.475  
                 188257570.555                                   188257570.555  
  36152887.146  
                 204441382.799                                   204441382.799  
  39260818.167  
                 200782437.189                                   200782437.189  
  38558156.078  
                 189263837.984                                   189263837.984  
  36346130.123  
                 187621388.711                                   187621388.711  
  36030715.064  
                 192378908.760                                   192378908.760  
  36944346.843  
                 207704944.911                                   207704944.911  
  39887550.828  
                 185514984.622                                   185514984.622  
  35626202.233  
                 192241728.278                                   192241728.278  
  36918002.721  
 24  6 29 13  6 36.0000000  0 26G10G23G31G32R02R12R13E07E08E13E26E27
                                E30J02J04C01C02C03C04C05C06C08C09C10
                                C13C16
  20139694.554   105834808.912                    20139699.378    82468702.270  
  20139698.932  
  21547927.505   113235123.768                    21547932.866    88235183.466  
  21547932.723  
  21933002.591   115258707.300                    21933009.399    89812007.586  
  21933009.757  
  21845556.417   114799174.054                    21845560.742    89453919.542  
  21845560.956  
  21331165.499   113827186.148                    21331171.092    88532279.034  
  21331171.074  
  19251680.216   102839020.778                    19251685.059    79985925.183  
  19251685.005  
  20391152.109   108887615.312                    20391159.721    84690399.533  
  20391159.757  
  24868032.481   130682392.877                                                  
                
  27876860.203   146493889.018                                                  
                
  27632191.894   145208148.646                                                  
                
  25301509.604   132960331.816                                                  
                
  24392611.883   128184041.041                                                  
                
  25564734.929   134343589.379                                                  
                
  38107925.566   200258500.801                                   156045609.984  
  38107931.767  
  37890394.192   199115365.050                                   155154844.434  
  37890397.623  
                 195256262.469                                   195256262.469  
  37496912.320  
                 189859503.302                                   189859503.302  
  36460521.425  
                 188257607.926                                   188257607.926  
  36152894.330  
                 204441416.146                                   204441416.146  
  39260824.564  
                 200782442.484                                   200782442.484  
  38558157.061  
                 189264374.009                                   189264374.009  
  36346233.066  
                 187621964.444                                   187621964.444  
  36030825.637  
                 192379404.620                                   192379404.620  
  36944442.049  
                 207704232.170                                   207704232.170  
  39887413.952  
                 185515314.262                                   185515314.262  
  35626265.543  
                 192242326.549                                   192242326.549  
  36918117.601  
 24  6 29 13  6 37.0000000  0 26G10G23G31G32R02R12R13E07E08E13E26E27
                                E30J02J04C01C02C03C04C05C06C08C09C10
                                C13C16
  20139719.731   105834941.180                    20139724.538    82468805.333  
  20139724.127  
  21548407.253   113237644.870                    21548412.631    88237147.963  
  21548412.470  
  21932640.976   115256806.904                    21932647.748    89810526.760  
  21932648.106  
  21845445.576   114798591.533                    21845449.882    89453465.626  
  21845450.115  
  21330746.238   113824948.945                    21330751.849    88530538.992  
  21330751.814  
  19251778.389   102839545.191                    19251783.231    79986333.058  
  19251783.160  
  20390592.326   108884626.207                    20390599.938    84688074.674  
  20390599.992  
  24868069.398   130682586.932                                                  
                
  27877055.797   146494916.909                                                  
                
  27632692.905   145210781.642                                                  
                
  25301890.500   132962333.541                                                  
                
  24392296.155   128182381.918                                                  
                
  25564889.979   134344404.117                                                  
                
  38107986.660   200258821.933                                   156045860.219  
  38107992.861  
  37890185.589   199114268.858                                   155153990.258  
  37890189.038  
                 195256298.942                                   195256298.942  
  37496919.325  
                 189859529.097                                   189859529.097  
  36460526.392  
                 188257645.337                                   188257645.337  
  36152901.495  
                 204441449.544                                   204441449.544  
  39260830.961  
                 200782447.828                                   200782447.828  
  38558158.097  
                 189264910.080                                   189264910.080  
  36346336.027  
                 187622540.407                                   187622540.407  
  36030936.229  
                 192379900.561                                   192379900.561  
  36944537.291  
                 207703519.350                                   207703519.350  
  39887277.075  
                 185515644.148                                   185515644.148  
  35626328.906  
                 192242924.849                                   192242924.849  
  36918232.499  
 24  6 29 13  6 38.0000000  0 26G10G23G31G32R02R12R13E07E08E13E26E27
                                E30J02J04C01C02C03C04C05C06C08C09C10
                                C13C16
  20139745.034   105835074.063                    20139749.823    82468908.879  
  20139749.412  
  21548887.089   113240166.424                    21548892.450    88239112.810  
  21548892.307  
  21932279.414   115254906.911                    21932286.186    89809046.252  
  21932286.544  
  21845334.716   114798009.010                    21845339.041    89453011.711  
  21845339.255  
  21330326.995   113822711.731                    21330332.588    88528798.943  
  21330332.553  
  19251876.722   102840070.431                    19251881.547    79986741.577  
  19251881.475  
  20390032.668   108881637.684                    20390040.298    84685750.269  
  20390040.334  
  24868106.316   130682780.978                                                  
                
  27877251.409   146495944.822                                                  
                
  27633193.917   145213414.467                                                  
                
  25302271.468   132964335.463                                                  
                
  24391980.499   128180723.115                                                  
                
  25565045.082   134345219.254                                                  
                
  38108047.790   200259143.093                                   156046110.481  
  38108053.991  
  37889976.986   199113172.642                                   155153136.066  
  37889980.435  
                 195256335.391                                   195256335.391  
  37496926.311  
                 189859554.865                                   189859554.865  
  36460531.324  
                 188257682.743                                   188257682.743  
  36152908.696  
                 204441482.891                                   204441482.891  
  39260837.358  
                 200782453.173                                   200782453.173  
  38558159.115  
                 189265446.122                                   189265446.122  
  36346438.953  
                 187623116.579                                   187623116.579  
  36031046.891  
                 192380396.507                                   192380396.507  
  36944632.533  
                 207702806.399                                   207702806.399  
  39887140.180  
                 185515974.207                                   185515974.207  
  35626392.270  
                 192243523.123                                   192243523.123  
  36918347.415  
 24  6 29 13  6 39.0000000  0 26G10G23G31G32R02R12R13E07E08E13E26E27
                                E30J02J04C01C02C03C04C05C06C08C09C10
                                C13C16
  20139770.408   105835207.528                    20139775.232    82469012.877  
  20139774.786  
  21549366.998   113242688.400                    21549372.358    88241077.985  
  21549372.233  
  21931917.924   115253007.295                    21931924.696    89807566.037  
  21931925.071  
  21845223.875   114797426.481                    21845228.163    89452557.797  
  21845228.396  
  21329907.734   113820474.504                    21329913.327    88527058.878  
  21329913.292  
  19251975.198   102840596.488                    19251980.041    79987150.735  
  19251979.951  
  20389473.117   108878649.718                    20389480.730    84683426.298  
  20389480.765  
  24868143.233   130682974.951                                                  
                
  27877447.004   146496972.701                                                  
                
  27633694.893   145216047.107                                                  
                
  25302652.435   132966337.529                                                  
                
  24391664.896   128179064.612                                                  
                
  25565200.274   134346034.787                                                  
                
  38108108.902   200259464.304                                   156046360.775  
  38108115.103  
  37889768.383   199112076.384                                   155152281.837  
  37889771.796  
                 195256371.805                                   195256371.805  
  37496933.298  
                 189859580.558                                   189859580.558  
  36460536.256  
                 188257720.090                                   188257720.090  
  36152915.862  
                 204441516.246                                   204441516.246  
  39260843.773  
                 200782458.471                                   200782458.471  
  38558160.152  
                 189265982.129                                   189265982.129  
  36346541.896  
                 187623692.896                                   187623692.896  
  36031157.572  
                 192380892.436                                   192380892.436  
  36944727.757  
                 207702093.219                                   207702093.219  
  39887003.178  
                 185516304.399                                   185516304.399  
  35626455.687  
                 192244121.345                                   192244121.345  
  36918462.277  
 24  6 29 13  6 40.0000000  0 26G10G23G31G32R02R12R13E07E08E13E26E27
                                E30J02J04C01C02C03C04C05C06C08C09C10
                                C13C16
  20139795.925   105835341.559                    20139800.731    82469117.315  
  20139800.303  
  21549847.013   113245210.764                    21549852.374    88243043.461  
  21549852.213  
  21931556.505   115251108.024                    21931563.295    89806086.085  
  21931563.652  
  21845112.998   114796843.882                    21845117.322    89452103.821  
  21845117.536  
  21329488.456   113818237.215                    21329494.049    88525318.767  
  21329494.031  
  19252073.835   102841123.338                    19252078.642    79987560.510  
  19252078.588  
  20388913.674   108875662.319                    20388921.304    84681102.762  
  20388921.340  
  24868180.115   130683168.833                                                  
                
  27877642.634   146498000.568                                                  
                
  27634195.815   145218679.486                                                  
                
  25303033.439   132968339.723                                                  
                
  24391349.329   128177406.355                                                  
                
  25565355.538   134346850.658                                                  
                
  38108170.014   200259785.470                                   156046611.039  
  38108176.197  
  37889559.762   199110980.057                                   155151427.556  
  37889563.175  
                 195256408.152                                   195256408.152  
  37496940.285  
                 189859606.228                                   189859606.228  
  36460541.188  
                 188257757.350                                   188257757.350  
  36152923.009  
                 204441549.511                                   204441549.511  
  39260850.152  
                 200782463.661                                   200782463.661  
  38558161.117  
                 189266518.063                                   189266518.063  
  36346644.822  
                 187624269.397                                   187624269.397  
  36031268.271  
                 192381388.328                                   192381388.328  
  36944822.999  
                 207701379.911                                   207701379.911  
  39886866.212  
                 185516634.745                                   185516634.745  
  35626519.140  
                 192244719.479                                   192244719.479  
  36918577.139  
 24  6 29 13  6 41.0000000  0 26G10G23G31G32R02R12R13E07E08E13E26E27
                                E30J02J04C01C02C03C04C05C06C08C09C10
                                C13C16
  20139821.549   105835476.224                    20139826.356    82469222.246  
  20139825.945  
  21550327.065   113247733.586                    21550332.425    88245009.293  
  21550332.282  
  21931195.157   115249209.171                    21931201.948    89804606.465  
  21931202.305  
  21845002.156   114796261.300                    21845006.445    89451649.864  
  21845006.677  
  21329069.195   113815999.932                    21329074.788    88523578.662  
  21329074.752  
  19252172.615   102841651.069                    19252177.440    79987970.967  
  19252177.386  
  20388354.338   108872675.489                    20388361.968    84678779.677  
  20388362.004  
  24868217.014   130683362.692                                                  
                
  27877838.210   146499028.435                                                  
                
  27634696.702   145221311.716                                                  
                
  25303414.496   132970342.118                                                  
                
  24391033.851   128175748.439                                                  
                
  25565510.856   134347666.968                                                  
                
  38108231.144   200260106.702                                   156046861.351  
  38108237.345  
  37889351.141   199109883.709                                   155150573.256  
  37889354.554  
                 195256444.484                                   195256444.484  
  37496947.272  
                 189859631.851                                   189859631.851  
  36460546.102  
                 188257794.613                                   188257794.613  
  36152930.157  
                 204441582.729                                   204441582.729  
  39260856.532  
                 200782468.904                                   200782468.904  
  38558162.135  
                 189267053.997                                   189267053.997  
  36346747.747  
                 187624846.060                                   187624846.060  
  36031379.023  
                 192381884.245                                   192381884.245  
  36944918.241  
                 207700666.445                                   207700666.445  
  39886729.193  
                 185516965.251                                   185516965.251  
  35626582.611  
                 192245317.602                                   192245317.602  
  36918692.019  
 24  6 29 13  6 42.0000000  0 26G10G23G31G32R02R12R13E07E08E13E26E27
                                E30J02J04C01C02C03C04C05C06C08C09C10
                                C13C16
  20139847.334   105835611.610                    20139852.123    82469327.742  
  20139851.712  
  21550807.259   113250256.965                    21550812.637    88246975.565  
  21550812.477  
  21930833.917   115247310.844                    21930840.690    89803127.253  
  21930841.065  
  21844891.297   114795678.838                    21844895.621    89451195.997  
  21844895.835  
  21328649.952   113813762.741                    21328655.527    88521838.625  
  21328655.509  
  19252271.592   102842179.775                    19252276.416    79988382.187  
  19252276.345  
  20387795.145   108869689.431                    20387802.757    84676457.190  
  20387802.810  
  24868253.914   130683556.629                                                  
                
  27878033.858   146500056.457                                                  
                
  27635197.588   145223943.899                                                  
                
  25303795.570   132972344.811                                                  
                
  24390718.445   128174090.951                                                  
                
  25565666.299   134348483.799                                                  
                
  38108292.292   200260428.079                                   156047111.780  
  38108298.493  
  37889142.520   199108787.440                                   155149719.021  
  37889145.951  
                 195256480.916                                   195256480.916  
  37496954.277  
                 189859657.609                                   189859657.609  
  36460551.052  
                 188257831.972                                   188257831.972  
  36152937.340  
                 204441616.093                                   204441616.093  
  39260862.947  
                 200782474.196                                   200782474.196  
  38558163.154  
                 189267590.027                                   189267590.027  
  36346850.673  
                 187625423.029                                   187625423.029  
  36031489.829  
                 192382380.291                                   192382380.291  
  36945013.501  
                 207699952.960                                   207699952.960  
  39886592.173  
                 185517296.074                                   185517296.074  
  35626646.117  
                 192245915.801                                   192245915.801  
  36918806.881  
 24  6 29 13  6 43.0000000  0 26G10G23G31G32R02R12R13E07E08E13E26E27
                                E30J02J04C01C02C03C04C05C06C08C09C10
                                C13C16
  20139873.208   105835747.660                    20139878.033    82469433.750  
  20139877.586  
  21551287.525   113252780.849                    21551292.885    88248942.230  
  21551292.760  
  21930472.749   115245412.946                    21930479.521    89801648.378  
  21930479.896  
  21844780.473   114795096.432                    21844784.797    89450742.177  
  21844785.012  
  21328230.691   113811525.598                    21328236.284    88520098.629  
  21328236.248  
  19252370.711   102842709.372                    19252375.554    79988794.097  
  19252375.500  
  20387236.059   108866704.009                    20387243.689    84674135.197  
  20387243.724  
  24868290.814   130683750.582                                                  
                
  27878229.488   146501084.523                                                  
                
  27635698.439   145226575.920                                                  
                
  25304176.717   132974347.734                                                  
                
  24390403.093   128172433.839                                                  
                
  25565821.831   134349301.089                                                  
                
  38108353.476   200260749.569                                   156047362.294  
  38108359.658  
  37888933.917   199107691.227                                   155148864.829  
  37888937.348  
                 195256517.368                                   195256517.368  
  37496961.263  
                 189859683.383                                   189859683.383  
  36460555.984  
                 188257869.363                                   188257869.363  
  36152944.524  
                 204441649.456                                   204441649.456  
  39260869.326  
                 200782479.541                                   200782479.541  
  38558164.190  
                 189268126.087                                   189268126.087  
  36346953.616  
                 187626000.257                                   187626000.257  
  36031600.688  
                 192382876.397                                   192382876.397  
  36945108.778  
                 207699239.384                                   207699239.384  
  39886455.136  
                 185517627.129                                   185517627.129  
  35626709.713  
                 192246514.031                                   192246514.031  
  36918921.761  
 24  6 29 13  6 44.0000000  0 26G10G23G31G32R02R12R13E07E08E13E26E27
                                E30J02J04C01C02C03C04C05C06C08C09C10
                                C13C16
  20139899.208   105835884.173                    20139903.996    82469540.122  
  20139903.586  
  21551767.880   113255305.038                    21551773.240    88250909.131  
  21551773.097  
  21930111.633   115243515.323                    21930118.424    89800169.720  
  21930118.781  
  21844669.614   114794513.883                    21844673.920    89450288.242  
  21844674.134  
  21327811.430   113809288.299                    21327817.023    88518358.511  
  21327816.987  
  19252469.992   102843239.671                    19252474.834    79989206.556  
  19252474.745  
  20386677.098   108863719.075                    20386684.692    84671813.585  
  20386684.746  
  24868327.695   130683944.358                                                  
                
  27878425.100   146502112.452                                                  
                
  27636199.219   145229207.630                                                  
                
  25304557.863   132976350.688                                                  
                
  24390087.794   128170776.885                                                  
                
  25565977.398   134350118.638                                                  
                
  38108414.641   200261070.935                                   156047612.711  
  38108420.806  
  37888725.297   199106594.820                                   155148010.486  
  37888728.692  
                 195256553.654                                   195256553.654  
  37496968.232  
                 189859708.998                                   189859708.998  
  36460560.915  
                 188257906.594                                   188257906.594  
  36152951.653  
                 204441682.660                                   204441682.660  
  39260875.723  
                 200782484.702                                   200782484.702  
  38558165.173  
                 189268661.992                                   189268661.992  
  36347056.542  
                 187626577.493                                   187626577.493  
  36031711.512  
                 192383372.373                                   192383372.373  
  36945204.002  
                 207698525.532                                   207698525.532  
  39886318.062  
                 185517958.200                                   185517958.200  
  35626773.273  
                 192247112.087                                   192247112.087  
  36919036.623  
 24  6 29 13  6 45.0000000  0 26G10G23G31G32R02R12R13E07E08E13E26E27
                                E30J02J04C01C02C03C04C05C06C08C09C10
                                C13C16
  20139925.314   105836021.335                    20139930.103    82469647.002  
  20139929.692  
  21552248.288   113257829.696                    21552253.649    88252876.397  
  21552253.524  
  21929750.608   115241618.138                    21929757.398    89798691.399  
  21929757.755  
  21844558.772   114793931.371                    21844563.061    89449834.339  
  21844563.293  
  21327392.169   113807051.022                    21327397.744    88516618.411  
  21327397.726  
  19252569.415   102843770.838                    19252574.257    79989619.686  
  19252574.204  
  20386118.208   108860734.753                    20386125.838    84669492.450  
  20386125.874  
  24868364.577   130684138.131                                                  
                
  27878620.730   146503140.442                                                  
                
  27636699.998   145231839.211                                                  
                
  25304939.063   132978353.863                                                  
                
  24389772.531   128169120.286                                                  
                
  25566133.073   134350936.645                                                  
                
  38108475.789   200261392.386                                   156047863.192  
  38108481.972  
  37888516.658   199105498.434                                   155147156.159  
  37888520.071  
                 195256589.972                                   195256589.972  
  37496975.201  
                 189859734.615                                   189859734.615  
  36460565.829  
                 188257943.843                                   188257943.843  
  36152958.819  
                 204441715.887                                   204441715.887  
  39260882.120  
                 200782489.915                                   200782489.915  
  38558166.192  
                 189269197.891                                   189269197.891  
  36347159.450  
                 187627154.979                                   187627154.979  
  36031822.425  
                 192383868.398                                   192383868.398  
  36945299.262  
                 207697811.522                                   207697811.522  
  39886180.917  
                 185518289.473                                   185518289.473  
  35626836.887  
                 192247710.157                                   192247710.157  
  36919151.485  
 24  6 29 13  6 46.0000000  0 26G10G23G31G32R02R12R13E07E08E13E26E27
                                E30J02J04C01C02C03C04C05C06C08C09C10
                                C13C16
  20139951.510   105836159.058                    20139956.317    82469754.313  
  20139955.888  
  21552728.804   113260354.760                    21552734.165    88254843.981  
  21552734.022  
  21929389.653   115239721.304                    21929396.426    89797213.356  
  21929396.783  
  21844447.913   114793348.804                    21844452.219    89449380.391  
  21844452.433  
  21326972.890   113804813.673                    21326978.466    88514878.255  
  21326978.448  
  19252669.017   102844302.789                    19252673.823    79990033.430  
  19252673.770  
  20385559.444   108857750.971                    20385567.056    84667171.733  
  20385567.092  
  24868401.423   130684331.814                                                  
                
  27878816.343   146504168.397                                                  
                
  27637200.742   145234470.555                                                  
                
  25305320.281   132980357.170                                                  
                
  24389457.357   128167463.960                                                  
                
  25566288.784   134351754.995                                                  
                
  38108536.973   200261713.820                                   156048113.660  
  38108543.155  
  37888308.001   199104401.980                                   155146301.782  
  37888311.432  
                 195256626.206                                   195256626.206  
  37496982.152  
                 189859760.169                                   189859760.169  
  36460570.743  
                 188257981.016                                   188257981.016  
  36152965.949  
                 204441749.010                                   204441749.010  
  39260888.446  
                 200782495.030                                   200782495.030  
  38558167.157  
                 189269733.738                                   189269733.738  
  36347262.357  
                 187627732.567                                   187627732.567  
  36031933.338  
                 192384364.383                                   192384364.383  
  36945394.522  
                 207697097.356                                   207697097.356  
  39886043.791  
                 185518620.901                                   185518620.901  
  35626900.537  
                 192248308.141                                   192248308.141  
  36919266.311  
 24  6 29 13  6 47.0000000  0 26G10G23G31G32R02R12R13E07E08E13E26E27
                                E30J02J04C01C02C03C04C05C06C08C09C10
                                C13C16
  20139977.831   105836297.373                    20139982.638    82469862.089  
  20139982.209  
  21553209.374   113262880.231                    21553214.734    88256811.881  
  21553214.609  
  21929028.753   115237824.853                    21929035.543    89795735.610  
  21929035.900  
  21844337.053   114792766.210                    21844341.342    89448926.426  
  21844341.574  
  21326553.612   113802576.289                    21326559.187    88513138.067  
  21326559.151  
  19252768.744   102844835.588                    19252773.586    79990447.831  
  19252773.497  
  20385000.787   108854767.803                    20385008.399    84664851.496  
  20385008.435  
  24868438.269   130684525.443                                                  
                
  27879011.937   146505196.325                                                  
                
  27637701.414   145237101.692                                                  
                
  25305701.516   132982360.630                                                  
                
  24389142.201   128165807.913                                                  
                
  25566444.602   134352573.742                                                  
                
  38108598.138   200262035.280                                   156048364.151  
  38108604.303  
  37888099.345   199103305.468                                   155145447.350  
  37888102.758  
                 195256662.404                                   195256662.404  
  37496989.103  
                 189859785.676                                   189859785.676  
  36460575.640  
                 188258018.142                                   188258018.142  
  36152973.078  
                 204441782.135                                   204441782.135  
  39260894.825  
                 200782500.098                                   200782500.098  
  38558168.121  
                 189270269.554                                   189270269.554  
  36347365.247  
                 187628310.347                                   187628310.347  
  36032044.322  
                 192384860.347                                   192384860.347  
  36945489.764  
                 207696383.013                                   207696383.013  
  39885906.592  
                 185518952.480                                   185518952.480  
  35626964.204  
                 192248906.063                                   192248906.063  
  36919381.138  
 24  6 29 13  6 48.0000000  0 26G10G23G31G32R02R12R13E07E08E13E26E27
                                E30J02J04C01C02C03C04C05C06C08C09C10
                                C13C16
  20140004.260   105836436.281                    20140009.084    82469970.327  
  20140008.637  
  21553690.050   113265406.154                    21553695.411    88258780.135  
  21553695.268  
  21928667.941   115235928.791                    21928674.732    89794258.164  
  21928675.089  
  21844226.194   114792183.614                    21844230.500    89448472.455  
  21844230.715  
  21326134.297   113800338.895                    21326139.908    88511397.875  
  21326139.872  
  19252868.649   102845369.251                    19252873.474    79990862.910  
  19252873.420  
  20384442.237   108851785.204                    20384449.849    84662531.701  
  20384449.885  
  24868475.115   130684719.008                                                  
                
  27879207.567   146506224.263                                                  
                
  27638202.068   145239732.637                                                  
                
  25306082.787   132984364.250                                                  
                
  24388827.134   128164152.171                                                  
                
  25566600.473   134353392.875                                                  
                
  38108659.304   200262356.752                                   156048614.651  
  38108665.487  
  37887890.688   199102208.929                                   155144592.906  
  37887894.101  
                 195256698.560                                   195256698.560  
  37496996.072  
                 189859811.153                                   189859811.153  
  36460580.536  
                 188258055.225                                   188258055.225  
  36152980.190  
                 204441815.211                                   204441815.211  
  39260901.168  
                 200782505.143                                   200782505.143  
  38558169.104  
                 189270805.322                                   189270805.322  
  36347468.155  
                 187628888.276                                   187628888.276  
  36032155.289  
                 192385356.290                                   192385356.290  
  36945585.006  
                 207695668.509                                   207695668.509  
  39885769.376  
                 185519284.222                                   185519284.222  
  35627027.925  
                 192249503.965                                   192249503.965  
  36919495.964  
 24  6 29 13  6 49.0000000  0 26G10G23G31G32R02R12R13E07E08E13E26E27
                                E30J02J04C01C02C03C04C05C06C08C09C10
                                C13C16
  20140030.813   105836575.761                    20140035.620    82470079.015  
  20140035.191  
  21554170.781   113267932.468                    21554176.141    88260748.685  
  21554175.999  
  21928307.202   115234033.082                    21928313.974    89792780.988  
  21928314.349  
  21844115.316   114791600.976                    21844119.623    89448018.452  
  21844119.837  
  21325715.001   113798101.424                    21325720.611    88509657.624  
  21325720.558  
  19252968.698   102845903.720                    19252973.523    79991278.610  
  19252973.469  
  20383883.794   108848803.151                    20383891.406    84660212.327  
  20383891.442  
  24868511.925   130684912.509                                                  
                
  27879403.161   146507252.165                                                  
                
  27638702.687   145242363.355                                                  
                
  25306464.095   132986368.021                                                  
                
  24388512.103   128162496.705                                                  
                
  25566756.398   134354212.379                                                  
                
  38108720.488   200262678.223                                   156048865.150  
  38108726.670  
  37887682.014   199101112.323                                   155143738.408  
  37887685.427  
                 195256734.654                                   195256734.654  
  37497002.987  
                 189859836.579                                   189859836.579  
  36460585.414  
                 188258092.270                                   188258092.270  
  36152987.320  
                 204441848.156                                   204441848.156  
  39260907.476  
                 200782510.154                                   200782510.154  
  38558170.051  
                 189271341.047                                   189271341.047  
  36347571.027  
                 187629466.338                                   187629466.338  
  36032266.309  
                 192385852.237                                   192385852.237  
  36945680.248  
                 207694953.805                                   207694953.805  
  39885632.124  
                 185519616.100                                   185519616.100  
  35627091.646  
                 192250101.776                                   192250101.776  
  36919610.755  
 24  6 29 13  6 50.0000000  0 26G10G23G31G32R02R12R13E07E08E13E26E27
                                E30J02J04C01C02C03C04C05C06C08C09C10
                                C13C16
  20140057.491   105836716.002                    20140062.316    82470188.291  
  20140061.869  
  21554651.654   113270459.383                    21554657.015    88262717.712  
  21554656.872  
  21927946.569   115232137.936                    21927953.341    89791304.255  
  21927953.699  
  21844004.475   114791018.497                    21844008.781    89447564.572  
  21844008.996  
  21325295.740   113795864.114                    21325301.351    88507917.494  
  21325301.297  
  19253068.943   102846439.149                    19253073.750    79991695.057  
  19253073.696  
  20383325.494   108845821.853                    20383333.107    84657893.537  
  20383333.160  
  24868548.771   130685106.121                                                  
                
  27879598.809   146508280.237                                                  
                
  27639203.269   145244994.068                                                  
                
  25306845.455   132988372.117                                                  
                
  24388197.162   128160841.708                                                  
                
  25566912.466   134355032.449                                                  
                
  38108781.689   200262999.895                                   156049115.808  
  38108787.872  
  37887473.357   199100015.851                                   155142884.014  
  37887476.770  
                 195256770.882                                   195256770.882  
  37497009.939  
                 189859862.138                                   189859862.138  
  36460590.328  
                 188258129.429                                   188258129.429  
  36152994.450  
                 204441881.322                                   204441881.322  
  39260913.855  
                 200782515.274                                   200782515.274  
  38558171.034  
                 189271876.871                                   189271876.871  
  36347673.917  
                 187630044.752                                   187630044.752  
  36032377.401  
                 192386348.349                                   192386348.349  
  36945775.525  
                 207694239.145                                   207694239.145  
  39885494.890  
                 185519948.313                                   185519948.313  
  35627155.456  
                 192250699.707                                   192250699.707  
  36919725.581  
 24  6 29 13  6 51.0000000  0 26G10G23G31G32R02R12R13E07E08E13E26E27
                                E30J02J04C01C02C03C04C05C06C08C09C10
                                C13C16
  20140084.313   105836856.949                    20140089.137    82470298.115  
  20140088.709  
  21555132.617   113272986.838                    21555137.977    88264687.155  
  21555137.817  
  21927586.026   115230243.274                    21927592.780    89789827.902  
  21927593.138  
  21843893.633   114790436.088                    21843897.940    89447110.754  
  21843898.154  
  21324876.479   113793626.900                    21324882.090    88506177.438  
  21324882.036  
  19253169.349   102846975.503                    19253174.174    79992112.219  
  19253174.103  
  20382767.338   108842841.294                    20382774.932    84655575.327  
  20382774.986  
  24868585.635   130685299.783                                                  
                
  27879794.475   146509308.409                                                  
                
  27639703.852   145247624.669                                                  
                
  25307226.852   132990376.480                                                  
                
  24387882.292   128159187.113                                                  
                
  25567068.624   134355853.011                                                  
                
  38108842.926   200263321.689                                   156049366.559  
  38108849.109  
  37887264.718   199098919.436                                   155142029.665  
  37887268.131  
                 195256807.165                                   195256807.165  
  37497016.890  
                 189859887.750                                   189859887.750  
  36460595.224  
                 188258166.660                                   188258166.660  
  36153001.597  
                 204441914.529                                   204441914.529  
  39260920.217  
                 200782520.456                                   200782520.456  
  38558172.035  
                 189272412.802                                   189272412.802  
  36347776.860  
                 187630623.427                                   187630623.427  
  36032488.511  
                 192386844.543                                   192386844.543  
  36945870.803  
                 207693524.382                                   207693524.382  
  39885357.602  
                 185520280.768                                   185520280.768  
  35627219.284  
                 192251297.702                                   192251297.702  
  36919840.425  
 24  6 29 13  6 52.0000000  0 26G10G23G31G32R02R12R13E07E08E13E26E27
                                E30J02J04C01C02C03C04C05C06C08C09C10
                                C13C16
  20140111.277   105836998.639                    20140116.084    82470408.525  
  20140115.673  
  21555613.669   113275514.860                    21555619.029    88266657.044  
  21555618.886  
  21927225.572   115228349.149                    21927232.344    89788351.968  
  21927232.702  
  21843782.845   114789853.826                    21843787.134    89446657.043  
  21843787.348  
  21324457.254   113791389.819                    21324462.847    88504437.489  
  21324462.793  
  19253269.934   102847512.877                    19253274.759    79992530.179  
  19253274.687  
  20382209.306   108839861.439                    20382216.900    84653257.661  
  20382216.972  
  24868622.480   130685493.538                                                  
                
  27879990.159   146510336.734                                                  
                
  27640204.435   145250255.225                                                  
                
  25307608.337   132992381.166                                                  
                
  24387567.529   128157532.971                                                  
                
  25567224.853   134356674.108                                                  
                
  38108904.181   200263643.651                                   156049617.441  
  38108910.364  
  37887056.098   199097823.141                                   155141175.406  
  37887059.511  
                 195256843.567                                   195256843.567  
  37497023.894  
                 189859913.501                                   189859913.501  
  36460600.174  
                 188258203.987                                   188258203.987  
  36153008.781  
                 204441947.840                                   204441947.840  
  39260926.632  
                 200782525.760                                   200782525.760  
  38558173.053  
                 189272948.830                                   189272948.830  
  36347879.804  
                 187631202.408                                   187631202.408  
  36032599.692  
                 192387340.871                                   192387340.871  
  36945966.134  
                 207692809.635                                   207692809.635  
  39885220.350  
                 185520613.545                                   185520613.545  
  35627283.202  
                 192251895.804                                   192251895.804  
  36919955.269  
 24  6 29 13  6 53.0000000  0 26G10G23G31G32R02R12R13E07E08E13E26E27
                                E30J02J04C01C02C03C04C05C06C08C09C10
                                C13C16
  20140138.349   105837140.836                    20140143.156    82470519.324  
  20140142.727  
  21556094.810   113278043.219                    21556100.153    88268627.189  
  21556100.010  
  21926865.189   115226455.320                    21926871.944    89786876.262  
  21926872.301  
  21843672.022   114789271.455                    21843676.328    89446203.252  
  21843676.543  
  21324037.993   113789152.613                    21324043.604    88502697.449  
  21324043.550  
  19253370.680   102848051.036                    19253375.504    79992948.747  
  19253375.451  
  20381651.364   108836882.102                    20381658.994    84650940.402  
  20381659.029  
  24868659.344   130685687.159                                                  
                
  27880185.825   146511364.956                                                  
                
  27640704.964   145252885.501                                                  
                
  25307989.823   132994385.914                                                  
                
  24387252.802   128155879.039                                                  
                
  25567381.171   134357495.504                                                  
                
  38108965.436   200263965.545                                   156049868.268  
  38108971.619  
  37886847.441   199096726.704                                   155140321.040  
  37886850.872  
                 195256879.848                                   195256879.848  
  37497030.863  
                 189859939.101                                   189859939.101  
  36460605.088  
                 188258241.200                                   188258241.200  
  36153015.928  
                 204441981.001                                   204441981.001  
  39260932.993  
                 200782530.924                                   200782530.924  
  38558174.018  
                 189273484.732                                   189273484.732  
  36347982.694  
                 187631781.491                                   187631781.491  
  36032710.908  
                 192387837.134                                   192387837.134  
  36946061.430  
                 207692094.646                                   207692094.646  
  39885083.045  
                 185520946.374                                   185520946.374  
  35627347.119  
                 192252493.767                                   192252493.767  
  36920070.096  
 24  6 29 13  6 54.0000000  0 27G10G23G31G32R02R12R13E07E08E13E26E27
                                E30J02J04C01C02C03C04C05C06C07C08C09
                                C10C13C16
  20140165.545   105837283.700                    20140170.334    82470630.642  
  20140169.923  
  21556576.041   113280572.079                    21556581.401    88270597.730  
  21556581.241  
  21926504.896   115224561.967                    21926511.669    89785400.926  
  21926512.026  
  21843561.216   114788689.143                    21843565.504    89445749.500  
  21843565.737  
  21323618.750   113786915.443                    21323624.343    88500957.430  
  21323624.289  
  19253471.604   102848590.090                    19253476.411    79993368.011  
  19253476.357  
  20381093.546   108833903.446                    20381101.176    84648623.674  
  20381101.212  
  24868696.190   130685880.780                                                  
                
  27880381.508   146512393.242                                                  
                
  27641205.458   145255515.644                                                  
                
  25308371.363   132996390.891                                                  
                
  24386938.128   128154225.466                                                  
                
  25567537.560   134358317.373                                                  
                
  38109026.727   200264287.539                                   156050119.177  
  38109032.874  
  37886638.820   199095630.289                                   155139466.691  
  37886642.215  
                 195256916.157                                   195256916.157  
  37497037.814  
                 189859964.742                                   189859964.742  
  36460610.020  
                 188258278.449                                   188258278.449  
  36153023.076  
                 204442014.245                                   204442014.245  
  39260939.372  
                 200782536.146                                   200782536.146  
  38558175.037  
                 189274020.678                                   189274020.678  
  36348085.619  
                 207343917.906                                   207343917.906  
  39818219.555  
                 187632360.833                                   187632360.833  
  36032822.179  
                 192388333.430                                   192388333.430  
  36946156.743  
                 207691379.572                                   207691379.572  
  39884945.721  
                 185521279.439                                   185521279.439  
  35627411.055  
                 192253091.759                                   192253091.759  
  36920184.958  
 24  6 29 13  6 55.0000000  0 27G10G23G31G32R02R12R13E07E08E13E26E27
                                E30J02J04C01C02C03C04C05C06C07C08C09
                                C10C13C16
  20140192.867   105837427.268                    20140197.656    82470742.513  
  20140197.227  
  21557057.361   113283101.471                    21557062.721    88272568.685  
  21557062.578  
  21926144.692   115222669.072                    21926151.447    89783925.945  
  21926151.822  
  21843450.410   114788106.913                    21843454.699    89445295.817  
  21843454.913  
  21323199.507   113784678.321                    21323205.100    88499217.453  
  21323205.046  
  19253572.671   102849130.020                    19253577.478    79993787.959  
  19253577.424  
  20380535.872   108830925.469                    20380543.502    84646307.470  
  20380543.538  
  24868733.036   130686074.456                                                  
                
  27880577.228   146513421.643                                                  
                
  27641705.933   145258145.667                                                  
                
  25308752.956   132998396.134                                                  
                
  24386623.526   128152572.291                                                  
                
  25567694.057   134359139.731                                                  
                
  38109088.000   200264609.654                                   156050370.179  
  38109094.182  
  37886430.199   199094533.947                                   155138612.398  
  37886433.594  
                 195256952.521                                   195256952.521  
  37497044.819  
                 189859990.435                                   189859990.435  
  36460614.951  
                 188258315.759                                   188258315.759  
  36153030.223  
                 204442047.513                                   204442047.513  
  39260945.770  
                 200782541.400                                   200782541.400  
  38558176.037  
                 189274556.662                                   189274556.662  
  36348188.545  
                 207342935.990                                   207342935.990  
  39818031.001  
                 187632940.421                                   187632940.421  
  36032933.467  
                 192388829.830                                   192388829.830  
  36946252.074  
                 207690664.391                                   207690664.391  
  39884808.380  
                 185521612.777                                   185521612.777  
  35627475.097  
                 192253689.786                                   192253689.786  
  36920299.802  
 24  6 29 13  6 56.0000000  0 27G10G23G31G32R02R12R13E07E08E13E26E27
                                E30J02J04C01C02C03C04C05C06C07C08C09
                                C10C13C16
  20140220.278   105837571.355                    20140225.085    82470854.789  
  20140224.656  
  21557538.770   113285631.245                    21557544.131    88274539.937  
  21557543.988  
  21925784.542   115220776.523                    21925791.297    89782451.234  
  21925791.672  
  21843339.604   114787524.610                    21843343.911    89444842.077  
  21843344.125  
  21322780.246   113782441.094                    21322785.839    88497477.388  
  21322785.785  
  19253673.881   102849670.708                    19253678.688    79994208.497  
  19253678.634  
  20379978.305   108827948.035                    20379985.917    84643991.692  
  20379985.971  
  24868769.882   130686268.030                                                  
                
  27880772.911   146514449.968                                                  
                
  27642206.337   145260775.467                                                  
                
  25309134.549   133000401.498                                                  
                
  24386308.978   128150919.364                                                  
                
  25567850.608   134359962.433                                                  
                
  38109149.291   200264931.739                                   156050621.159  
  38109155.455  
  37886221.543   199093437.511                                   155137758.030  
  37886224.956  
                 195256988.808                                   195256988.808  
  37497051.806  
                 189860016.082                                   189860016.082  
  36460619.883  
                 188258352.987                                   188258352.987  
  36153037.371  
                 204442080.725                                   204442080.725  
  39260952.167  
                 200782546.591                                   200782546.591  
  38558177.038  
                 189275092.581                                   189275092.581  
  36348291.470  
                 207341953.887                                   207341953.887  
  39817842.394  
                 187633520.112                                   187633520.112  
  36033044.809  
                 192389326.169                                   192389326.169  
  36946347.370  
                 207689949.053                                   207689949.053  
  39884671.003  
                 185521946.203                                   185521946.203  
  35627539.122  
                 192254287.737                                   192254287.737  
  36920414.628  
 24  6 29 13  6 57.0000000  0 27G10G23G31G32R02R12R13E07E08E13E26E27
                                E30J02J04C01C02C03C04C05C06C07C08C09
                                C10C13C16
  20140247.832   105837716.167                    20140252.639    82470967.627  
  20140252.210  
  21558020.269   113288161.537                    21558025.629    88276511.591  
  21558025.486  
  21925424.499   115218884.455                    21925431.254    89780976.898  
  21925431.611  
  21843228.816   114786942.413                    21843233.105    89444388.421  
  21843233.337  
  21322361.003   113780203.930                    21322366.596    88495737.374  
  21322366.542  
  19253775.270   102850212.345                    19253780.095    79994629.772  
  19253780.023  
  20379420.845   108824971.263                    20379428.439    84641676.425  
  20379428.493  
  24868806.728   130686461.660                                                  
                
  27880968.613   146515478.389                                                  
                
  27642706.777   145263405.187                                                  
                
  25309516.213   133002407.123                                                  
                
  24385994.519   128149266.853                                                  
                
  25568007.230   134360785.620                                                  
                
  38109210.599   200265253.941                                   156050872.226  
  38109216.782  
  37886012.904   199092341.139                                   155136903.712  
  37886016.317  
                 195257025.163                                   195257025.163  
  37497058.757  
                 189860041.743                                   189860041.743  
  36460624.797  
                 188258390.250                                   188258390.250  
  36153044.537  
                 204442113.953                                   204442113.953  
  39260958.510  
                 200782551.860                                   200782551.860  
  38558178.057  
                 189275628.568                                   189275628.568  
  36348394.414  
                 207340971.738                                   207340971.738  
  39817653.786  
                 187634100.084                                   187634100.084  
  36033156.169  
                 192389822.622                                   192389822.622  
  36946442.737  
                 207689233.593                                   207689233.593  
  39884533.608  
                 185522279.904                                   185522279.904  
  35627603.200  
                 192254885.735                                   192254885.735  
  36920529.473  
 24  6 29 13  6 58.0000000  0 27G10G23G31G32R02R12R13E07E08E13E26E27
                                E30J02J04C01C02C03C04C05C06C07C08C09
                                C10C13C16
  20140275.529   105837861.651                    20140280.318    82471080.993  
  20140279.907  
  21558501.875   113290692.349                    21558507.235    88278483.652  
  21558507.074  
  21925064.528   115216992.866                    21925071.282    89779502.934  
  21925071.676  
  21843118.046   114786360.286                    21843122.317    89443934.815  
  21843122.549  
  21321941.778   113777966.844                    21321947.371    88493997.418  
  21321947.335  
  19253876.838   102850754.939                    19253881.662    79995051.792  
  19253881.591  
  20378863.510   108821995.168                    20378871.140    84639361.689  
  20378871.176  
  24868843.574   130686655.319                                                  
                
  27881164.332   146516506.928                                                  
                
  27643207.146   145266034.770                                                  
                
  25309897.913   133004412.998                                                  
                
  24385680.131   128147614.732                                                  
                
  25568163.977   134361609.287                                                  
                
  38109271.944   200265576.290                                   156051123.416  
  38109278.108  
  37885804.301   199091244.823                                   155136049.440  
  37885807.696  
                 195257061.560                                   195257061.560  
  37497065.761  
                 189860067.491                                   189860067.491  
  36460629.765  
                 188258427.594                                   188258427.594  
  36153051.702  
                 204442147.270                                   204442147.270  
  39260964.907  
                 200782557.161                                   200782557.161  
  38558179.075  
                 189276164.604                                   189276164.604  
  36348497.357  
                 207339989.513                                   207339989.513  
  39817465.161  
                 187634680.339                                   187634680.339  
  36033267.618  
                 192390319.135                                   192390319.135  
  36946538.068  
                 207688518.098                                   207688518.098  
  39884396.195  
                 185522613.865                                   185522613.865  
  35627667.332  
                 192255483.782                                   192255483.782  
  36920644.317  
 24  6 29 13  6 59.0000000  0 27G10G23G31G32R02R12R13E07E08E13E26E27
                                E30J02J04C01C02C03C04C05C06C07C08C09
                                C10C13C16
  20140303.333   105838007.769                    20140308.122    82471194.847  
  20140307.711  
  21558983.552   113293223.631                    21558988.913    88280456.080  
  21558988.752  
  21924704.664   115215101.702                    21924711.418    89778029.307  
  21924711.776  
  21843007.276   114785778.179                    21843011.547    89443481.226  
  21843011.779  
  21321522.570   113775729.793                    21321528.146    88492257.492  
  21321528.110  
  19253978.584   102851298.435                    19253983.408    79995474.511  
  19253983.355  
  20378306.300   108819019.669                    20378313.895    84637047.415  
  20378313.966  
  24868880.420   130686848.966                                                  
                
  27881360.069   146517535.470                                                  
                
  27643707.496   145268664.209                                                  
                
  25310279.649   133006419.083                                                  
                
  24385365.797   128145962.945                                                  
                
  25568320.795   134362433.400                                                  
                
  38109333.288   200265898.663                                   156051374.618  
  38109339.453  
  37885595.680   199090148.493                                   155135195.157  
  37885599.075  
                 195257097.962                                   195257097.962  
  37497072.748  
                 189860093.245                                   189860093.245  
  36460634.697  
                 188258464.936                                   188258464.936  
  36153058.867  
                 204442180.561                                   204442180.561  
  39260971.304  
                 200782562.473                                   200782562.473  
  38558180.112  
                 189276700.637                                   189276700.637  
  36348600.301  
                 207339007.177                                   207339007.177  
  39817276.518  
                 187635260.800                                   187635260.800  
  36033379.085  
                 192390815.701                                   192390815.701  
  36946633.417  
                 207687802.501                                   207687802.501  
  39884258.782  
                 185522948.032                                   185522948.032  
  35627731.518  
                 192256081.821                                   192256081.821  
  36920759.161  
 24  6 29 13  7  0.0000000  0 27G10G23G31G32R02R12R13E07E08E13E26E27
                                E30J02J04C01C02C03C04C05C06C07C08C09
                                C10C13C16
  20140331.263   105838154.547                    20140336.069    82471309.217  
  20140335.641  
  21559465.337   113295755.391                    21559470.697    88282428.877  
  21559470.536  
  21924344.853   115213210.978                    21924351.607    89776556.020  
  21924351.983  
  21842896.524   114785196.117                    21842900.795    89443027.671  
  21842901.027  
  21321103.345   113773492.790                    21321108.920    88490517.603  
  21321108.885  
  19254080.491   102851842.771                    19254085.315    79995897.883  
  19254085.262  
  20377749.198   108816044.811                    20377756.810    84634733.641  
  20377756.846  
  24868917.284   130687042.613                                                  
                
  27881555.807   146518564.064                                                  
                
  27644207.847   145271293.510                                                  
                
  25310661.439   133008425.378                                                  
                
  24385051.535   128144311.499                                                  
                
  25568477.703   134363257.948                                                  
                
  38109394.650   200266221.115                                   156051625.884  
  38109400.815  
  37885387.041   199089052.183                                   155134340.889  
  37885390.454  
                 195257134.379                                   195257134.379  
  37497079.735  
                 189860119.005                                   189860119.005  
  36460639.646  
                 188258502.283                                   188258502.283  
  36153066.033  
                 204442213.896                                   204442213.896  
  39260977.701  
                 200782567.809                                   200782567.809  
  38558181.112  
                 189277236.679                                   189277236.679  
  36348703.208  
                 207338024.758                                   207338024.758  
  39817087.856  
                 187635841.444                                   187635841.444  
  36033490.588  
                 192391312.299                                   192391312.299  
  36946728.802  
                 207687086.753                                   207687086.753  
  39884121.316  
                 185523282.417                                   185523282.417  
  35627795.721  
                 192256679.871                                   192256679.871  
  36920874.023  
 24  6 29 13  7  1.0000000  0 27G10G23G31G32R02R12R13E07E08E13E26E27
                                E30J02J04C01C02C03C04C05C06C07C08C09
                                C10C13C16
  20140359.335   105838302.056                    20140364.142    82471424.159  
  20140363.695  
  21559947.228   113298287.735                    21559952.589    88284402.132  
  21559952.428  
  21923985.167   115211320.782                    21923991.922    89775083.150  
  21923992.279  
  21842785.772   114784614.177                    21842790.043    89442574.212  
  21842790.275  
  21320684.156   113771255.935                    21320689.731    88488777.830  
  21320689.695  
  19254182.559   102852388.083                    19254187.383    79996322.017  
  19254187.330  
  20377192.256   108813070.696                    20377199.850    84632420.443  
  20377199.886  
  24868954.130   130687236.345                                                  
                
  27881751.562   146519592.800                                                  
                
  27644708.162   145273922.738                                                  
                
  25311043.264   133010431.983                                                  
                
  24384737.380   128142660.505                                                  
                
  25568634.718   134364083.033                                                  
                
  38109456.030   200266543.743                                   156051877.285  
  38109462.195  
  37885178.438   199087955.984                                   155133486.709  
  37885181.869  
                 195257170.892                                   195257170.892  
  37497086.740  
                 189860144.864                                   189860144.864  
  36460644.596  
                 188258539.747                                   188258539.747  
  36153073.234  
                 204442247.303                                   204442247.303  
  39260984.116  
                 200782573.226                                   200782573.226  
  38558182.149  
                 189277772.846                                   189277772.846  
  36348806.170  
                 207337042.306                                   207337042.306  
  39816899.177  
                 187636422.405                                   187636422.405  
  36033602.162  
                 192391809.022                                   192391809.022  
  36946824.169  
                 207686370.997                                   207686370.997  
  39883983.868  
                 185523617.069                                   185523617.069  
  35627859.978  
                 192257278.008                                   192257278.008  
  36920988.885  
 24  6 29 13  7  2.0000000  0 27G10G23G31G32R02R12R13E07E08E13E26E27
                                E30J02J04C01C02C03C04C05C06C07C08C09
                                C10C13C16
  20140387.550   105838450.272                    20140392.339    82471539.650  
  20140391.910  
  21560429.210   113300820.601                    21560434.570    88286375.797  
  21560434.409  
  21923625.553   115209431.086                    21923632.308    89773610.666  
  21923632.683  
  21842675.055   114784032.338                    21842679.326    89442120.830  
  21842679.558  
  21320264.984   113769019.150                    21320270.559    88487038.112  
  21320270.524  
  19254284.841   102852934.343                    19254289.648    79996746.888  
  19254289.594  
  20376635.422   108810097.300                    20376643.016    84630107.808  
  20376643.052  
  24868991.011   130687430.142                                                  
                
  27881947.371   146520621.661                                                  
                
  27645208.476   145276551.912                                                  
                
  25311425.161   133012438.867                                                  
                
  24384423.260   128141009.931                                                  
                
  25568791.805   134364908.619                                                  
                
  38109517.446   200266866.520                                   156052128.807  
  38109523.611  
  37884969.871   199086859.859                                   155132632.583  
  37884973.284  
                 195257207.487                                   195257207.487  
  37497093.762  
                 189860170.798                                   189860170.798  
  36460649.582  
                 188258577.272                                   188258577.272  
  36153080.435  
                 204442280.792                                   204442280.792  
  39260990.549  
                 200782578.748                                   200782578.748  
  38558183.221  
                 189278309.074                                   189278309.074  
  36348909.167  
                 207336059.851                                   207336059.851  
  39816710.498  
                 187637003.651                                   187637003.651  
  36033713.772  
                 192392305.876                                   192392305.876  
  36946919.607  
                 207685655.173                                   207685655.173  
  39883846.365  
                 185523952.033                                   185523952.033  
  35627924.306  
                 192257876.207                                   192257876.207  
  36921103.747  
 24  6 29 13  7  3.0000000  0 27G10G23G31G32R02R12R13E07E08E13E26E27
                                E30J02J04C01C02C03C04C05C06C07C08C09
                                C10C13C16
  20140415.873   105838599.149                    20140420.679    82471655.658  
  20140420.250  
  21560911.298   113303353.960                    21560916.659    88288349.845  
  21560916.498  
  21923266.046   115207541.829                    21923272.801    89772138.522  
  21923273.158  
  21842564.339   114783450.554                    21842568.627    89441667.497  
  21842568.842  
  21319845.795   113766782.364                    21319851.370    88485298.395  
  21319851.352  
  19254387.266   102853481.507                    19254392.091    79997172.465  
  19254392.019  
  20376078.712   108807124.565                    20376086.324    84627795.686  
  20376086.360  
  24869027.893   130687623.945                                                  
                
  27882143.179   146521650.573                                                  
                
  27645708.737   145279180.917                                                  
                
  25311807.093   133014445.959                                                  
                
  24384109.248   128139359.714                                                  
                
  25568948.999   134365734.670                                                  
                
  38109578.898   200267189.368                                   156052380.379  
  38109585.045  
  37884761.286   199085763.746                                   155131778.471  
  37884764.699  
                 195257244.107                                   195257244.107  
  37497100.803  
                 189860196.747                                   189860196.747  
  36460654.567  
                 188258614.843                                   188258614.843  
  36153087.672  
                 204442314.330                                   204442314.330  
  39260996.982  
                 200782584.270                                   200782584.270  
  38558184.257  
                 189278845.345                                   189278845.345  
  36349012.146  
                 207335077.298                                   207335077.298  
  39816521.819  
                 187637585.133                                   187637585.133  
  36033825.453  
                 192392802.771                                   192392802.771  
  36947015.028  
                 207684939.297                                   207684939.297  
  39883708.917  
                 185524287.185                                   185524287.185  
  35627988.689  
                 192258474.426                                   192258474.426  
  36921218.627  
 24  6 29 13  7  4.0000000  0 27G10G23G31G32R02R12R13E07E08E13E26E27
                                E30J02J04C01C02C03C04C05C06C07C08C09
                                C10C13C16
  20140444.302   105838748.489                    20140449.091    82471772.019  
  20140448.662  
  21561393.440   113305887.636                    21561398.783    88290324.140  
  21561398.640  
  21922906.575   115205652.845                    21922913.330    89770666.591  
  21922913.705  
  21842453.605   114782868.621                    21842457.875    89441214.040  
  21842458.090  
  21319426.588   113764545.391                    21319432.163    88483558.529  
  21319432.127  
  19254489.817   102854029.384                    19254494.641    79997598.589  
  19254494.570  
  20375522.110   108804152.287                    20375529.686    84625483.918  
  20375529.740  
  24869064.739   130687817.580                                                  
                
  27882338.935   146522679.361                                                  
                
  27646208.981   145281809.631                                                  
                
  25312189.044   133016453.107                                                  
                
  24383795.253   128137709.674                                                  
                
  25569106.246   134366560.981                                                  
                
  38109640.313   200267512.125                                   156052631.880  
  38109646.478  
  37884552.665   199084667.477                                   155130924.231  
  37884556.060  
                 195257280.565                                   195257280.565  
  37497107.789  
                 189860222.559                                   189860222.559  
  36460659.535  
                 188258652.246                                   188258652.246  
  36153094.838  
                 204442347.694                                   204442347.694  
  39261003.397  
                 200782589.667                                   200782589.667  
  38558185.311  
                 189279381.448                                   189279381.448  
  36349115.107  
                 207334094.468                                   207334094.468  
  39816333.069  
                 187638166.687                                   187638166.687  
  36033937.134  
                 192393299.549                                   192393299.549  
  36947110.448  
                 207684223.131                                   207684223.131  
  39883571.397  
                 185524622.393                                   185524622.393  
  35628053.053  
                 192259072.484                                   192259072.484  
  36921333.489  
 24  6 29 13  7  5.0000000  0 27G10G23G31G32R02R12R13E07E08E13E26E27
                                E30J02J04C01C02C03C04C05C06C07C08C09
                                C10C13C16
  20140472.839   105838898.565                    20140477.664    82471888.962  
  20140477.235  
  21561875.689   113308421.852                    21561881.050    88292298.857  
  21561880.889  
  21922547.211   115203764.369                    21922553.966    89769195.059  
  21922554.323  
  21842342.906   114782286.805                    21842347.159    89440760.679  
  21842347.373  
  21319007.380   113762308.519                    21319012.991    88481818.742  
  21319012.955  
  19254592.563   102854578.204                    19254597.388    79998025.454  
  19254597.317  
  20374965.615   108801180.745                    20374973.209    84623172.726  
  20374973.245  
  24869101.620   130688011.289                                                  
                
  27882534.743   146523708.270                                                  
                
  27646709.188   145284438.251                                                  
                
  25312571.048   133018460.540                                                  
                
  24383481.330   128136060.053                                                  
                
  25569263.601   134367387.817                                                  
                
  38109701.747   200267835.023                                   156052883.496  
  38109707.912  
  37884344.080   199083571.285                                   155130070.057  
  37884347.475  
                 195257317.130                                   195257317.130  
  37497114.830  
                 189860248.444                                   189860248.444  
  36460664.484  
                 188258689.733                                   188258689.733  
  36153102.057  
                 204442381.142                                   204442381.142  
  39261009.830  
                 200782595.136                                   200782595.136  
  38558186.348  
                 189279917.627                                   189279917.627  
  36349218.068  
                 207333111.636                                   207333111.636  
  39816144.336  
                 187638748.486                                   187638748.486  
  36034048.852  
                 192393796.449                                   192393796.449  
  36947205.851  
                 207683506.891                                   207683506.891  
  39883433.841  
                 185524957.875                                   185524957.875  
  35628117.471  
                 192259670.616                                   192259670.616  
  36921448.351  
 24  6 29 13  7  6.0000000  0 27G10G23G31G32R02R12R13E07E08E13E26E27
                                E30J02J04C01C02C03C04C05C06C07C08C09
                                C10C13C16
  20140501.537   105839049.217                    20140506.326    82472006.351  
  20140505.897  
  21562358.010   113310956.497                    21562363.370    88294273.902  
  21562363.210  
  21922187.919   115201876.278                    21922194.656    89767723.821  
  21922195.013  
  21842232.172   114781704.956                    21842236.442    89440307.293  
  21842236.675  
  21318588.209   113760071.641                    21318593.784    88480078.952  
  21318593.748  
  19254695.453   102855127.852                    19254700.278    79998452.956  
  19254700.206  
  20374409.263   108798209.776                    20374416.839    84620861.972  
  20374416.875  
  24869138.448   130688204.925                                                  
                
  27882730.534   146524737.155                                                  
                
  27647209.360   145287066.704                                                  
                
  25312953.069   133020468.107                                                  
                
  24383167.461   128134410.726                                                  
                
  25569420.991   134368215.021                                                  
                
  38109763.181   200268157.939                                   156053135.118  
  38109769.346  
  37884135.477   199082475.048                                   155129215.844  
  37884138.872  
                 195257353.622                                   195257353.622  
  37497121.834  
                 189860274.300                                   189860274.300  
  36460669.452  
                 188258727.170                                   188258727.170  
  36153109.240  
                 204442414.535                                   204442414.535  
  39261016.245  
                 200782600.562                                   200782600.562  
  38558187.402  
                 189280453.779                                   189280453.779  
  36349321.030  
                 207332128.628                                   207332128.628  
  39815955.568  
                 187639330.467                                   187639330.467  
  36034160.640  
                 192394293.318                                   192394293.318  
  36947301.272  
                 207682790.541                                   207682790.541  
  39883296.268  
                 185525293.527                                   185525293.527  
  35628181.942  
                 192260268.689                                   192260268.689  
  36921563.214  
 24  6 29 13  7  7.0000000  0 27G10G23G31G32R02R12R13E07E08E13E26E27
                                E30J02J04C01C02C03C04C05C06C07C08C09
                                C10C13C16
  20140530.306   105839200.420                    20140535.095    82472124.167  
  20140534.684  
  21562840.402   113313491.508                    21562845.763    88296249.238  
  21562845.602  
  21921828.662   115199988.512                    21921835.435    89766252.843  
  21921835.792  
  21842121.437   114781123.047                    21842125.708    89439853.852  
  21842125.940  
  21318169.001   113757834.724                    21318174.577    88478339.130  
  21318174.541  
  19254798.504   102855678.295                    19254803.329    79998881.083  
  19254803.257  
  20373852.982   108795239.334                    20373860.559    84618551.629  
  20373860.630  
  24869175.277   130688398.460                                                  
                
  27882926.325   146525765.981                                                  
                
  27647709.478   145289694.831                                                  
                
  25313335.109   133022475.792                                                  
                
  24382853.663   128132761.651                                                  
                
  25569578.489   134369042.571                                                  
                
  38109824.632   200268480.807                                   156053386.706  
  38109830.779  
  37883926.856   199081378.709                                   155128361.556  
  37883930.252  
                 195257390.013                                   195257390.013  
  37497128.803  
                 189860300.049                                   189860300.049  
  36460674.402  
                 188258764.509                                   188258764.509  
  36153116.406  
                 204442447.837                                   204442447.837  
  39261022.624  
                 200782605.904                                   200782605.904  
  38558188.421  
                 189280989.836                                   189280989.836  
  36349423.991  
                 207331145.429                                   207331145.429  
  39815766.764  
                 187639912.554                                   187639912.554  
  36034272.411  
                 192394790.137                                   192394790.137  
  36947396.692  
                 207682073.915                                   207682073.915  
  39883158.658  
                 185525629.279                                   185525629.279  
  35628246.413  
                 192260866.661                                   192260866.661  
  36921678.040  
 24  6 29 13  7  8.0000000  0 27G10G23G31G32R02R12R13E07E08E13E26E27
                                E30J02J04C01C02C03C04C05C06C07C08C09
                                C10C13C16
  20140559.164   105839352.122                    20140563.971    82472242.374  
  20140563.542  
  21563322.848   113316026.836                    21563328.208    88298224.811  
  21563328.065  
  21921469.495   115198101.028                    21921476.249    89764782.088  
  21921476.607  
  21842010.685   114780541.010                    21842014.938    89439400.317  
  21842015.152  
  21317749.776   113755597.682                    21317755.351    88476599.209  
  21317755.334  
  19254901.680   102856229.462                    19254906.486    79999309.770  
  19254906.433  
  20373296.809   108792269.382                    20373304.386    84616241.666  
  20373304.457  
  24869212.069   130688591.829                                                  
                
  27883122.062   146526794.696                                                  
                
  27648209.543   145292322.724                                                  
                
  25313717.167   133024483.551                                                  
                
  24382539.883   128131112.764                                                  
                
  25569736.022   134369870.405                                                  
                
  38109886.066   200268803.614                                   156053638.246  
  38109892.231  
  37883718.182   199080282.240                                   155127507.163  
  37883721.577  
                 195257426.293                                   195257426.293  
  37497135.772  
                 189860325.692                                   189860325.692  
  36460679.333  
                 188258801.720                                   188258801.720  
  36153123.535  
                 204442480.977                                   204442480.977  
  39261028.986  
                 200782611.097                                   200782611.097  
  38558189.421  
                 189281525.741                                   189281525.741  
  36349526.881  
                 207330161.986                                   207330161.986  
  39815577.906  
                 187640494.716                                   187640494.716  
  36034384.217  
                 192395286.833                                   192395286.833  
  36947492.059  
                 207681357.021                                   207681357.021  
  39883020.959  
                 185525965.069                                   185525965.069  
  35628310.867  
                 192261464.499                                   192261464.499  
  36921792.848  
 24  6 29 13  7  9.0000000  0 27G10G23G31G32R02R12R13E07E08E13E26E27
                                E30J02J04C01C02C03C04C05C06C07C08C09
                                C10C13C16
  20140588.166   105839504.573                    20140592.990    82472361.167  
  20140592.561  
  21563805.436   113318562.763                    21563810.797    88300200.856  
  21563810.636  
  21921110.435   115196214.116                    21921117.171    89763311.769  
  21921117.529  
  21841899.969   114779959.142                    21841904.221    89438946.918  
  21841904.454  
  21317330.587   113753360.766                    21317336.180    88474859.385  
  21317336.126  
  19255005.034   102856781.619                    19255009.859    79999739.226  
  19255009.805  
  20372740.779   108789300.166                    20372748.355    84613932.273  
  20372748.391  
  24869248.897   130688785.329                                                  
                
  27883317.871   146527823.590                                                  
                
  27648709.590   145294950.543                                                  
                
  25314099.296   133026491.623                                                  
                
  24382226.210   128129464.355                                                  
                
  25569893.645   134370698.814                                                  
                
  38109947.518   200269126.600                                   156053889.926  
  38109953.682  
  37883509.561   199079185.901                                   155126652.871  
  37883512.956  
                 195257462.705                                   195257462.705  
  37497142.759  
                 189860351.449                                   189860351.449  
  36460684.283  
                 188258839.059                                   188258839.059  
  36153130.719  
                 204442514.303                                   204442514.303  
  39261035.383  
                 200782616.435                                   200782616.435  
  38558190.440  
                 189282061.806                                   189282061.806  
  36349629.824  
                 207329178.520                                   207329178.520  
  39815389.013  
                 187641077.210                                   187641077.210  
  36034496.077  
                 192395783.713                                   192395783.713  
  36947587.480  
                 207680640.174                                   207680640.174  
  39882883.297  
                 185526301.207                                   185526301.207  
  35628375.446  
                 192262062.453                                   192262062.453  
  36921907.675  
 24  6 29 13  7 10.0000000  0 27G10G23G31G32R02R12R13E07E08E13E26E27
                                E30J02J04C01C02C03C04C05C06C07C08C09
                                C10C13C16
  20140617.328   105839657.710                    20140622.135    82472480.492  
  20140621.706  
  21564288.097   113321099.204                    21564293.457    88302177.310  
  21564293.332  
  21920751.446   115194327.664                    21920758.183    89761841.809  
  21920758.540  
  21841789.252   114779377.343                    21841793.523    89438493.568  
  21841793.737  
  21316911.398   113751123.885                    21316916.973    88473119.591  
  21316916.955  
  19255108.567   102857334.707                    19255113.410    80000169.408  
  19255113.356  
  20372184.856   108786331.627                    20372192.468    84611623.410  
  20372192.503  
  24869285.725   130688978.856                                                  
                
  27883513.698   146528852.569                                                  
                
  27649209.636   145297578.280                                                  
                
  25314481.461   133028499.945                                                  
                
  24381912.573   128127816.322                                                  
                
  25570051.375   134371527.676                                                  
                
  38110009.005   200269449.704                                   156054141.697  
  38110015.170  
  37883300.958   199078089.585                                   155125798.601  
  37883304.353  
                 195257499.151                                   195257499.151  
  37497149.781  
                 189860377.276                                   189860377.276  
  36460689.233  
                 188258876.444                                   188258876.444  
  36153137.884  
                 204442547.661                                   204442547.661  
  39261041.798  
                 200782621.789                                   200782621.789  
  38558191.458  
                 189282597.903                                   189282597.903  
  36349732.786  
                 207328195.030                                   207328195.030  
  39815200.173  
                 187641659.973                                   187641659.973  
  36034607.991  
                 192396280.657                                   192396280.657  
  36947682.918  
                 207679923.234                                   207679923.234  
  39882745.616  
                 185526637.598                                   185526637.598  
  35628440.042  
                 192262660.445                                   192262660.445  
  36922022.519  
 24  6 29 13  7 11.0000000  0 27G10G23G31G32R02R12R13E07E08E13E26E27
                                E30J02J04C01C02C03C04C05C06C07C08C09
                                C10C13C16
  20140646.579   105839811.472                    20140651.386    82472600.302  
  20140650.975  
  21564770.846   113323636.093                    21564776.207    88304154.104  
  21564776.064  
  21920392.529   115192441.615                    21920399.266    89760372.165  
  21920399.641  
  21841678.536   114778795.548                    21841682.806    89438040.219  
  21841683.021  
  21316492.208   113748886.986                    21316497.783    88471379.778  
  21316497.748  
  19255212.279   102857888.643                    19255217.104    80000600.247  
  19255217.032  
  20371629.075   108783363.723                    20371636.670    84609315.040  
  20371636.705  
  24869322.553   130689172.348                                                  
                
  27883709.507   146529881.566                                                  
                
  27649709.647   145300205.832                                                  
                
  25314863.661   133030508.461                                                  
                
  24381599.043   128126168.615                                                  
                
  25570209.194   134372356.968                                                  
                
  38110070.474   200269772.842                                   156054393.493  
  38110076.639  
  37883092.337   199076993.281                                   155124944.336  
  37883095.732  
                 195257535.579                                   195257535.579  
  37497156.768  
                 189860403.071                                   189860403.071  
  36460694.183  
                 188258913.803                                   188258913.803  
  36153145.050  
                 204442580.967                                   204442580.967  
  39261048.177  
                 200782627.165                                   200782627.165  
  38558192.495  
                 189283133.986                                   189283133.986  
  36349835.729  
                 207327211.389                                   207327211.389  
  39815011.244  
                 187642242.909                                   187642242.909  
  36034719.941  
                 192396777.619                                   192396777.619  
  36947778.357  
                 207679206.175                                   207679206.175  
  39882607.917  
                 185526974.167                                   185526974.167  
  35628504.674  
                 192263258.396                                   192263258.396  
  36922137.345  
 24  6 29 13  7 12.0000000  0 27G10G23G31G32R02R12R13E07E08E13E26E27
                                E30J02J04C01C02C03C04C05C06C07C08C09
                                C10C13C16
  20140675.974   105839965.836                    20140680.781    82472720.583  
  20140680.334  
  21565253.685   113326173.434                    21565259.046    88306131.253  
  21565258.921  
  21920033.701   115190555.977                    21920040.438    89758902.841  
  21920040.813  
  21841567.837   114778213.752                    21841572.090    89437586.872  
  21841572.304  
  21316073.001   113746650.087                    21316078.576    88469639.973  
  21316078.558  
  19255316.134   102858443.401                    19255320.941    80001031.723  
  19255320.887  
  20371073.384   108780396.406                    20371080.979    84607007.129  
  20371081.015  
  24869359.363   130689365.804                                                  
                
  27883905.333   146530910.574                                                  
                
  27650209.605   145302833.217                                                  
                
  25315245.915   133032517.149                                                  
                
  24381285.549   128124521.224                                                  
                
  25570367.067   134373186.657                                                  
                
  38110131.997   200270096.034                                   156054645.335  
  38110138.144  
  37882883.699   199075896.939                                   155124090.045  
  37882887.112  
                 195257571.996                                   195257571.996  
  37497163.755  
                 189860428.857                                   189860428.857  
  36460699.132  
                 188258951.162                                   188258951.162  
  36153152.251  
                 204442614.278                                   204442614.278  
  39261054.592  
                 200782632.501                                   200782632.501  
  38558193.531  
                 189283670.063                                   189283670.063  
  36349938.690  
                 207326227.620                                   207326227.620  
  39814822.332  
                 187642825.990                                   187642825.990  
  36034831.926  
                 192397274.607                                   192397274.607  
  36947873.795  
                 207678488.950                                   207678488.950  
  39882470.183  
                 185527310.925                                   185527310.925  
  35628569.342  
                 192263856.336                                   192263856.336  
  36922252.172  
 24  6 29 13  7 13.0000000  0 27G10G23G31G32R02R12R13E07E08E13E26E27
                                E30J02J04C01C02C03C04C05C06C07C08C09
                                C10C13C16
  20140705.458   105840120.780                    20140710.265    82472841.315  
  20140709.818  
  21565736.595   113328711.163                    21565741.956    88308108.702  
  21565741.813  
  21919674.963   115188670.685                    21919681.699    89757433.785  
  21919682.057  
  21841457.121   114777631.907                    21841461.356    89437133.488  
  21841461.570  
  21315653.794   113744413.158                    21315659.404    88467900.142  
  21315659.369  
  19255420.131   102858998.965                    19255424.956    80001463.831  
  19255424.903  
  20370517.801   108777429.638                    20370525.395    84604699.645  
  20370525.449  
  24869396.173   130689559.176                                                  
                
  27884101.124   146531939.533                                                  
                
  27650709.526   145305460.355                                                  
                
  25315628.169   133034525.958                                                  
                
  24380972.108   128122874.106                                                  
                
  25570525.011   134374016.722                                                  
                
  38110193.485   200270419.213                                   156054897.164  
  38110199.632  
  37882675.060   199074800.523                                   155123235.695  
  37882678.455  
                 195257608.337                                   195257608.337  
  37497170.742  
                 189860454.573                                   189860454.573  
  36460704.064  
                 188258988.451                                   188258988.451  
  36153159.399  
                 204442647.503                                   204442647.503  
  39261060.953  
                 200782637.784                                   200782637.784  
  38558194.532  
                 189284206.073                                   189284206.073  
  36350041.634  
                 207325243.688                                   207325243.688  
  39814633.350  
                 187643409.234                                   187643409.234  
  36034943.911  
                 192397771.548                                   192397771.548  
  36947969.216  
                 207677771.547                                   207677771.547  
  39882332.412  
                 185527647.796                                   185527647.796  
  35628634.028  
                 192264454.197                                   192264454.197  
  36922366.980  
 24  6 29 13  7 14.0000000  0 27G10G23G31G32R02R12R13E07E08E13E26E27
                                E30J02J04C01C02C03C04C05C06C07C08C09
                                C10C13C16
  20140735.067   105840276.409                    20140739.892    82472962.582  
  20140739.445  
  21566219.631   113331249.420                    21566224.991    88310086.564  
  21566224.831  
  21919316.278   115186785.865                    21919323.032    89755965.096  
  21919323.390  
  21841346.404   114777050.176                    21841350.657    89436680.189  
  21841350.889  
  21315234.622   113742176.319                    21315240.197    88466160.382  
  21315240.161  
  19255524.308   102859555.466                    19255529.150    80001896.662  
  19255529.061  
  20369962.342   108774463.538                    20369969.937    84602392.684  
  20369969.972  
  24869432.966   130689752.597                                                  
                
  27884296.968   146532968.617                                                  
                
  27651209.448   145308087.400                                                  
                
  25316010.477   133036535.043                                                  
                
  24380658.739   128121227.388                                                  
                
  25570683.062   134374847.265                                                  
                
  38110255.026   200270742.516                                   156055149.086  
  38110261.155  
  37882466.439   199073704.187                                   155122381.401  
  37882469.834  
                 195257644.740                                   195257644.740  
  37497177.729  
                 189860480.368                                   189860480.368  
  36460709.032  
                 188259025.790                                   188259025.790  
  36153166.564  
                 204442680.805                                   204442680.805  
  39261067.368  
                 200782643.114                                   200782643.114  
  38558195.550  
                 189284742.123                                   189284742.123  
  36350144.559  
                 207324259.727                                   207324259.727  
  39814444.402  
                 187643992.771                                   187643992.771  
  36035055.968  
                 192398268.593                                   192398268.593  
  36948064.672  
                 207677054.075                                   207677054.075  
  39882194.624  
                 185527984.938                                   185527984.938  
  35628698.786  
                 192265052.099                                   192265052.099  
  36922481.806  
 24  6 29 13  7 15.0000000  0 27G10G23G31G32R02R12R13E07E08E13E26E27
                                E30J02J04C01C02C03C04C05C06C07C08C09
                                C10C13C16
  20140764.801   105840432.566                    20140769.590    82473084.260  
  20140769.161  
  21566702.702   113333788.037                    21566708.063    88312064.708  
  21566707.902  
  21918957.682   115184901.392                    21918964.419    89754496.682  
  21918964.776  
  21841235.688   114776468.334                    21841239.958    89436226.807  
  21841240.173  
  21314815.415   113739939.378                    21314820.990    88464420.544  
  21314820.954  
  19255628.627   102860112.724                    19255633.452    80002330.088  
  19255633.398  
  20369406.973   108771497.969                    20369414.585    84600086.134  
  20369414.621  
  24869469.740   130689945.898                                                  
                
  27884492.777   146533997.614                                                  
                
  27651709.298   145310714.165                                                  
                
  25316392.821   133038544.225                                                  
                
  24380345.442   128119580.904                                                  
                
  25570841.185   134375678.145                                                  
                
  38110316.513   200271065.769                                   156055400.976  
  38110322.678  
  37882257.782   199072607.722                                   155121527.010  
  37882261.195  
                 195257681.046                                   195257681.046  
  37497184.698  
                 189860506.021                                   189860506.021  
  36460713.964  
                 188259063.038                                   188259063.038  
  36153173.730  
                 204442713.983                                   204442713.983  
  39261073.712  
                 200782648.380                                   200782648.380  
  38558196.587  
                 189285278.089                                   189285278.089  
  36350247.485  
                 207323275.534                                   207323275.534  
  39814255.420  
                 187644576.387                                   187644576.387  
  36035168.060  
                 192398765.537                                   192398765.537  
  36948160.111  
                 207676336.390                                   207676336.390  
  39882056.801  
                 185528322.166                                   185528322.166  
  35628763.525  
                 192265649.896                                   192265649.896  
  36922596.615  
 24  6 29 13  7 16.0000000  0 27G10G23G31G32R02R12R13E07E08E13E26E27
                                E30J02J04C01C02C03C04C05C06C07C08C09
                                C10C13C16
  20140794.642   105840589.441                    20140799.467    82473206.501  
  20140799.020  
  21567185.898   113336327.195                    21567191.259    88314043.273  
  21567191.098  
  21918599.140   115183017.405                    21918605.895    89753028.643  
  21918606.270  
  21841125.007   114775886.597                    21841129.242    89435773.504  
  21841129.456  
  21314396.225   113737702.530                    21314401.800    88462680.781  
  21314401.765  
  19255733.125   102860670.943                    19255737.968    80002764.258  
  19255737.878  
  20368851.765   108768533.101                    20368859.341    84597780.126  
  20368859.377  
  24869506.532   130690139.260                                                  
                
  27884688.622   146535026.716                                                  
                
  27652209.131   145313340.866                                                  
                
  25316775.182   133040553.653                                                  
                
  24380032.198   128117934.828                                                  
                
  25570999.398   134376509.515                                                  
                
  38110378.054   200271389.169                                   156055652.978  
  38110384.219  
  37882049.162   199071511.327                                   155120672.678  
  37882052.539  
                 195257717.422                                   195257717.422  
  37497191.684  
                 189860531.772                                   189860531.772  
  36460718.895  
                 188259100.354                                   188259100.354  
  36153180.895  
                 204442747.245                                   204442747.245  
  39261080.091  
                 200782653.678                                   200782653.678  
  38558197.588  
                 189285814.131                                   189285814.131  
  36350350.446  
                 207322291.320                                   207322291.320  
  39814066.401  
                 187645160.302                                   187645160.302  
  36035280.206  
                 192399262.603                                   192399262.603  
  36948255.567  
                 207675618.645                                   207675618.645  
  39881918.977  
                 185528659.677                                   185528659.677  
  35628828.336  
                 192266247.751                                   192266247.751  
  36922711.423  
 24  6 29 13  7 17.0000000  0 27G10G23G31G32R02R12R13E07E08E13E26E27
                                E30J02J04C01C02C03C04C05C06C07C08C09
                                C10C13C16
  20140824.609   105840746.854                    20140829.415    82473329.157  
  20140828.969  
  21567669.148   113338866.723                    21567674.509    88316022.125  
  21567674.366  
  21918240.705   115181133.753                    21918247.442    89751560.870  
  21918247.799  
  21841014.290   114775304.795                    21841018.525    89435320.154  
  21841018.740  
  21313977.018   113735465.572                    21313982.611    88460940.926  
  21313982.557  
  19255837.766   102861229.943                    19255842.591    80003199.041  
  19255842.537  
  20368296.628   108765568.790                    20368304.240    84595474.553  
  20368304.276  
  24869543.325   130690332.523                                                  
                
  27884884.448   146536055.780                                                  
                
  27652708.927   145315967.318                                                  
                
  25317157.597   133042563.225                                                  
                
  24379719.007   128116289.011                                                  
                
  25571157.646   134377341.226                                                  
                
  38110439.595   200271712.536                                   156055904.955  
  38110445.742  
  37881840.505   199070414.870                                   155119818.294  
  37881843.900  
                 195257753.720                                   195257753.720  
  37497198.653  
                 189860557.433                                   189860557.433  
  36460723.827  
                 188259137.582                                   188259137.582  
  36153188.043  
                 204442780.431                                   204442780.431  
  39261086.488  
                 200782658.912                                   200782658.912  
  38558198.570  
                 189286350.092                                   189286350.092  
  36350453.354  
                 207321306.897                                   207321306.897  
  39813877.347  
                 187645744.331                                   187645744.331  
  36035392.352  
                 192399759.626                                   192399759.626  
  36948351.023  
                 207674900.675                                   207674900.675  
  39881781.082  
                 185528997.299                                   185528997.299  
  35628893.201  
                 192266845.522                                   192266845.522  
  36922826.214  
 24  6 29 13  7 18.0000000  0 27G10G23G31G32R02R12R13E07E08E13E26E27
                                E30J02J04C01C02C03C04C05C06C07C08C09
                                C10C13C16
  20140854.664   105840904.833                    20140859.471    82473452.258  
  20140859.042  
  21568152.487   113341406.646                    21568157.830    88318001.293  
  21568157.687  
  21917882.324   115179250.445                    21917889.043    89750093.363  
  21917889.436  
  21840903.556   114774722.935                    21840907.791    89434866.757  
  21840908.006  
  21313557.793   113733228.524                    21313563.386    88459201.005  
  21313563.332  
  19255942.550   102861789.737                    19255947.375    80003634.440  
  19255947.321  
  20367741.616   108762605.043                    20367749.210    84593169.421  
  20367749.264  
  24869580.081   130690525.680                                                  
                
  27885080.275   146537084.786                                                  
                
  27653208.688   145318593.514                                                  
                
  25317540.012   133044572.902                                                  
                
  24379405.853   128114643.445                                                  
                
  25571315.983   134378173.306                                                  
                
  38110501.118   200272035.874                                   156056156.909  
  38110507.283  
  37881631.831   199069318.308                                   155118963.830  
  37881635.226  
                 195257789.925                                   195257789.925  
  37497205.604  
                 189860583.030                                   189860583.030  
  36460728.741  
                 188259174.746                                   188259174.746  
  36153195.172  
                 204442813.519                                   204442813.519  
  39261092.814  
                 200782664.074                                   200782664.074  
  38558199.571  
                 189286885.968                                   189286885.968  
  36350556.262  
                 207320322.279                                   207320322.279  
  39813688.293  
                 187646328.500                                   187646328.500  
  36035504.552  
                 192400256.579                                   192400256.579  
  36948446.444  
                 207674182.525                                   207674182.525  
  39881643.151  
                 185529335.033                                   185529335.033  
  35628958.047  
                 192267443.203                                   192267443.203  
  36922940.987  
 24  6 29 13  7 19.0000000  0 27G10G23G31G32R02R12R13E07E08E13E26E27
                                E30J02J04C01C02C03C04C05C06C07C08C09
                                C10C13C16
  20140884.863   105841063.490                    20140889.670    82473575.884  
  20140889.223  
  21568635.916   113343947.089                    21568641.259    88319980.855  
  21568641.116  
  21917524.015   115177367.609                    21917530.751    89748626.225  
  21917531.127  
  21840792.840   114774141.163                    21840797.093    89434413.430  
  21840797.325  
  21313138.568   113730991.527                    21313144.161    88457461.116  
  21313144.107  
  19256047.531   102862350.464                    19256052.355    80004070.566  
  19256052.284  
  20367186.729   108759641.969                    20367194.323    84590864.813  
  20367194.359  
  24869616.838   130690718.896                                                  
                
  27885276.119   146538113.897                                                  
                
  27653708.413   145321219.626                                                  
                
  25317922.498   133046582.841                                                  
                
  24379092.770   128112998.273                                                  
                
  25571474.428   134379005.856                                                  
                
  38110562.677   200272359.335                                   156056408.959  
  38110568.841  
  37881423.192   199068221.795                                   155118109.405  
  37881426.569  
                 195257826.188                                   195257826.188  
  37497212.555  
                 189860608.671                                   189860608.671  
  36460733.655  
                 188259211.948                                   188259211.948  
  36153202.320  
                 204442846.699                                   204442846.699  
  39261099.211  
                 200782669.299                                   200782669.299  
  38558200.572  
                 189287421.908                                   189287421.908  
  36350659.187  
                 207319337.614                                   207319337.614  
  39813499.167  
                 187646912.889                                   187646912.889  
  36035616.769  
                 192400753.630                                   192400753.630  
  36948541.900  
                 207673464.282                                   207673464.282  
  39881505.237  
                 185529673.004                                   185529673.004  
  35629022.930  
                 192268040.939                                   192268040.939  
  36923055.777  
 24  6 29 13  7 20.0000000  0 27G10G23G31G32R02R12R13E07E08E13E26E27
                                E30J02J04C01C02C03C04C05C06C07C08C09
                                C10C13C16
  20140915.169   105841222.760                    20140919.976    82473699.986  
  20140919.529  
  21569119.416   113346487.949                    21569124.759    88321960.741  
  21569124.616  
  21917165.812   115175485.181                    21917172.549    89747159.400  
  21917172.906  
  21840682.123   114773559.365                    21840686.394    89433960.083  
  21840686.608  
  21312719.378   113728754.512                    21312724.936    88455721.220  
  21312724.900  
  19256152.636   102862912.015                    19256157.479    80004507.330  
  19256157.407  
  20366631.949   108756679.486                    20366639.526    84588560.664  
  20366639.580  
  24869653.595   130690912.053                                                  
                
  27885471.946   146539142.981                                                  
                
  27654208.085   145323845.534                                                  
                
  25318305.003   133048592.938                                                  
                
  24378779.776   128111353.406                                                  
                
  25571632.908   134379838.802                                                  
                
  38110624.235   200272682.823                                   156056661.029  
  38110630.382  
  37881214.517   199067125.262                                   155117254.963  
  37881217.895  
                 195257862.407                                   195257862.407  
  37497219.506  
                 189860634.300                                   189860634.300  
  36460738.587  
                 188259249.118                                   188259249.118  
  36153209.450  
                 204442879.822                                   204442879.822  
  39261105.554  
                 200782674.472                                   200782674.472  
  38558201.572  
                 189287957.816                                   189287957.816  
  36350762.113  
                 207318352.799                                   207318352.799  
  39813310.041  
                 187647497.470                                   187647497.470  
  36035729.022  
                 192401250.670                                   192401250.670  
  36948637.356  
                 207672745.883                                   207672745.883  
  39881367.253  
                 185530011.143                                   185530011.143  
  35629087.884  
                 192268638.611                                   192268638.611  
  36923170.550  
 24  6 29 13  7 21.0000000  0 27G10G23G31G32R02R12R13E07E08E13E26E27
                                E30J02J04C01C02C03C04C05C06C07C08C09
                                C10C13C16
  20140945.618   105841382.722                    20140950.424    82473824.630  
  20140949.978  
  21569603.023   113349029.342                    21569608.384    88323941.045  
  21569608.241  
  21916807.681   115173603.228                    21916814.418    89745692.948  
  21916814.775  
  21840571.425   114772977.657                    21840575.695    89433506.805  
  21840575.910  
  21312300.171   113726517.610                    21312305.746    88453981.410  
  21312305.710  
  19256257.939   102863474.478                    19256262.763    80004944.804  
  19256262.710  
  20366077.295   108753717.683                    20366084.889    84586257.044  
  20366084.925  
  24869690.369   130691105.257                                                  
                
  27885667.791   146540172.178                                                  
                
  27654707.774   145326471.337                                                  
                
  25318687.561   133050603.285                                                  
                
  24378466.854   128109708.933                                                  
                
  25571791.496   134380672.224                                                  
                
  38110685.812   200273006.422                                   156056913.185  
  38110691.959  
  37881005.879   199066028.773                                   155116400.556  
  37881009.256  
                 195257898.705                                   195257898.705  
  37497226.475  
                 189860659.964                                   189860659.964  
  36460743.519  
                 188259286.344                                   188259286.344  
  36153216.597  
                 204442912.994                                   204442912.994  
  39261111.934  
                 200782679.709                                   200782679.709  
  38558202.573  
                 189288493.768                                   189288493.768  
  36350865.021  
                 207317367.913                                   207317367.913  
  39813120.898  
                 187648082.316                                   187648082.316  
  36035841.329  
                 192401747.794                                   192401747.794  
  36948732.831  
                 207672027.439                                   207672027.439  
  39881229.304  
                 185530349.526                                   185530349.526  
  35629152.855  
                 192269236.344                                   192269236.344  
  36923285.358  
 24  6 29 13  7 22.0000000  0 27G10G23G31G32R02R12R13E07E08E13E26E27
                                E30J02J04C01C02C03C04C05C06C07C08C09
                                C10C13C16
  20140976.209   105841543.513                    20140981.034    82473949.919  
  20140980.587  
  21570086.773   113351571.405                    21570092.134    88325921.873  
  21570091.973  
  21916449.675   115171721.897                    21916456.412    89744226.981  
  21916456.769  
  21840460.797   114772396.182                    21840465.032    89433053.709  
  21840465.265  
  21311881.017   113724280.967                    21311886.610    88452241.799  
  21311886.557  
  19256363.437   102864038.007                    19256368.244    80005383.106  
  19256368.190  
  20365522.801   108750756.751                    20365530.396    84583954.101  
  20365530.431  
  24869727.161   130691298.640                                                  
                
  27885863.689   146541201.611                                                  
                
  27655207.445   145329097.185                                                  
                
  25319070.190   133052614.045                                                  
                
  24378154.003   128108065.016                                                  
                
  25571950.244   134381506.312                                                  
                
  38110747.424   200273330.289                                   156057165.550  
  38110753.589  
  37880797.258   199064932.507                                   155115546.319  
  37880800.653  
                 195257935.206                                   195257935.206  
  37497233.480  
                 189860685.834                                   189860685.834  
  36460748.469  
                 188259323.781                                   188259323.781  
  36153223.781  
                 204442946.360                                   204442946.360  
  39261118.313  
                 200782685.143                                   200782685.143  
  38558203.609  
                 189289029.938                                   189289029.938  
  36350967.982  
                 207316383.147                                   207316383.147  
  39812931.790  
                 187648667.558                                   187648667.558  
  36035953.725  
                 192402245.157                                   192402245.157  
  36948828.341  
                 207671309.071                                   207671309.071  
  39881091.337  
                 185530688.345                                   185530688.345  
  35629217.934  
                 192269834.275                                   192269834.275  
  36923400.185  
 24  6 29 13  7 23.0000000  0 27G10G23G31G32R02R12R13E07E08E13E26E27
                                E30J02J04C01C02C03C04C05C06C07C08C09
                                C10C13C16
  20141006.926   105841704.907                    20141011.733    82474075.677  
  20141011.286  
  21570570.595   113354113.893                    21570575.938    88327903.037  
  21570575.795  
  21916091.741   115169840.951                    21916098.460    89742761.315  
  21916098.817  
  21840350.153   114771814.692                    21840354.387    89432600.595  
  21840354.602  
  21311461.864   113722044.310                    21311467.439    88450502.179  
  21311467.403  
  19256469.079   102864602.382                    19256473.904    80005822.070  
  19256473.832  
  20364968.415   108747796.406                    20364976.009    84581651.613  
  20364976.063  
  24869763.954   130691491.974                                                  
                
  27886059.587   146542231.048                                                  
                
  27655707.081   145331722.838                                                  
                
  25319452.855   133054624.973                                                  
                
  24377841.241   128106421.402                                                  
                
  25572109.010   134382340.763                                                  
                
  38110809.073   200273654.187                                   156057417.943  
  38110815.220  
  37880588.619   199063836.189                                   155114692.047  
  37880592.032  
                 195257971.661                                   195257971.661  
  37497240.503  
                 189860711.682                                   189860711.682  
  36460753.436  
                 188259361.178                                   188259361.178  
  36153230.964  
                 204442979.724                                   204442979.724  
  39261124.746  
                 200782690.575                                   200782690.575  
  38558204.682  
                 189289566.067                                   189289566.067  
  36351070.943  
                 207315398.247                                   207315398.247  
  39812742.664  
                 187649252.988                                   187649252.988  
  36036066.157  
                 192402742.517                                   192402742.517  
  36948923.833  
                 207670590.529                                   207670590.529  
  39880953.335  
                 185531027.322                                   185531027.322  
  35629283.031  
                 192270432.148                                   192270432.148  
  36923514.993  
 24  6 29 13  7 24.0000000  0 27G10G23G31G32R02R12R13E07E08E13E26E27
                                E30J02J04C01C02C03C04C05C06C07C08C09
                                C10C13C16
  20141037.786   105841867.077                    20141042.593    82474202.040  
  20141042.164  
  21571054.524   113356656.986                    21571059.884    88329884.668  
  21571059.741  
  21915733.914   115167960.583                    21915740.650    89741296.094  
  21915741.008  
  21840239.508   114771233.366                    21840243.760    89432147.621  
  21840243.975  
  21311042.728   113719807.789                    21311048.321    88448762.665  
  21311048.267  
  19256574.935   102865167.787                    19256579.742    80006261.831  
  19256579.688  
  20364414.189   108744836.833                    20364421.766    84579349.723  
  20364421.819  
  24869800.764   130691685.439                                                  
                
  27886255.521   146543260.652                                                  
                
  27656206.735   145334348.474                                                  
                
  25319835.592   133056636.235                                                  
                
  24377528.551   128104778.264                                                  
                
  25572267.938   134383175.804                                                  
                
  38110870.756   200273978.285                                   156057670.487  
  38110876.886  
  37880380.034   199062740.014                                   155113837.884  
  37880383.411  
                 195258008.249                                   195258008.249  
  37497247.525  
                 189860737.686                                   189860737.686  
  36460758.440  
                 188259398.717                                   188259398.717  
  36153238.165  
                 204443013.172                                   204443013.172  
  39261131.161  
                 200782696.117                                   200782696.117  
  38558205.718  
                 189290102.344                                   189290102.344  
  36351173.922  
                 207314413.364                                   207314413.364  
  39812553.520  
                 187649838.753                                   187649838.753  
  36036178.643  
                 192403240.060                                   192403240.060  
  36949019.396  
                 207669872.024                                   207669872.024  
  39880815.386  
                 185531366.644                                   185531366.644  
  35629348.200  
                 192271030.166                                   192271030.166  
  36923629.837  
 24  6 29 13  7 25.0000000  0 27G10G23G31G32R02R12R13E07E08E13E26E27
                                E30J02J04C01C02C03C04C05C06C07C08C09
                                C10C13C16
  20141068.753   105842029.818                    20141073.560    82474328.852  
  20141073.131  
  21571538.542   113359200.487                    21571543.885    88331866.615  
  21571543.742  
  21915376.158   115166080.567                    21915382.877    89739831.155  
  21915383.234  
  21840128.898   114770652.019                    21840133.115    89431694.624  
  21840133.330  
  21310623.610   113717571.215                    21310629.185    88447023.112  
  21310629.149  
  19256680.916   102865734.015                    19256685.741    80006702.233  
  19256685.669  
  20363860.071   108741877.827                    20363867.647    84577048.276  
  20363867.701  
  24869837.574   130691878.845                                                  
                
  27886451.437   146544290.239                                                  
                
  27656706.317   145336973.899                                                  
                
  25320218.328   133058647.641                                                  
                
  24377215.933   128103135.413                                                  
                
  25572426.900   134384011.221                                                  
                
  38110932.422   200274302.398                                   156057923.045  
  38110938.569  
  37880171.431   199061643.783                                   155112983.679  
  37880174.808  
                 195258044.806                                   195258044.806  
  37497254.530  
                 189860763.600                                   189860763.600  
  36460763.407  
                 188259436.207                                   188259436.207  
  36153245.384  
                 204443046.585                                   204443046.585  
  39261137.558  
                 200782701.610                                   200782701.610  
  38558206.772  
                 189290638.578                                   189290638.578  
  36351276.937  
                 207313428.301                                   207313428.301  
  39812364.359  
                 187650424.698                                   187650424.698  
  36036291.182  
                 192403737.594                                   192403737.594  
  36949114.942  
                 207669153.339                                   207669153.339  
  39880677.348  
                 185531706.115                                   185531706.115  
  35629413.386  
                 192271628.123                                   192271628.123  
  36923744.664  
 24  6 29 13  7 26.0000000  0 27G10G23G31G32R02R12R13E07E08E13E26E27
                                E30J02J04C01C02C03C04C05C06C07C08C09
                                C10C13C16
  20141099.827   105842193.135                    20141104.634    82474456.109  
  20141104.223  
  21572022.614   113361744.378                    21572027.974    88333848.869  
  21572027.832  
  21915018.474   115164200.912                    21915025.193    89738366.496  
  21915025.550  
  21840018.235   114770070.605                    21840022.488    89431241.578  
  21840022.703  
  21310204.456   113715334.570                    21310210.049    88445283.503  
  21310209.996  
  19256787.058   102866301.030                    19256791.883    80007143.245  
  19256791.829  
  20363306.042   108738919.355                    20363313.618    84574747.242  
  20363313.654  
  24869874.348   130692072.161                                                  
                
  27886647.370   146545319.799                                                  
                
  27657205.899   145339599.097                                                  
                
  25320601.118   133060659.161                                                  
                
  24376903.350   128101492.823                                                  
                
  25572585.935   134384846.973                                                  
                
  38110994.088   200274626.493                                   156058175.587  
  38111000.235  
  37879962.810   199060547.476                                   155112129.411  
  37879966.205  
                 195258081.284                                   195258081.284  
  37497261.516  
                 189860789.479                                   189860789.479  
  36460768.375  
                 188259473.630                                   188259473.630  
  36153252.568  
                 204443079.952                                   204443079.952  
  39261143.973  
                 200782707.027                                   200782707.027  
  38558207.809  
                 189291174.728                                   189291174.728  
  36351379.863  
                 207312443.070                                   207312443.070  
  39812175.144  
                 187651010.756                                   187651010.756  
  36036403.721  
                 192404235.053                                   192404235.053  
  36949210.470  
                 207668434.448                                   207668434.448  
  39880539.256  
                 185532045.681                                   185532045.681  
  35629478.590  
                 192272225.984                                   192272225.984  
  36923859.454  
 24  6 29 13  7 27.0000000  0 27G10G23G31G32R02R12R13E07E08E13E26E27
                                E30J02J04C01C02C03C04C05C06C07C08C09
                                C10C13C16
  20141131.009   105842356.936                    20141135.815    82474583.744  
  20141135.387  
  21572506.775   113364288.595                    21572512.118    88335831.376  
  21572511.975  
  21914660.825   115162321.542                    21914667.544    89736902.056  
  21914667.919  
  21839907.590   114769489.088                    21839911.825    89430788.451  
  21839912.058  
  21309785.303   113713097.820                    21309790.878    88443543.814  
  21309790.842  
  19256893.343   102866868.767                    19256898.168    80007584.816  
  19256898.114  
  20362752.102   108735961.390                    20362759.696    84572446.603  
  20362759.732  
  24869911.105   130692265.315                                                  
                
  27886843.269   146546349.241                                                  
                
  27657705.374   145342223.967                                                  
                
  25320983.891   133062670.749                                                  
                
  24376590.821   128099850.436                                                  
                
  25572745.023   134385683.032                                                  
                
  38111055.754   200274950.500                                   156058428.064  
  38111061.884  
  37879754.171   199059451.022                                   155111275.034  
  37879757.549  
                 195258117.607                                   195258117.607  
  37497268.485  
                 189860815.189                                   189860815.189  
  36460773.307  
                 188259510.893                                   188259510.893  
  36153259.715  
                 204443113.188                                   204443113.188  
  39261150.352  
                 200782712.340                                   200782712.340  
  38558208.827  
                 189291710.740                                   189291710.740  
  36351482.806  
                 207311457.574                                   207311457.574  
  39811985.875  
                 187651596.882                                   187651596.882  
  36036516.278  
                 192404732.436                                   192404732.436  
  36949305.997  
                 207667715.318                                   207667715.318  
  39880401.182  
                 185532385.324                                   185532385.324  
  35629543.812  
                 192272823.709                                   192272823.709  
  36923974.263  
 24  6 29 13  7 28.0000000  0 27G10G23G31G32R02R12R13E07E08E13E26E27
                                E30J02J04C01C02C03C04C05C06C07C08C09
                                C10C13C16
  20141162.297   105842521.379                    20141167.104    82474711.882  
  20141166.675  
  21572991.008   113366833.275                    21572996.368    88337814.246  
  21572996.207  
  21914303.266   115160442.603                    21914309.985    89735437.954  
  21914310.342  
  21839796.928   114768907.613                    21839801.180    89430335.353  
  21839801.395  
  21309366.131   113710861.088                    21309371.706    88441804.133  
  21309371.670  
  19256999.807   102867437.375                    19257004.614    80008027.064  
  19257004.560  
  20362198.305   108733004.038                    20362205.864    84570146.441  
  20362205.918  
  24869947.862   130692458.463                                                  
                
  27887039.202   146547378.737                                                  
                
  27658204.849   145344848.702                                                  
                
  25321366.735   133064682.551                                                  
                
  24376278.327   128098208.386                                                  
                
  25572904.218   134386519.523                                                  
                
  38111117.420   200275274.590                                   156058680.601  
  38111123.567  
  37879545.515   199058354.586                                   155110420.668  
  37879548.892  
                 195258153.969                                   195258153.969  
  37497275.508  
                 189860840.932                                   189860840.932  
  36460778.274  
                 188259548.174                                   188259548.174  
  36153266.863  
                 204443146.398                                   204443146.398  
  39261156.731  
                 200782717.664                                   200782717.664  
  38558209.864  
                 189292246.776                                   189292246.776  
  36351585.750  
                 207310471.979                                   207310471.979  
  39811796.606  
                 187652183.216                                   187652183.216  
  36036628.870  
                 192405229.848                                   192405229.848  
  36949401.507  
                 207666996.032                                   207666996.032  
  39880263.054  
                 185532725.175                                   185532725.175  
  35629609.087  
                 192273421.424                                   192273421.424  
  36924089.036  
 24  6 29 13  7 29.0000000  0 27G10G23G31G32R02R12R13E07E08E13E26E27
                                E30J02J04C01C02C03C04C05C06C07C08C09
                                C10C13C16
  20141193.765   105842686.671                    20141198.554    82474840.678  
  20141198.143  
  21573475.383   113369378.630                    21573480.708    88339797.635  
  21573480.583  
  21913945.832   115158564.280                    21913952.551    89733974.331  
  21913952.926  
  21839686.318   114768326.334                    21839690.553    89429882.415  
  21839690.768  
  21308947.013   113708624.561                    21308952.588    88440064.615  
  21308952.553  
  19257106.431   102868007.046                    19257111.274    80008470.139  
  19257111.202  
  20361644.634   108730047.522                    20361652.210    84567846.930  
  20361652.246  
  24869984.672   130692651.797                                                  
                
  27887235.136   146548408.449                                                  
                
  27658704.324   145347473.475                                                  
                
  25321749.632   133066694.729                                                  
                
  24375965.977   128096566.891                                                  
                
  25573063.502   134387356.648                                                  
                
  38111179.140   200275598.937                                   156058933.347  
  38111185.287  
  37879336.912   199057258.335                                   155109566.444  
  37879340.289  
                 195258190.514                                   195258190.514  
  37497282.513  
                 189860866.855                                   189860866.855  
  36460783.242  
                 188259585.658                                   188259585.658  
  36153274.064  
                 204443179.817                                   204443179.817  
  39261163.146  
                 200782723.139                                   200782723.139  
  38558210.900  
                 189292782.987                                   189292782.987  
  36351688.711  
                 207309486.497                                   207309486.497  
  39811607.356  
                 187652769.947                                   187652769.947  
  36036741.552  
                 192405727.472                                   192405727.472  
  36949497.071  
                 207666276.847                                   207666276.847  
  39880124.927  
                 185533065.408                                   185533065.408  
  35629674.416  
                 192274019.338                                   192274019.338  
  36924203.862  
 24  6 29 13  7 30.0000000  0 27G10G23G31G32R02R12R13E07E08E13E26E27
                                E30J02J04C01C02C03C04C05C06C07C08C09
                                C10C13C16
  20141225.321   105842852.549                    20141230.128    82474969.932  
  20141229.699  
  21573959.830   113371924.417                    21573965.155    88341781.374  
  21573965.030  
  21913588.487   115156686.356                    21913595.188    89732511.016  
  21913595.564  
  21839575.709   114767745.078                    21839579.926    89429429.491  
  21839580.141  
  21308527.859   113706387.996                    21308533.435    88438325.064  
  21308533.399  
  19257213.234   102868577.560                    19257218.077    80008913.872  
  19257217.988  
  20361091.069   108727091.614                    20361098.646    84565547.895  
  20361098.699  
  24870021.446   130692845.086                                                  
                
  27887431.088   146549438.180                                                  
                
  27659203.763   145350098.066                                                  
                
  25322132.565   133068707.106                                                  
                
  24375653.662   128094925.701                                                  
                
  25573222.876   134388194.166                                                  
                
  38111240.860   200275923.296                                   156059186.096  
  38111247.007  
  37879128.309   199056162.060                                   155108712.202  
  37879131.686  
                 195258227.033                                   195258227.033  
  37497289.517  
                 189860892.760                                   189860892.760  
  36460788.192  
                 188259623.104                                   188259623.104  
  36153281.247  
                 204443213.215                                   204443213.215  
  39261169.579  
                 200782728.620                                   200782728.620  
  38558211.936  
                 189293319.197                                   189293319.197  
  36351791.690  
                 207308500.859                                   207308500.859  
  39811418.087  
                 187653356.874                                   187653356.874  
  36036854.270  
                 192406225.111                                   192406225.111  
  36949592.652  
                 207665557.496                                   207665557.496  
  39879986.764  
                 185533405.812                                   185533405.812  
  35629739.781  
                 192274617.222                                   192274617.222  
  36924318.688  
 24  6 29 13  7 31.0000000  0 27G10G23G31G32R02R12R13E07E08E13E26E27
                                E30J02J04C01C02C03C04C05C06C07C08C09
                                C10C13C16
  20141257.003   105843018.971                    20141261.792    82475099.608  
  20141261.381  
  21574444.331   113374470.555                    21574449.692    88343765.378  
  21574449.531  
  21913231.178   115154808.755                    21913237.897    89731047.955  
  21913238.255  
  21839465.100   114767163.726                    21839469.317    89428976.491  
  21839469.531  
  21308108.724   113704151.327                    21308114.299    88436585.437  
  21308114.263  
  19257320.180   102869148.865                    19257325.023    80009358.223  
  19257324.934  
  20360537.630   108724136.273                    20360545.206    84563249.301  
  20360545.242  
  24870058.203   130693038.249                                                  
                
  27887627.040   146550467.837                                                  
                
  27659703.149   145352722.376                                                  
                
  25322515.516   133070719.542                                                  
                
  24375341.383   128093284.740                                                  
                
  25573382.303   134389032.007                                                  
                
  38111302.579   200276247.638                                   156059438.832  
  38111308.726  
  37878919.670   199055065.665                                   155107857.868  
  37878923.047  
                 195258263.438                                   195258263.438  
  37497296.504  
                 189860918.587                                   189860918.587  
  36460793.159  
                 188259660.463                                   188259660.463  
  36153288.449  
                 204443246.512                                   204443246.512  
  39261175.958  
                 200782734.005                                   200782734.005  
  38558212.973  
                 189293855.295                                   189293855.295  
  36351894.651  
                 207307514.993                                   207307514.993  
  39811228.747  
                 187653943.895                                   187653943.895  
  36036967.006  
                 192406722.675                                   192406722.675  
  36949688.198  
                 207664837.945                                   207664837.945  
  39879848.600  
                 185533746.297                                   185533746.297  
  35629805.182  
                 192275214.973                                   192275214.973  
  36924433.479  
 24  6 29 13  7 32.0000000  0 27G10G23G31G32R02R12R13E07E08E13E26E27
                                E30J02J04C01C02C03C04C05C06C07C08C09
                                C10C13C16
  20141288.774   105843185.964                    20141293.581    82475229.731  
  20141293.134  
  21574928.939   113377017.117                    21574934.282    88345749.707  
  21574934.139  
  21912873.941   115152931.509                    21912880.660    89729585.170  
  21912881.035  
  21839354.455   114766582.350                    21839358.672    89428523.476  
  21839358.904  
  21307689.552   113701914.643                    21307695.127    88434845.796  
  21307695.092  
  19257427.287   102869720.987                    19257432.112    80009803.209  
  19257432.041  
  20359984.298   108721181.504                    20359991.874    84560951.152  
  20359991.910  
  24870094.942   130693231.353                                                  
                
  27887822.973   146551497.490                                                  
                
  27660202.481   145355346.471                                                  
                
  25322898.521   133072732.154                                                  
                
  24375029.175   128091644.057                                                  
                
  25573541.820   134389870.229                                                  
                
  38111364.299   200276571.974                                   156059691.566  
  38111370.446  
  37878711.014   199053969.229                                   155107003.504  
  37878714.391  
                 195258299.782                                   195258299.782  
  37497303.473  
                 189860944.347                                   189860944.347  
  36460798.091  
                 188259697.756                                   188259697.756  
  36153295.578  
                 204443279.725                                   204443279.725  
  39261182.320  
                 200782739.332                                   200782739.332  
  38558214.009  
                 189294391.354                                   189294391.354  
  36351997.613  
                 207306528.976                                   207306528.976  
  39811039.389  
                 187654531.085                                   187654531.085  
  36037079.777  
                 192407220.209                                   192407220.209  
  36949783.761  
                 207664118.201                                   207664118.201  
  39879710.366  
                 185534086.969                                   185534086.969  
  35629870.583  
                 192275812.656                                   192275812.656  
  36924548.252  
 24  6 29 13  7 33.0000000  0 27G10G23G31G32R02R12R13E07E08E13E26E27
                                E30J02J04C01C02C03C04C05C06C07C08C09
                                C10C13C16
  20141320.653   105843353.466                    20141325.459    82475360.249  
  20141325.031  
  21575413.583   113379564.013                    21575418.943    88347734.304  
  21575418.800  
  21912516.775   115151054.571                    21912523.494    89728122.626  
  21912523.851  
  21839243.810   114766000.860                    21839248.009    89428070.369  
  21839248.223  
  21307270.381   113699677.848                    21307275.974    88433106.072  
  21307275.920  
  19257534.519   102870293.816                    19257539.362    80010248.745  
  19257539.273  
  20359431.055   108718227.215                    20359438.613    84558653.374  
  20359438.667  
  24870131.662   130693424.311                                                  
                
  27888018.907   146552527.030                                                  
                
  27660701.777   145357970.288                                                  
                
  25323281.508   133074744.813                                                  
                
  24374717.003   128090003.586                                                  
                
  25573701.373   134390708.742                                                  
                
  38111426.001   200276896.239                                   156059944.245  
  38111432.148  
  37878502.357   199052872.649                                   155106149.024  
  37878505.734  
                 195258336.001                                   195258336.001  
  37497310.424  
                 189860969.993                                   189860969.993  
  36460803.023  
                 188259734.917                                   188259734.917  
  36153302.726  
                 204443312.833                                   204443312.833  
  39261188.681  
                 200782744.517                                   200782744.517  
  38558215.010  
                 189294927.268                                   189294927.268  
  36352100.521  
                 207305542.736                                   207305542.736  
  39810849.977  
                 187655118.318                                   187655118.318  
  36037192.549  
                 192407717.653                                   192407717.653  
  36949879.289  
                 207663398.188                                   207663398.188  
  39879572.077  
                 185534427.681                                   185534427.681  
  35629936.019  
                 192276410.215                                   192276410.215  
  36924663.024  
 24  6 29 13  7 34.0000000  0 28G10G23G25G31G32R02R12R13E07E08E13E26
                                E27E30J02J04C01C02C03C04C05C06C07C08
                                C09C10C13C16
  20141352.656   105843521.651                    20141357.463    82475491.300  
  20141357.034  
  21575898.351   113382111.395                    21575903.694    88349719.271  
  21575903.551  
  21343340.111   112160009.573                    21343345.597    87397433.053  
  21343346.062  
  21912159.698   115149178.109                    21912166.399    89726660.454  
  21912166.756  
  21839133.147   114765419.443                    21839137.364    89427617.312  
  21839137.596  
  21306851.227   113697441.122                    21306856.802    88431366.394  
  21306856.766  
  19257641.930   102870867.543                    19257646.737    80010694.979  
  19257646.683  
  20358877.937   108715273.606                    20358885.514    84556356.123  
  20358885.549  
  24870168.383   130693617.307                                                  
                
  27888214.823   146553556.640                                                  
                
  27661201.055   145360593.972                                                  
                
  25323664.548   133076757.715                                                  
                
  24374404.921   128088363.514                                                  
                
  25573861.050   134391547.742                                                  
                
  38111487.720   200277220.604                                   156060196.997  
  38111493.867  
  37878293.683   199051776.137                                   155105294.599  
  37878297.060  
                 195258372.282                                   195258372.282  
  37497317.411  
                 189860995.643                                   189860995.643  
  36460807.937  
                 188259772.145                                   188259772.145  
  36153309.874  
                 204443345.987                                   204443345.987  
  39261195.060  
                 200782749.780                                   200782749.780  
  38558216.010  
                 189295463.217                                   189295463.217  
  36352203.428  
                 207304556.414                                   207304556.414  
  39810660.565  
                 187655705.857                                   187655705.857  
  36037305.392  
                 192408215.155                                   192408215.155  
  36949974.799  
                 207662678.160                                   207662678.160  
  39879433.825  
                 185534768.638                                   185534768.638  
  35630001.491  
                 192277007.794                                   192277007.794  
  36924777.761  
 24  6 29 13  7 35.0000000  0 28G10G23G25G31G32R02R12R13E07E08E13E26
                                E27E30J02J04C01C02C03C04C05C06C07C08
                                C09C10C13C16
  20141384.785   105843690.458                    20141389.591    82475622.836  
  20141389.162  
  21576383.174   113384659.248                    21576388.534    88351704.610  
  21576388.391  
  21343503.506   112160868.210                    21343508.991    87398102.121  
  21343509.474  
  21911802.693   115147302.063                    21911809.394    89725198.605  
  21911809.751  
  21839022.520   114764838.061                    21839026.737    89427164.294  
  21839026.951  
  21306432.055   113695204.375                    21306437.613    88429626.706  
  21306437.577  
  19257749.484   102871442.135                    19257754.308    80011141.884  
  19257754.255  
  20358324.944   108712320.594                    20358332.503    84554059.338  
  20358332.539  
  24870205.122   130693810.279                                                  
                
  27888410.775   146554586.303                                                  
                
  27661700.298   145363217.487                                                  
                
  25324047.606   133078770.820                                                  
                
  24374092.874   128086723.768                                                  
                
  25574020.782   134392387.152                                                  
                
  38111549.458   200277545.049                                   156060449.815  
  38111555.605  
  37878085.026   199050679.598                                   155104440.153  
  37878088.403  
                 195258408.565                                   195258408.565  
  37497324.398  
                 189861021.336                                   189861021.336  
  36460812.904  
                 188259809.350                                   188259809.350  
  36153317.021  
                 204443379.104                                   204443379.104  
  39261201.404  
                 200782755.023                                   200782755.023  
  38558217.029  
                 189295999.180                                   189295999.180  
  36352306.372  
                 207303570.008                                   207303570.008  
  39810471.136  
                 187656293.570                                   187656293.570  
  36037418.252  
                 192408712.707                                   192408712.707  
  36950070.363  
                 207661957.922                                   207661957.922  
  39879295.500  
                 185535109.804                                   185535109.804  
  35630067.017  
                 192277605.379                                   192277605.379  
  36924892.534  
 24  6 29 13  7 36.0000000  0 28G10G23G25G31G32R02R12R13E07E08E13E26
                                E27E30J02J04C01C02C03C04C05C06C07C08
                                C09C10C13C16
  20141417.020   105843859.866                    20141421.827    82475754.840  
  20141421.398  
  21576868.103   113387207.532                    21576873.464    88353690.288  
  21576873.303  
  21343667.007   112161727.469                    21343672.511    87398771.678  
  21343672.975  
  21911445.759   115145426.399                    21911452.460    89723737.058  
  21911452.818  
  21838911.875   114764256.644                    21838916.074    89426711.242  
  21838916.306  
  21306012.866   113692967.575                    21306018.441    88427886.975  
  21306018.405  
  19257857.198   102872017.568                    19257862.041    80011589.446  
  19257861.969  
  20357772.023   108709368.175                    20357779.600    84551763.007  
  20357779.653  
  24870241.807   130694003.195                                                  
                
  27888606.727   146555615.957                                                  
                
  27662199.469   145365840.798                                                  
                
  25324430.736   133080784.081                                                  
                
  24373780.881   128085084.318                                                  
                
  25574180.584   134393226.953                                                  
                
  38111611.195   200277869.490                                   156060702.631  
  38111617.324  
  37877876.352   199049583.036                                   155103585.689  
  37877879.729  
                 195258444.770                                   195258444.770  
  37497331.331  
                 189861046.959                                   189861046.959  
  36460817.801  
                 188259846.526                                   188259846.526  
  36153324.151  
                 204443412.188                                   204443412.188  
  39261207.765  
                 200782760.225                                   200782760.225  
  38558218.030  
                 189296535.091                                   189296535.091  
  36352409.279  
                 207302583.410                                   207302583.410  
  39810281.689  
                 187656881.437                                   187656881.437  
  36037531.131  
                 192409210.247                                   192409210.247  
  36950165.908  
                 207661237.551                                   207661237.551  
  39879157.159  
                 185535451.144                                   185535451.144  
  35630132.578  
                 192278202.906                                   192278202.906  
  36925007.271  
 24  6 29 13  7 37.0000000  0 28G10G23G25G31G32R02R12R13E07E08E13E26
                                E27E30J02J04C01C02C03C04C05C06C07C08
                                C09C10C13C16
  20141449.363   105844029.877                    20141454.188    82475887.314  
  20141453.741  
  21577353.122   113389756.235                    21577358.447    88355676.291  
  21577358.322  
  21343830.634   112162587.354                    21343836.138    87399441.722  
  21343836.584  
  21911088.915   115143551.108                    21911095.616    89722275.792  
  21911095.973  
  21838801.248   114763675.227                    21838805.447    89426258.192  
  21838805.661  
  21305593.694   113690730.786                    21305599.270    88426147.255  
  21305599.216  
  19257965.091   102872593.848                    19257969.916    80012037.661  
  19257969.845  
  20357219.263   108706416.319                    20357226.822    84549467.120  
  20357226.857  
  24870278.510   130694196.059                                                  
                
  27888802.661   146556645.610                                                  
                
  27662698.640   145368463.937                                                  
                
  25324813.866   133082797.500                                                  
                
  24373468.959   128083445.182                                                  
                
  25574340.476   134394067.151                                                  
                
  38111672.933   200278193.961                                   156060955.468  
  38111679.080  
  37877667.677   199048486.406                                   155102731.170  
  37877671.054  
                 195258480.974                                   195258480.974  
  37497338.282  
                 189861072.571                                   189861072.571  
  36460822.750  
                 188259883.658                                   188259883.658  
  36153331.281  
                 204443445.273                                   204443445.273  
  39261214.109  
                 200782765.395                                   200782765.395  
  38558219.030  
                 189297070.979                                   189297070.979  
  36352512.187  
                 207301596.651                                   207301596.651  
  39810092.170  
                 187657469.461                                   187657469.461  
  36037644.045  
                 192409707.764                                   192409707.764  
  36950261.454  
                 207660517.008                                   207660517.008  
  39879018.781  
                 185535792.627                                   185535792.627  
  35630198.140  
                 192278800.377                                   192278800.377  
  36925122.008  
 24  6 29 13  7 38.0000000  0 28G10G23G25G31G32R02R12R13E07E08E13E26
                                E27E30J02J04C01C02C03C04C05C06C07C08
                                C09C10C13C16
  20141481.867   105844200.641                    20141486.674    82476020.372  
  20141486.245  
  21577838.230   113392305.528                    21577843.591    88357662.753  
  21577843.430  
  21343994.403   112163448.039                    21343999.907    87400112.384  
  21344000.372  
  21910732.160   115141676.388                    21910738.861    89720814.978  
  21910739.218  
  21838690.638   114763093.954                    21838694.838    89425805.256  
  21838695.052  
  21305174.559   113688494.170                    21305180.116    88424407.667  
  21305180.080  
  19258073.145   102873171.113                    19258077.988    80012486.649  
  19258077.916  
  20356666.610   108703465.272                    20356674.186    84547171.863  
  20356674.222  
  24870315.249   130694389.040                                                  
                
  27888998.612   146557675.405                                                  
                
  27663197.794   145371087.043                                                  
                
  25325197.067   133084811.244                                                  
                
  24373157.145   128081806.513                                                  
                
  25574500.440   134394907.911                                                  
                
  38111734.724   200278518.634                                   156061208.465  
  38111740.853  
  37877459.021   199047389.926                                   155101876.772  
  37877462.398  
                 195258517.295                                   195258517.295  
  37497345.251  
                 189861098.296                                   189861098.296  
  36460827.682  
                 188259920.927                                   188259920.927  
  36153338.464  
                 204443478.456                                   204443478.456  
  39261220.488  
                 200782770.687                                   200782770.687  
  38558220.013  
                 189297606.986                                   189297606.986  
  36352615.113  
                 207300609.957                                   207300609.957  
  39809902.687  
                 187658057.831                                   187658057.831  
  36037757.049  
                 192410205.449                                   192410205.449  
  36950357.018  
                 207659796.494                                   207659796.494  
  39878880.403  
                 185536134.418                                   185536134.418  
  35630263.773  
                 192279397.994                                   192279397.994  
  36925236.781  
 24  6 29 13  7 39.0000000  0 28G10G23G25G31G32R02R12R13E07E08E13E26
                                E27E30J02J04C01C02C03C04C05C06C07C08
                                C09C10C13C16
  20141514.496   105844372.107                    20141519.303    82476153.982  
  20141518.874  
  21578323.446   113394855.362                    21578328.789    88359649.638  
  21578328.646  
  21344158.334   112164309.441                    21344163.838    87400783.608  
  21344164.302  
  21910375.494   115139802.162                    21910382.213    89719354.540  
  21910382.570  
  21838580.029   114762512.769                    21838584.246    89425352.385  
  21838584.461  
  21304755.423   113686257.659                    21304761.016    88422668.161  
  21304760.962  
  19258181.378   102873749.287                    19258186.221    80012936.341  
  19258186.167  
  20356114.100   108700514.901                    20356121.658    84544877.137  
  20356121.712  
  24870351.970   130694582.068                                                  
                
  27889194.618   146558705.332                                                  
                
  27663696.911   145373710.026                                                  
                
  25325580.304   133086825.262                                                  
                
  24372845.384   128080168.245                                                  
                
  25574660.528   134395749.170                                                  
                
  38111796.515   200278843.422                                   156061461.548  
  38111802.662  
  37877250.382   199046293.501                                   155101022.413  
  37877253.759  
                 195258553.683                                   195258553.683  
  37497352.255  
                 189861124.111                                   189861124.111  
  36460832.632  
                 188259958.260                                   188259958.260  
  36153345.630  
                 204443511.721                                   204443511.721  
  39261226.885  
                 200782776.066                                   200782776.066  
  38558221.067  
                 189298143.074                                   189298143.074  
  36352718.074  
                 207299623.208                                   207299623.208  
  39809713.186  
                 187658646.498                                   187658646.498  
  36037870.106  
                 192410703.251                                   192410703.251  
  36950452.635  
                 207659075.919                                   207659075.919  
  39878742.043  
                 185536476.480                                   185536476.480  
  35630329.459  
                 192279995.649                                   192279995.649  
  36925351.554  
 24  6 29 13  7 40.0000000  0 28G10G23G25G31G32R02R12R13E07E08E13E26
                                E27E30J02J04C01C02C03C04C05C06C07C08
                                C09C10C13C16
  20141547.250   105844544.197                    20141552.056    82476288.076  
  20141551.628  
  21578808.733   113397405.632                    21578814.093    88361636.860  
  21578813.932  
  21344322.372   112165171.476                    21344327.875    87401455.324  
  21344328.340  
  21910018.918   115137928.317                    21910025.619    89717894.408  
  21910025.976  
  21838469.438   114761931.592                    21838473.637    89424899.523  
  21838473.869  
  21304336.305   113684021.132                    21304341.880    88420928.640  
  21304341.844  
  19258289.772   102874328.315                    19258294.614    80013386.698  
  19258294.543  
  20355561.714   108697565.160                    20355569.273    84542582.896  
  20355569.327  
  24870388.708   130694775.058                                                  
                
  27889390.605   146559735.250                                                  
                
  27664196.029   145376332.845                                                  
                
  25325963.594   133088839.438                                                  
                
  24372533.695   128078530.286                                                  
                
  25574820.706   134396590.808                                                  
                
  38111858.342   200279168.242                                   156061714.657  
  38111864.453  
  37877041.725   199045197.057                                   155100168.041  
  37877045.120  
                 195258590.036                                   195258590.036  
  37497359.224  
                 189861149.880                                   189861149.880  
  36460837.582  
                 188259995.558                                   188259995.558  
  36153352.777  
                 204443544.943                                   204443544.943  
  39261233.246  
                 200782781.402                                   200782781.402  
  38558222.068  
                 189298679.128                                   189298679.128  
  36352821.017  
                 207298636.287                                   207298636.287  
  39809523.649  
                 187659235.345                                   187659235.345  
  36037983.182  
                 192411201.036                                   192411201.036  
  36950548.216  
                 207658355.207                                   207658355.207  
  39878603.630  
                 185536818.756                                   185536818.756  
  35630395.199  
                 192280593.257                                   192280593.257  
  36925466.326  
 24  6 29 13  7 41.0000000  0 28G10G23G25G31G32R02R12R13E07E08E13E26
                                E27E30J02J04C01C02C03C04C05C06C07C08
                                C09C10C13C16
  20141580.111   105844716.875                    20141584.918    82476422.630  
  20141584.489  
  21579294.127   113399956.322                    21579299.470    88363624.410  
  21579299.327  
  21344486.534   112166034.148                    21344492.038    87402127.536  
  21344492.502  
  21909662.413   115136054.851                    21909669.114    89716434.568  
  21909669.471  
  21838358.846   114761350.404                    21838363.046    89424446.653  
  21838363.260  
  21303917.187   113681784.552                    21303922.744    88419189.078  
  21303922.691  
  19258398.326   102874908.207                    19258403.150    80013837.728  
  19258403.097  
  20355009.419   108694616.006                    20355016.995    84540289.114  
  20355017.031  
  24870425.411   130694968.001                                                  
                
  27889586.592   146560765.180                                                  
                
  27664695.093   145378955.467                                                  
                
  25326346.921   133090853.781                                                  
                
  24372222.041   128076892.629                                                  
                
  25574980.938   134397432.854                                                  
                
  38111920.133   200279493.094                                   156061967.791  
  38111926.280  
  37876833.087   199044100.568                                   155099313.634  
  37876836.464  
                 195258626.366                                   195258626.366  
  37497366.193  
                 189861175.602                                   189861175.602  
  36460842.513  
                 188260032.824                                   188260032.824  
  36153359.925  
                 204443578.129                                   204443578.129  
  39261239.626  
                 200782786.712                                   200782786.712  
  38558223.104  
                 189299215.143                                   189299215.143  
  36352923.961  
                 207297649.264                                   207297649.264  
  39809334.112  
                 187659824.334                                   187659824.334  
  36038096.275  
                 192411698.823                                   192411698.823  
  36950643.798  
                 207657634.313                                   207657634.313  
  39878465.198  
                 185537161.167                                   185537161.167  
  35630460.957  
                 192281190.842                                   192281190.842  
  36925581.081  
 24  6 29 13  7 42.0000000  0 28G10G23G25G31G32R02R12R13E07E08E13E26
                                E27E30J02J04C01C02C03C04C05C06C07C08
                                C09C10C13C16
  20141613.151   105844890.477                    20141617.940    82476557.900  
  20141617.529  
  21579779.628   113402507.766                    21579784.989    88365612.547  
  21579784.864  
  21344650.876   112166897.765                    21344656.379    87402800.487  
  21344656.844  
  21909306.033   115134182.115                    21909312.734    89714975.303  
  21909313.091  
  21838248.309   114760769.533                    21838252.490    89423994.029  
  21838252.704  
  21303498.087   113679548.247                    21303503.644    88417449.731  
  21303503.608  
  19258507.095   102875489.251                    19258511.919    80014289.653  
  19258511.866  
  20354457.320   108691667.788                    20354464.878    84537996.058  
  20354464.932  
  24870462.186   130695161.223                                                  
                
  27889782.651   146561795.432                                                  
                
  27665194.174   145381578.201                                                  
                
  25326730.318   133092868.606                                                  
                
  24371910.530   128075255.609                                                  
                
  25575141.312   134398275.637                                                  
                
  38111982.031   200279818.304                                   156062221.204  
  38111988.160  
  37876624.484   199043004.372                                   155098459.455  
  37876627.861  
                 195258662.989                                   195258662.989  
  37497373.234  
                 189861201.638                                   189861201.638  
  36460847.535  
                 188260070.372                                   188260070.372  
  36153367.144  
                 204443611.612                                   204443611.612  
  39261246.058  
                 200782792.309                                   200782792.309  
  38558224.177  
                 189299751.462                                   189299751.462  
  36353026.958  
                 207296662.422                                   207296662.422  
  39809144.611  
                 187660413.841                                   187660413.841  
  36038209.511  
                 192412196.924                                   192412196.924  
  36950739.468  
                 207656913.598                                   207656913.598  
  39878326.767  
                 185537504.069                                   185537504.069  
  35630526.805  
                 192281788.706                                   192281788.706  
  36925695.908  
 24  6 29 13  7 43.0000000  0 28G10G23G25G31G32R02R12R13E07E08E13E26
                                E27E30J02J04C01C02C03C04C05C06C07C08
                                C09C10C13C16
  20141646.298   105845064.678                    20141651.104    82476693.643  
  20141650.676  
  21580265.237   113405059.630                    21580270.597    88367601.012  
  21580270.437  
  21344815.342   112167761.995                    21344820.828    87403473.913  
  21344821.310  
  21908949.725   115132309.770                    21908956.426    89713516.340  
  21908956.783  
  21838137.753   114760188.639                    21838141.952    89423541.386  
  21838142.185  
  21303078.987   113677311.881                    21303084.562    88415710.336  
  21303084.526  
  19258616.024   102876071.110                    19258620.849    80014742.210  
  19258620.777  
  20353905.310   108688720.158                    20353912.868    84535703.462  
  20353912.940  
  24870498.942   130695354.388                                                  
                
  27889978.692   146562825.676                                                  
                
  27665693.203   145384200.732                                                  
                
  25327113.770   133094883.607                                                  
                
  24371599.055   128073618.891                                                  
                
  25575301.758   134399118.786                                                  
                
  38112043.911   200280143.517                                   156062474.621  
  38112050.041  
  37876415.881   199041908.144                                   155097605.252  
  37876419.258  
                 195258699.566                                   195258699.566  
  37497380.256  
                 189861227.622                                   189861227.622  
  36460852.502  
                 188260107.897                                   188260107.897  
  36153374.345  
                 204443645.054                                   204443645.054  
  39261252.438  
                 200782797.863                                   200782797.863  
  38558225.231  
                 189300287.739                                   189300287.739  
  36353129.937  
                 207295675.422                                   207295675.422  
  39808955.074  
                 187661003.500                                   187661003.500  
  36038322.747  
                 192412695.022                                   192412695.022  
  36950835.121  
                 207656192.712                                   207656192.712  
  39878188.336  
                 185537847.119                                   185537847.119  
  35630592.688  
                 192282386.514                                   192282386.514  
  36925810.698  
 24  6 29 13  7 44.0000000  0 28G10G23G25G31G32R02R12R13E07E08E13E26
                                E27E30J02J04C01C02C03C04C05C06C07C08
                                C09C10C13C16
  20141679.570   105845239.524                    20141684.377    82476829.882  
  20141683.948  
  21580750.952   113407611.972                    21580756.295    88369589.848  
  21580756.152  
  21344979.916   112168626.895                    21344985.402    87404147.861  
  21344985.884  
  21908593.524   115130437.853                    21908600.189    89712057.708  
  21908600.582  
  21838027.215   114759607.773                    21838031.414    89423088.768  
  21838031.647  
  21302659.905   113675075.560                    21302665.480    88413970.982  
  21302665.444  
  19258725.115   102876653.830                    19258729.939    80015195.439  
  19258729.868  
  20353353.443   108685773.180                    20353361.001    84533411.371  
  20353361.037  
  24870535.699   130695547.543                                                  
                
  27890174.787   146563855.976                                                  
                
  27666192.249   145386823.140                                                  
                
  25327497.221   133096898.798                                                  
                
  24371287.688   128071982.531                                                  
                
  25575462.293   134399962.396                                                  
                
  38112105.810   200280468.822                                   156062728.105  
  38112111.939  
  37876207.278   199040811.917                                   155096751.051  
  37876210.655  
                 195258736.163                                   195258736.163  
  37497387.297  
                 189861253.641                                   189861253.641  
  36460857.488  
                 188260145.424                                   188260145.424  
  36153381.546  
                 204443678.534                                   204443678.534  
  39261258.888  
                 200782803.449                                   200782803.449  
  38558226.303  
                 189300824.019                                   189300824.019  
  36353232.934  
                 207294688.318                                   207294688.318  
  39808765.484  
                 187661593.385                                   187661593.385  
  36038436.018  
                 192413193.179                                   192413193.179  
  36950930.792  
                 207655471.724                                   207655471.724  
  39878049.851  
                 185538190.384                                   185538190.384  
  35630658.606  
                 192282984.326                                   192282984.326  
  36925925.507  
 24  6 29 13  7 45.0000000  0 28G10G23G25G31G32R02R12R13E07E08E13E26
                                E27E30J02J04C01C02C03C04C05C06C07C08
                                C09C10C13C16
  20141712.967   105845415.065                    20141717.792    82476966.665  
  20141717.345  
  21581236.740   113410164.834                    21581242.083    88371579.093  
  21581241.940  
  21345144.650   112169492.504                    21345150.118    87404822.366  
  21345150.583  
  21908237.376   115128566.411                    21908244.077    89710599.448  
  21908244.452  
  21837916.713   114759026.993                    21837920.912    89422636.212  
  21837921.127  
  21302240.840   113672839.350                    21302246.415    88412231.705  
  21302246.380  
  19258834.366   102877237.478                    19258839.190    80015649.387  
  19258839.137  
  20352801.701   108682826.895                    20352809.260    84531119.815  
  20352809.295  
  24870572.455   130695740.747                                                  
                
  27890370.846   146564886.355                                                  
                
  27666691.241   145389445.440                                                  
                
  25327880.744   133098914.256                                                  
                
  24370976.356   128070346.558                                                  
                
  25575622.900   134400806.469                                                  
                
  38112167.726   200280794.237                                   156062981.680  
  38112173.855  
  37875998.693   199039715.736                                   155095896.882  
  37876002.052  
                 195258772.787                                   195258772.787  
  37497394.301  
                 189861279.694                                   189861279.694  
  36460862.491  
                 188260183.019                                   188260183.019  
  36153388.765  
                 204443712.026                                   204443712.026  
  39261265.321  
                 200782809.087                                   200782809.087  
  38558227.411  
                 189301360.352                                   189301360.352  
  36353335.913  
                 207293701.147                                   207293701.147  
  39808575.912  
                 187662183.514                                   187662183.514  
  36038549.344  
                 192413691.394                                   192413691.394  
  36951026.463  
                 207654750.667                                   207654750.667  
  39877911.402  
                 185538533.923                                   185538533.923  
  35630724.579  
                 192283582.187                                   192283582.187  
  36926040.297  
 24  6 29 13  7 46.0000000  0 28G10G23G25G31G32R02R12R13E07E08E13E26
                                E27E30J02J04C01C02C03C04C05C06C07C08
                                C09C10C13C16
  20141746.507   105845591.206                    20141751.296    82477103.918  
  20141750.885  
  21581722.616   113412718.121                    21581727.977    88373568.667  
  21581727.816  
  21345309.474   112170358.747                    21345314.960    87405497.368  
  21345315.425  
  21907881.336   115126695.357                    21907888.037    89709141.489  
  21907888.394  
  21837806.193   114758446.216                    21837810.393    89422183.663  
  21837810.607  
  21301821.794   113670603.169                    21301827.351    88410492.458  
  21301827.298  
  19258943.778   102877822.009                    19258948.620    80016104.025  
  19258948.567  
  20352250.066   108679881.197                    20352257.607    84528828.719  
  20352257.661  
  24870609.212   130695933.898                                                  
                
  27890566.941   146565916.754                                                  
                
  27667190.216   145392067.531                                                  
                
  25328264.320   133100929.870                                                  
                
  24370665.095   128068710.897                                                  
                
  25575783.614   134401650.948                                                  
                
  38112229.678   200281119.670                                   156063235.267  
  38112235.789  
  37875790.090   199038619.531                                   155095042.696  
  37875793.467  
                 195258809.401                                   195258809.401  
  37497401.342  
                 189861305.728                                   189861305.728  
  36460867.494  
                 188260220.576                                   188260220.576  
  36153395.984  
                 204443745.497                                   204443745.497  
  39261271.736  
                 200782814.684                                   200782814.684  
  38558228.465  
                 189301896.658                                   189301896.658  
  36353438.910  
                 207292713.874                                   207292713.874  
  39808386.321  
                 187662773.827                                   187662773.827  
  36038662.705  
                 192414189.617                                   192414189.617  
  36951122.133  
                 207654029.458                                   207654029.458  
  39877772.881  
                 185538877.610                                   185538877.610  
  35630790.587  
                 192284180.022                                   192284180.022  
  36926155.124  
 24  6 29 13  7 47.0000000  0 28G10G23G25G31G32R02R12R13E07E08E13E26
                                E27E30J02J04C01C02C03C04C05C06C07C08
                                C09C10C13C16
  20141780.137   105845767.924                    20141784.926    82477241.616  
  20141784.515  
  21582208.564   113415271.819                    21582213.925    88375558.564  
  21582213.764  
  21345474.423   112171225.616                    21345479.909    87406172.849  
  21345480.391  
  21907525.367   115124824.696                    21907532.032    89707683.835  
  21907532.407  
  21837695.673   114757865.392                    21837699.855    89421731.075  
  21837700.069  
  21301402.712   113668366.970                    21301408.287    88408753.197  
  21301408.233  
  19259053.368   102878407.339                    19259058.193    80016559.284  
  19259058.122  
  20351698.539   108676936.071                    20351706.080    84526538.068  
  20351706.133  
  24870645.951   130696126.988                                                  
                
  27890763.017   146566947.115                                                  
                
  27667689.119   145394689.402                                                  
                
  25328647.897   133102945.640                                                  
                
  24370353.888   128067075.514                                                  
                
  25575944.382   134402495.808                                                  
                
  38112291.594   200281445.127                                   156063488.870  
  38112297.705  
  37875581.469   199037523.268                                   155094188.463  
  37875584.828  
                 195258845.963                                   195258845.963  
  37497408.364  
                 189861331.726                                   189861331.726  
  36460872.498  
                 188260258.086                                   188260258.086  
  36153403.186  
                 204443778.922                                   204443778.922  
  39261278.169  
                 200782820.232                                   200782820.232  
  38558229.519  
                 189302432.924                                   189302432.924  
  36353541.890  
                 207291726.392                                   207291726.392  
  39808196.695  
                 187663364.287                                   187663364.287  
  36038776.102  
                 192414687.814                                   192414687.814  
  36951217.804  
                 207653308.084                                   207653308.084  
  39877634.360  
                 185539221.434                                   185539221.434  
  35630856.595  
                 192284777.764                                   192284777.764  
  36926269.914  
 24  6 29 13  7 48.0000000  0 28G10G23G25G31G32R02R12R13E07E08E13E26
                                E27E30J02J04C01C02C03C04C05C06C07C08
                                C09C10C13C16
  20141813.856   105845945.217                    20141818.680    82477379.764  
  20141818.233  
  21582694.584   113417825.919                    21582699.945    88377548.769  
  21582699.802  
  21345639.515   112172093.077                    21345644.983    87406848.793  
  21345645.448  
  21907169.452   115122954.387                    21907176.135    89706226.456  
  21907176.492  
  21837585.136   114757284.544                    21837589.317    89421278.469  
  21837589.549  
  21300983.629   113666130.694                    21300989.187    88407013.874  
  21300989.169  
  19259163.084   102878993.457                    19259167.909    80017015.158  
  19259167.855  
  20351147.101   108673991.509                    20351154.659    84524247.860  
  20351154.713  
  24870682.689   130696320.004                                                  
                
  27890959.094   146567977.450                                                  
                
  27668188.022   145397311.053                                                  
                
  25329031.491   133104961.529                                                  
                
  24370042.753   128065440.428                                                  
                
  25576105.203   134403341.026                                                  
                
  38112353.528   200281770.578                                   156063742.468  
  38112359.657  
  37875372.848   199036426.944                                   155093334.184  
  37875376.207  
                 195258882.453                                   195258882.453  
  37497415.369  
                 189861357.658                                   189861357.658  
  36460877.465  
                 188260295.521                                   188260295.521  
  36153410.387  
                 204443812.283                                   204443812.283  
  39261284.584  
                 200782825.746                                   200782825.746  
  38558230.592  
                 189302969.132                                   189302969.132  
  36353644.869  
                 207290738.747                                   207290738.747  
  39808007.015  
                 187663954.894                                   187663954.894  
  36038889.516  
                 192415186.000                                   192415186.000  
  36951313.511  
                 207652586.476                                   207652586.476  
  39877495.786  
                 185539565.400                                   185539565.400  
  35630922.657  
                 192285375.448                                   192285375.448  
  36926384.705  
 24  6 29 13  7 49.0000000  0 28G10G23G25G31G32R02R12R13E07E08E13E26
                                E27E30J02J04C01C02C03C04C05C06C07C08
                                C09C10C13C16
  20141847.717   105846123.115                    20141852.524    82477518.381  
  20141852.113  
  21583180.711   113420380.450                    21583186.054    88379539.313  
  21583185.911  
  21345804.696   112172961.151                    21345810.182    87407525.215  
  21345810.629  
  21906813.590   115121084.463                    21906820.291    89704769.375  
  21906820.666  
  21837474.598   114756703.688                    21837478.779    89420825.853  
  21837479.011  
  21300564.547   113663894.365                    21300570.105    88405274.506  
  21300570.069  
  19259272.943   102879580.375                    19259277.786    80017471.650  
  19259277.714  
  20350595.770   108671047.517                    20350603.347    84521958.095  
  20350603.382  
  24870719.410   130696512.979                                                  
                
  27891155.153   146569007.802                                                  
                
  27668686.854   145399932.501                                                  
                
  25329415.139   133106977.592                                                  
                
  24369731.653   128063805.626                                                  
                
  25576266.114   134404186.631                                                  
                
  38112415.480   200282096.050                                   156063996.084  
  38112421.591  
  37875164.227   199035330.581                                   155092479.876  
  37875167.586  
                 195258918.922                                   195258918.922  
  37497422.373  
                 189861383.563                                   189861383.563  
  36460882.433  
                 188260332.929                                   188260332.929  
  36153417.552  
                 204443845.600                                   204443845.600  
  39261290.963  
                 200782831.195                                   200782831.195  
  38558231.628  
                 189303505.299                                   189303505.299  
  36353747.830  
                 207289750.951                                   207289750.951  
  39807817.318  
                 187664545.671                                   187664545.671  
  36039002.985  
                 192415684.148                                   192415684.148  
  36951409.146  
                 207651864.773                                   207651864.773  
  39877357.176  
                 185539909.540                                   185539909.540  
  35630988.737  
                 192285973.097                                   192285973.097  
  36926499.460  
 24  6 29 13  7 50.0000000  0 28G10G23G25G31G32R02R12R13E07E08E13E26
                                E27E30J02J04C01C02C03C04C05C06C07C08
                                C09C10C13C16
  20141881.668   105846301.536                    20141886.493    82477657.408  
  20141886.046  
  21583666.891   113422935.324                    21583672.234    88381530.124  
  21583672.091  
  21345969.967   112173829.777                    21345975.471    87408202.069  
  21345975.935  
  21906457.818   115119214.844                    21906464.501    89703312.538  
  21906464.858  
  21837364.042   114756122.740                    21837368.224    89420373.167  
  21837368.456  
  21300145.429   113661657.910                    21300151.004    88403535.048  
  21300150.951  
  19259382.963   102880168.065                    19259387.805    80017928.744  
  19259387.734  
  20350044.564   108668104.082                    20350052.123    84519668.757  
  20350052.176  
  24870756.113   130696705.816                                                  
                
  27891351.230   146570038.072                                                  
                
  27669185.632   145402553.685                                                  
                
  25329798.805   133108993.723                                                  
                
  24369420.607   128062171.068                                                  
                
  25576427.114   134405032.565                                                  
                
  38112477.396   200282421.477                                   156064249.664  
  38112483.507  
  37874955.553   199034234.110                                   155091625.482  
  37874958.948  
                 195258955.278                                   195258955.278  
  37497429.378  
                 189861409.361                                   189861409.361  
  36460887.418  
                 188260370.224                                   188260370.224  
  36153424.700  
                 204443878.827                                   204443878.827  
  39261297.343  
                 200782836.551                                   200782836.551  
  38558232.664  
                 189304041.376                                   189304041.376  
  36353850.791  
                 207288762.957                                   207288762.957  
  39807627.585  
                 187665136.551                                   187665136.551  
  36039116.453  
                 192416182.243                                   192416182.243  
  36951504.799  
                 207651142.829                                   207651142.829  
  39877218.548  
                 185540253.751                                   185540253.751  
  35631054.852  
                 192286570.612                                   192286570.612  
  36926614.214  
 24  6 29 13  7 51.0000000  0 28G10G23G25G31G32R02R12R13E07E08E13E26
                                E27E30J02J04C01C02C03C04C05C06C07C08
                                C09C10C13C16
  20141915.727   105846480.455                    20141920.551    82477796.821  
  20141920.105  
  21584153.143   113425490.539                    21584158.468    88383521.201  
  21584158.343  
  21346135.380   112174698.937                    21346140.884    87408879.334  
  21346141.331  
  21906102.099   115117345.532                    21906108.782    89701855.936  
  21906109.158  
  21837253.487   114755541.678                    21837257.668    89419920.389  
  21837257.882  
  21299726.294   113659421.339                    21299731.869    88401795.495  
  21299731.833  
  19259493.107   102880756.503                    19259497.950    80018386.416  
  19259497.896  
  20349493.448   108665161.101                    20349501.006    84517379.772  
  20349501.042  
  24870792.780   130696898.507                                                  
                
  27891547.253   146571068.228                                                  
                
  27669684.392   145405174.568                                                  
                
  25330182.471   133111009.924                                                  
                
  24369109.597   128060536.706                                                  
                
  25576588.131   134405878.790                                                  
                
  38112539.312   200282746.837                                   156064503.193  
  38112545.423  
  37874746.896   199033137.495                                   155090770.975  
  37874750.255  
                 195258991.506                                   195258991.506  
  37497436.329  
                 189861435.007                                   189861435.007  
  36460892.314  
                 188260407.403                                   188260407.403  
  36153431.865  
                 204443911.906                                   204443911.906  
  39261303.722  
                 200782841.762                                   200782841.762  
  38558233.647  
                 189304577.307                                   189304577.307  
  36353953.717  
                 207287774.722                                   207287774.722  
  39807437.816  
                 187665727.486                                   187665727.486  
  36039229.921  
                 192416680.234                                   192416680.234  
  36951600.451  
                 207650420.582                                   207650420.582  
  39877079.831  
                 185540598.025                                   185540598.025  
  35631120.967  
                 192287167.993                                   192287167.993  
  36926728.934  
 24  6 29 13  7 52.0000000  0 28G10G23G25G31G32R02R12R13E07E08E13E26
                                E27E30J02J04C01C02C03C04C05C06C07C08
                                C09C10C13C16
  20141949.910   105846660.114                    20141954.735    82477936.815  
  20141954.288  
  21584639.466   113428046.306                    21584644.827    88385512.712  
  21584644.666  
  21346300.919   112175568.863                    21346306.423    87409557.198  
  21346306.887  
  21905746.488   115115476.749                    21905753.171    89700399.748  
  21905753.528  
  21837142.931   114754960.740                    21837147.112    89419467.712  
  21837147.345  
  21299307.176   113657184.917                    21299312.751    88400056.058  
  21299312.715  
  19259603.466   102881345.917                    19259608.309    80018844.852  
  19259608.219  
  20348942.457   108662218.853                    20348950.015    84515091.356  
  20348950.051  
  24870829.466   130697091.283                                                  
                
  27891743.312   146572098.539                                                  
                
  27670183.098   145407795.382                                                  
                
  25330566.190   133113026.427                                                  
                
  24368798.658   128058902.791                                                  
                
  25576749.274   134406725.545                                                  
                
  38112601.228   200283072.338                                   156064756.835  
  38112607.357  
  37874538.222   199032040.994                                   155089916.559  
  37874541.617  
                 195259027.818                                   195259027.818  
  37497443.262  
                 189861460.773                                   189861460.773  
  36460897.282  
                 188260444.654                                   188260444.654  
  36153439.013  
                 204443945.061                                   204443945.061  
  39261310.065  
                 200782847.083                                   200782847.083  
  38558234.666  
                 189305113.337                                   189305113.337  
  36354056.660  
                 207286786.469                                   207286786.469  
  39807248.029  
                 187666318.703                                   187666318.703  
  36039343.461  
                 192417178.347                                   192417178.347  
  36951696.104  
                 207649698.370                                   207649698.370  
  39876941.149  
                 185540942.605                                   185540942.605  
  35631187.136  
                 192287765.470                                   192287765.470  
  36926843.671  
 24  6 29 13  7 53.0000000  0 28G10G23G25G31G32R02R12R13E07E08E13E26
                                E27E30J02J04C01C02C03C04C05C06C07C08
                                C09C10C13C16
  20141984.237   105846840.544                    20141989.061    82478077.407  
  20141988.650  
  21585125.933   113430602.666                    21585131.275    88387504.685  
  21585131.132  
  21346466.619   112176439.561                    21346472.104    87410235.666  
  21346472.569  
  21905390.966   115113608.515                    21905397.649    89698943.981  
  21905398.006  
  21837032.429   114754379.968                    21837036.610    89419015.161  
  21837036.825  
  21298888.111   113654948.664                    21298893.669    88398316.753  
  21298893.633  
  19259713.986   102881936.316                    19259718.811    80019304.055  
  19259718.739  
  20348391.608   108659277.359                    20348399.167    84512803.523  
  20348399.203  
  24870866.169   130697284.182                                                  
                
  27891939.425   146573129.009                                                  
                
  27670681.787   145410416.170                                                  
                
  25330949.981   133115043.253                                                  
                
  24368487.844   128057269.350                                                  
                
  25576910.488   134407572.870                                                  
                
  38112663.216   200283398.041                                   156065010.632  
  38112669.327  
  37874329.601   199030944.617                                   155089062.236  
  37874332.960  
                 195259064.264                                   195259064.264  
  37497450.285  
                 189861486.670                                   189861486.670  
  36460902.250  
                 188260482.072                                   188260482.072  
  36153446.214  
                 204443978.363                                   204443978.363  
  39261316.445  
                 200782852.564                                   200782852.564  
  38558235.738  
                 189305649.495                                   189305649.495  
  36354159.604  
                 207285798.254                                   207285798.254  
  39807058.242  
                 187666910.297                                   187666910.297  
  36039457.072  
                 192417676.623                                   192417676.623  
  36951791.775  
                 207648976.129                                   207648976.129  
  39876802.432  
                 185541287.513                                   185541287.513  
  35631253.377  
                 192288363.061                                   192288363.061  
  36926958.425  
 24  6 29 13  7 54.0000000  0 28G10G23G25G31G32R02R12R13E07E08E13E26
                                E27E30J02J04C01C02C03C04C05C06C07C08
                                C09C10C13C16
  20142018.724   105847021.767                    20142023.549    82478218.615  
  20142023.138  
  21585612.506   113433159.676                    21585617.867    88389497.152  
  21585617.724  
  21346632.461   112177311.092                    21346637.947    87410914.779  
  21346638.411  
  21905035.551   115111740.856                    21905042.234    89697488.635  
  21905042.591  
  21836921.945   114753799.397                    21836926.126    89418562.767  
  21836926.340  
  21298469.065   113652712.609                    21298474.622    88396577.601  
  21298474.586  
  19259824.685   102882527.749                    19259829.527    80019764.066  
  19259829.456  
  20347840.921   108656336.715                    20347848.479    84510516.356  
  20347848.515  
  24870902.907   130697477.236                                                  
                
  27892135.555   146574159.702                                                  
                
  27671180.529   145413036.997                                                  
                
  25331333.843   133117060.463                                                  
                
  24368177.102   128055636.430                                                  
                
  25577071.864   134408420.791                                                  
                
  38112725.257   200283723.991                                   156065264.619  
  38112731.368  
  37874120.998   199029848.418                                   155088208.056  
  37874124.375  
                 195259100.899                                   195259100.899  
  37497457.307  
                 189861512.741                                   189861512.741  
  36460907.235  
                 188260519.628                                   188260519.628  
  36153453.398  
                 204444011.893                                   204444011.893  
  39261322.913  
                 200782858.196                                   200782858.196  
  38558236.810  
                 189306185.837                                   189306185.837  
  36354262.619  
                 207284810.100                                   207284810.100  
  39806868.473  
                 187667502.296                                   187667502.296  
  36039570.773  
                 192418175.116                                   192418175.116  
  36951887.517  
                 207648253.975                                   207648253.975  
  39876663.751  
                 185541632.799                                   185541632.799  
  35631319.689  
                 192288960.820                                   192288960.820  
  36927073.216  
 24  6 29 13  7 55.0000000  0 28G10G23G25G31G32R02R12R13E07E08E13E26
                                E27E30J02J04C01C02C03C04C05C06C07C08
                                C09C10C13C16
  20142053.318   105847203.500                    20142058.143    82478360.224  
  20142057.696  
  21586099.151   113435716.995                    21586104.494    88391489.868  
  21586104.351  
  21346798.411   112178183.152                    21346803.896    87411594.311  
  21346804.361  
  21904680.226   115109873.505                    21904686.909    89696033.561  
  21904687.266  
  21836811.443   114753218.705                    21836815.606    89418110.280  
  21836815.838  
  21298050.000   113650476.404                    21298055.558    88394838.335  
  21298055.522  
  19259935.544   102883119.913                    19259940.369    80020224.638  
  19259940.315  
  20347290.322   108653396.560                    20347297.863    84508229.574  
  20347297.917  
  24870939.628   130697670.144                                                  
                
  27892331.667   146575190.280                                                  
                
  27671679.182   145415657.491                                                  
                
  25331717.706   133119077.723                                                  
                
  24367866.395   128054003.711                                                  
                
  25577233.257   134409269.002                                                  
                
  38112787.245   200284049.849                                   156065518.537  
  38112793.374  
  37873912.377   199028752.070                                   155087353.756  
  37873915.736  
                 195259137.389                                   195259137.389  
  37497464.312  
                 189861538.681                                   189861538.681  
  36460912.220  
                 188260557.060                                   188260557.060  
  36153460.599  
                 204444045.228                                   204444045.228  
  39261329.310  
                 200782863.704                                   200782863.704  
  38558237.882  
                 189306722.021                                   189306722.021  
  36354365.562  
                 207283821.682                                   207283821.682  
  39806678.668  
                 187668094.339                                   187668094.339  
  36039684.473  
                 192418673.500                                   192418673.500  
  36951983.224  
                 207647531.534                                   207647531.534  
  39876524.998  
                 185541978.158                                   185541978.158  
  35631386.001  
                 192289558.420                                   192289558.420  
  36927187.971  
 24  6 29 13  7 56.0000000  0 28G10G23G25G31G32R02R12R13E07E08E13E26
                                E27E30J02J04C01C02C03C04C05C06C07C08
                                C09C10C13C16
  20142088.002   105847385.753                    20142092.827    82478502.239  
  20142092.380  
  21586585.867   113438274.672                    21586591.210    88393482.863  
  21586591.067  
  21346964.467   112179055.754                    21346969.953    87412274.261  
  21346970.400  
  21904324.936   115108006.468                    21904331.619    89694578.730  
  21904331.976  
  21836700.941   114752637.933                    21836705.086    89417657.728  
  21836705.319  
  21297630.918   113648240.075                    21297636.476    88393098.975  
  21297636.440  
  19260046.547   102883712.862                    19260051.389    80020685.827  
  19260051.300  
  20346739.814   108650456.913                    20346747.354    84505943.188  
  20346747.408  
  24870976.295   130697862.919                                                  
                
  27892527.780   146576220.788                                                  
                
  27672177.800   145418277.722                                                  
                
  25332101.586   133121095.065                                                  
                
  24367555.724   128052371.207                                                  
                
  25577394.721   134410117.521                                                  
                
  38112849.250   200284375.670                                   156065772.423  
  38112855.362  
  37873703.720   199027655.616                                   155086499.377  
  37873707.098  
                 195259173.771                                   195259173.771  
  37497471.299  
                 189861564.522                                   189861564.522  
  36460917.188  
                 188260594.379                                   188260594.379  
  36153467.764  
                 204444078.475                                   204444078.475  
  39261335.689  
                 200782869.092                                   200782869.092  
  38558238.901  
                 189307258.124                                   189307258.124  
  36354468.523  
                 207282833.069                                   207282833.069  
  39806488.810  
                 187668686.481                                   187668686.481  
  36039798.192  
                 192419171.810                                   192419171.810  
  36952078.912  
                 207646808.836                                   207646808.836  
  39876386.191  
                 185542323.599                                   185542323.599  
  35631452.331  
                 192290155.914                                   192290155.914  
  36927302.708  
 24  6 29 13  7 57.0000000  0 28G10G23G25G31G32R02R12R13E07E08E13E26
                                E27E30J02J04C01C02C03C04C05C06C07C08
                                C09C10C13C16
  20142122.811   105847568.710                    20142127.636    82478644.803  
  20142127.207  
  21587072.673   113440832.875                    21587078.016    88395476.265  
  21587077.873  
  21347130.649   112179929.078                    21347136.135    87412954.777  
  21347136.582  
  21903969.735   115106139.927                    21903976.418    89693124.287  
  21903976.776  
  21836590.439   114752057.250                    21836594.602    89417205.246  
  21836594.817  
  21297211.854   113646003.846                    21297217.411    88391359.688  
  21297217.358  
  19260157.728   102884306.756                    19260162.552    80021147.747  
  19260162.481  
  20346189.448   108647517.986                    20346196.988    84503657.366  
  20346197.024  
  24871012.998   130698055.760                                                  
                
  27892723.910   146577251.410                                                  
                
  27672676.399   145420897.856                                                  
                
  25332485.538   133123112.660                                                  
                
  24367245.143   128050739.123                                                  
                
  25577556.293   134410966.545                                                  
                
  38112911.274   200284701.614                                   156066026.408  
  38112917.385  
  37873495.082   199026559.210                                   155085645.034  
  37873498.459  
                 195259210.232                                   195259210.232  
  37497478.321  
                 189861590.390                                   189861590.390  
  36460922.156  
                 188260631.781                                   188260631.781  
  36153474.948  
                 204444111.804                                   204444111.804  
  39261342.104  
                 200782874.544                                   200782874.544  
  38558239.955  
                 189307794.274                                   189307794.274  
  36354571.485  
                 207281844.368                                   207281844.368  
  39806298.951  
                 187669278.881                                   187669278.881  
  36039911.946  
                 192419670.208                                   192419670.208  
  36952174.637  
                 207646086.115                                   207646086.115  
  39876247.403  
                 185542669.301                                   185542669.301  
  35631518.732  
                 192290753.459                                   192290753.459  
  36927417.481  
 24  6 29 13  7 58.0000000  0 28G10G23G25G31G32R02R12R13E07E08E13E26
                                E27E30J02J04C01C02C03C04C05C06C07C08
                                C09C10C13C16
  20142157.745   105847752.298                    20142162.570    82478787.853  
  20142162.141  
  21587559.568   113443391.532                    21587564.929    88397470.028  
  21587564.768  
  21347296.956   112180803.083                    21347302.442    87413635.823  
  21347302.907  
  21903614.624   115104273.794                    21903621.307    89691670.159  
  21903621.665  
  21836479.937   114751476.581                    21836484.100    89416752.779  
  21836484.314  
  21296792.772   113643767.662                    21296798.329    88389620.444  
  21296798.293  
  19260269.052   102884901.495                    19260273.894    80021610.322  
  19260273.823  
  20345639.171   108644579.665                    20345646.712    84501372.010  
  20345646.783  
  24871049.701   130698248.576                                                  
                
  27892920.041   146578282.047                                                  
                
  27673174.962   145423517.834                                                  
                
  25332869.489   133125130.454                                                  
                
  24366934.651   128049107.373                                                  
                
  25577717.936   134411816.000                                                  
                
  38112973.315   200285027.596                                   156066280.426  
  38112979.426  
  37873286.461   199025462.818                                   155084790.702  
  37873289.820  
                 195259246.669                                   195259246.669  
  37497485.308  
                 189861616.266                                   189861616.266  
  36460927.105  
                 188260669.152                                   188260669.152  
  36153482.131  
                 204444145.078                                   204444145.078  
  39261348.484  
                 200782879.999                                   200782879.999  
  38558241.009  
                 189308330.426                                   189308330.426  
  36354674.446  
                 207280855.572                                   207280855.572  
  39806109.039  
                 187669871.462                                   187669871.462  
  36040025.736  
                 192420168.641                                   192420168.641  
  36952270.343  
                 207645363.252                                   207645363.252  
  39876108.614  
                 185543015.212                                   185543015.212  
  35631585.169  
                 192291350.991                                   192291350.991  
  36927532.218  
 24  6 29 13  7 59.0000000  0 28G10G23G25G31G32R02R12R13E07E08E13E26
                                E27E30J02J04C01C02C03C04C05C06C07C08
                                C09C10C13C16
  20142192.804   105847936.431                    20142197.611    82478931.337  
  20142197.182  
  21588046.535   113445950.567                    21588051.896    88399464.080  
  21588051.735  
  21347463.388   112181677.637                    21347468.874    87414317.293  
  21347469.339  
  21903259.585   115102408.016                    21903266.268    89690216.313  
  21903266.625  
  21836369.417   114750895.854                    21836373.580    89416300.264  
  21836373.812  
  21296373.707   113641531.413                    21296379.247    88387881.139  
  21296379.229  
  19260380.537   102885497.021                    19260385.379    80022073.513  
  19260385.308  
  20345089.037   108641641.935                    20345096.578    84499087.115  
  20345096.632  
  24871086.351   130698441.287                                                  
                
  27893116.171   146579312.637                                                  
                
  27673673.455   145426137.536                                                  
                
  25333253.477   133127148.363                                                  
                
  24366624.194   128047475.872                                                  
                
  25577879.633   134412665.784                                                  
                
  38113035.321   200285353.566                                   156066534.429  
  38113041.450  
  37873077.786   199024366.329                                   155083936.295  
  37873081.181  
                 195259283.022                                   195259283.022  
  37497492.277  
                 189861642.087                                   189861642.087  
  36460932.091  
                 188260706.450                                   188260706.450  
  36153489.279  
                 204444178.276                                   204444178.276  
  39261354.845  
                 200782885.343                                   200782885.343  
  38558242.010  
                 189308866.497                                   189308866.497  
  36354777.407  
                 207279866.604                                   207279866.604  
  39805919.127  
                 187670464.188                                   187670464.188  
  36040139.580  
                 192420667.004                                   192420667.004  
  36952366.050  
                 207644640.202                                   207644640.202  
  39875969.736  
                 185543361.214                                   185543361.214  
  35631651.606  
                 192291948.422                                   192291948.422  
  36927646.937  
 24  6 29 13  8  0.0000000  0 28G10G23G25G31G32R02R12R13E07E08E13E26
                                E27E30J02J04C01C02C03C04C05C06C07C08
                                C09C10C13C16
  20142227.952   105848121.131                    20142232.759    82479075.259  
  20142232.330  
  21588533.591   113448510.008                    21588538.916    88401458.447  
  21588538.791  
  21347629.910   112182552.795                    21347635.413    87414999.237  
  21347635.878  
  21902904.581   115100542.587                    21902911.264    89688762.741  
  21902911.621  
  21836258.915   114750315.094                    21836263.060    89415847.724  
  21836263.293  
  21295954.625   113639295.095                    21295960.183    88386141.783  
  21295960.147  
  19260492.164   102886093.332                    19260497.007    80022537.310  
  19260496.917  
  20344538.993   108638704.768                    20344546.534    84496802.654  
  20344546.588  
  24871123.018   130698633.925                                                  
                
  27893312.266   146580343.204                                                  
                
  27674171.947   145428757.027                                                  
                
  25333637.500   133129166.404                                                  
                
  24366313.774   128045844.659                                                  
                
  25578041.419   134413515.935                                                  
                
  38113097.344   200285679.539                                   156066788.443  
  38113103.473  
  37872869.130   199023269.781                                   155083081.845  
  37872872.489  
                 195259319.323                                   195259319.323  
  37497499.264  
                 189861667.832                                   189861667.832  
  36460937.041  
                 188260743.696                                   188260743.696  
  36153496.426  
                 204444211.433                                   204444211.433  
  39261361.224  
                 200782890.647                                   200782890.647  
  38558243.046  
                 189309402.504                                   189309402.504  
  36354880.333  
                 207278877.444                                   207278877.444  
  39805729.180  
                 187671057.053                                   187671057.053  
  36040253.423  
                 192421165.347                                   192421165.347  
  36952461.756  
                 207643916.950                                   207643916.950  
  39875830.840  
                 185543707.366                                   185543707.366  
  35631718.079  
                 192292545.800                                   192292545.800  
  36927761.692  
 24  6 29 13  8  1.0000000  0 28G10G23G25G31G32R02R12R13E07E08E13E26
                                E27E30J02J04C01C02C03C04C05C06C07C08
                                C09C10C13C16
  20142263.244   105848306.568                    20142268.050    82479219.750  
  20142267.622  
  21589020.736   113451069.983                    21589026.079    88403453.237  
  21589025.936  
  21347796.592   112183428.698                    21347802.078    87415681.763  
  21347802.542  
  21902549.702   115098677.681                    21902556.367    89687309.574  
  21902556.742  
  21836148.413   114749734.452                    21836152.576    89415395.273  
  21836152.808  
  21295535.525   113637058.843                    21295541.100    88384402.475  
  21295541.047  
  19260603.971   102886690.576                    19260608.813    80023001.834  
  19260608.742  
  20343989.092   108635768.323                    20343996.633    84494518.752  
  20343996.668  
  24871159.685   130698826.630                                                  
                
  27893508.414   146581373.890                                                  
                
  27674670.385   145431376.445                                                  
                
  25334021.559   133131184.723                                                  
                
  24366003.424   128044213.866                                                  
                
  25578203.294   134414366.611                                                  
                
  38113159.403   200286005.647                                   156067042.558  
  38113165.532  
  37872660.491   199022173.316                                   155082227.454  
  37872663.850  
                 195259355.681                                   195259355.681  
  37497506.233  
                 189861693.683                                   189861693.683  
  36460941.990  
                 188260781.017                                   188260781.017  
  36153503.574  
                 204444244.651                                   204444244.651  
  39261367.586  
                 200782896.050                                   200782896.050  
  38558244.065  
                 189309938.604                                   189309938.604  
  36354983.276  
                 207277888.258                                   207277888.258  
  39805539.196  
                 187671650.198                                   187671650.198  
  36040367.320  
                 192421663.803                                   192421663.803  
  36952557.481  
                 207643193.633                                   207643193.633  
  39875691.944  
                 185544053.789                                   185544053.789  
  35631784.605  
                 192293143.234                                   192293143.234  
  36927876.411  
 24  6 29 13  8  2.0000000  0 28G10G23G25G31G32R02R12R13E07E08E13E26
                                E27E30J02J04C01C02C03C04C05C06C07C08
                                C09C10C13C16
  20142298.642   105848492.656                    20142303.467    82479364.752  
  20142303.020  
  21589507.989   113453630.453                    21589513.332    88405448.402  
  21589513.189  
  21347963.399   112184305.280                    21347968.867    87416364.816  
  21347969.332  
  21902194.895   115096813.223                    21902201.578    89685856.759  
  21902201.935  
  21836037.928   114749153.839                    21836042.092    89414942.850  
  21836042.324  
  21295116.461   113634822.639                    21295122.018    88382663.212  
  21295121.982  
  19260715.938   102887288.724                    19260720.781    80023467.060  
  19260720.709  
  20343439.334   108632832.551                    20343446.856    84492235.372  
  20343446.910  
  24871196.370   130699019.353                                                  
                
  27893704.562   146582404.642                                                  
                
  27675168.824   145433995.716                                                  
                
  25334405.689   133133203.263                                                  
                
  24365693.165   128042583.437                                                  
                
  25578365.259   134415217.733                                                  
                
  38113221.480   200286331.858                                   156067296.751  
  38113227.609  
  37872451.834   199021076.879                                   155081373.084  
  37872455.194  
                 195259392.087                                   195259392.087  
  37497513.220  
                 189861719.524                                   189861719.524  
  36460946.958  
                 188260818.373                                   188260818.373  
  36153510.757  
                 204444277.893                                   204444277.893  
  39261373.983  
                 200782901.458                                   200782901.458  
  38558245.119  
                 189310474.710                                   189310474.710  
  36355086.238  
                 207276898.999                                   207276898.999  
  39805349.213  
                 187672243.578                                   187672243.578  
  36040481.289  
                 192422162.291                                   192422162.291  
  36952653.205  
                 207642470.246                                   207642470.246  
  39875552.994  
                 185544400.451                                   185544400.451  
  35631851.185  
                 192293740.688                                   192293740.688  
  36927991.130  
 24  6 29 13  8  3.0000000  0 28G10G23G25G31G32R02R12R13E07E08E13E26
                                E27E30J02J04C01C02C03C04C05C06C07C08
                                C09C10C13C16
  20142334.148   105848679.319                    20142338.990    82479510.203  
  20142338.562  
  21589995.295   113456191.314                    21590000.638    88407443.878  
  21590000.495  
  21348130.314   112185182.463                    21348135.800    87417048.338  
  21348136.264  
  21901840.177   115094949.124                    21901846.842    89684404.221  
  21901847.217  
  21835927.444   114748573.188                    21835931.608    89414490.392  
  21835931.822  
  21294697.397   113632586.413                    21294702.954    88380923.926  
  21294702.918  
  19260828.084   102887887.680                    19260832.909    80023932.917  
  19260832.837  
  20342889.665   108629897.317                    20342897.205    84489952.410  
  20342897.241  
  24871233.020   130699212.000                                                  
                
  27893900.711   146583435.364                                                  
                
  27675667.209   145436614.764                                                  
                
  25334789.837   133135221.940                                                  
                
  24365382.958   128040953.292                                                  
                
  25578527.296   134416069.219                                                  
                
  38113283.539   200286658.046                                   156067550.930  
  38113289.668  
  37872243.196   199019980.367                                   155080518.658  
  37872246.555  
                 195259428.428                                   195259428.428  
  37497520.188  
                 189861745.313                                   189861745.313  
  36460951.890  
                 188260855.659                                   188260855.659  
  36153517.923  
                 204444311.079                                   204444311.079  
  39261380.326  
                 200782906.817                                   200782906.817  
  38558246.138  
                 189311010.763                                   189311010.763  
  36355189.181  
                 207275909.542                                   207275909.542  
  39805159.211  
                 187672837.121                                   187672837.121  
  36040595.275  
                 192422660.764                                   192422660.764  
  36952748.929  
                 207641746.662                                   207641746.662  
  39875414.045  
                 185544747.226                                   185544747.226  
  35631917.765  
                 192294338.069                                   192294338.069  
  36928105.867  
 24  6 29 13  8  4.0000000  0 28G10G23G25G31G32R02R12R13E07E08E13E26
                                E27E30J02J04C01C02C03C04C05C06C07C08
                                C09C10C13C16
  20142369.797   105848866.622                    20142374.639    82479656.147  
  20142374.210  
  21590482.708   113458752.636                    21590488.051    88409439.717  
  21590487.908  
  21348297.354   112186060.315                    21348302.839    87417732.378  
  21348303.304  
  21901485.512   115093085.458                    21901492.195    89682952.014  
  21901492.553  
  21835816.960   114747992.578                    21835821.124    89414037.973  
  21835821.338  
  21294278.332   113630350.203                    21294283.889    88379184.651  
  21294283.872  
  19260940.373   102888487.504                    19260945.198    80024399.445  
  19260945.126  
  20342340.085   108626962.717                    20342347.643    84487669.941  
  20342347.697  
  24871269.669   130699404.626                                                  
                
  27894096.877   146584466.118                                                  
                
  27676165.558   145439233.648                                                  
                
  25335174.004   133137240.805                                                  
                
  24365072.824   128039323.485                                                  
                
  25578689.403   134416921.137                                                  
                
  38113345.634   200286984.321                                   156067805.173  
  38113351.745  
  37872034.521   199018883.860                                   155079664.238  
  37872037.881  
                 195259464.781                                   195259464.781  
  37497527.175  
                 189861771.105                                   189861771.105  
  36460956.857  
                 188260892.940                                   188260892.940  
  36153525.088  
                 204444344.289                                   204444344.289  
  39261386.723  
                 200782912.182                                   200782912.182  
  38558247.174  
                 189311546.823                                   189311546.823  
  36355292.142  
                 207274920.019                                   207274920.019  
  39804969.192  
                 187673430.865                                   187673430.865  
  36040709.298  
                 192423159.261                                   192423159.261  
  36952844.636  
                 207641022.955                                   207641022.955  
  39875275.060  
                 185545094.228                                   185545094.228  
  35631984.417  
                 192294935.442                                   192294935.442  
  36928220.586  
