     3.03           O                   M                   RINEX VERSION / TYPE
Android_Rinex                           2024-06-10 11:48:01 PGM / RUN BY / DATE
                                                            MARKER NAME
SMARTPHONE                                                  MARKER TYPE
                                                            OBSERVER / AGENCY
                                                            REC # / TYPE / VERS
                                                            ANT # / TYPE
        0.0000        0.0000        0.0000                  APPROX POSITION XYZ
        0.0000        0.0000        0.0000                  ANTENNA: DELTA H/E/N
G    8 C1C L1C D1C S1C C5Q L5Q D5Q S5Q                      SYS / # / OBS TYPES
R    4 C1C L1C D1C S1C                                      SYS / # / OBS TYPES
E    8 C1C L1C D1C S1C C5Q L5Q D5Q S5Q                      SYS / # / OBS TYPES
  2023    09    07    19    33    44.4341740                TIME OF FIRST OBS
  2023    09    07    19    51    50.4341740                TIME OF LAST OBS
  9 R10 -7 R02 -4 R01  1 R24  2 R23  3 R17  4 R08  6 R11  0   9 R10 -7 R02 -4 R01  1 R24  2 R23  3 R17  4 R08  6 R11  0 GLONASS SLOT / FRQ #
    R03  5 GLONASS SLOT / FRQ #
                                                            GLONASS COD/PHS/BIS#
                                                            END OF HEADER
> 2023 09 07 19 33 44.4341741  0 22
G02  23439471.173 2   -201444.33301      2828.084          48.700           0.000 0         0.00000         0.000           0.000  
G08  22517273.897 2     63972.75501      -924.943          45.700    22514937.627 2     43085.86305      -690.809          32.300  
G10  21157764.863 2     68483.39201      -975.739          45.900    21155418.996 2     46075.29709      -728.755          29.800  
G18  24721647.542 4    245145.36603     -3476.393          33.500           0.000 0         0.00000         0.000           0.000  
G21  22566144.279 2   -159947.15301      2240.590          47.200           0.000 0         0.00000         0.000           0.000  
G23  23253520.413 3    168310.43801     -2378.349          40.700           0.000 0         0.00000         0.000           0.000  
G24  24506065.894 4         0.00000     -2358.863          28.900    24503773.075 3         0.00000     -1759.350          25.400  
G27  22745724.155 3    198453.87002     -2820.702          36.000    22743378.881 1    133889.01603     -2106.402          37.100  
G32  20558745.358 3    -23906.79901       314.454          40.800    20556392.301 3         0.00000       238.000          28.000  
R10  23929301.489 4    -55784.99909      1128.601          29.400  
R02  20742661.143 2   -128023.92101      1876.626          44.300  
R01  19703146.681 2     94826.30601     -1420.654          41.700  
R24  19253938.569 4     51907.52303      -823.072          32.500  
R23  21986026.989 3    265094.32102     -4060.241          38.000  
R17  21093664.158 2   -219559.04501      3230.077          43.700  
R08  23141556.326 2    233710.93201     -3461.341          42.100  
E07  23503054.165 3     56716.92703      -814.573          42.300    23500937.628 3         0.00000      -608.368          26.700  
E08  27004748.490 3    187506.06204     -2647.828          39.900    27002622.355 3         0.00000     -1969.500          22.800  
E13  25793620.839 4     94166.05808     -2385.802          33.400    25791504.896 3         0.00000     -1781.600          23.700  
E19  28642408.253 6         0.00000      2801.050          24.600           0.000 0         0.00000         0.000           0.000  
E26  23165663.226 3      5259.85204       -91.477          38.000    23163535.905 3         0.00000       -68.727          25.000  
E33  25071185.472 2   -153864.88602      2158.046          46.300    25069060.245 3         0.00000      1617.350          22.200  
> 2023 09 07 19 33 45.4341741  0 23
G02  23438930.652 2   -204277.27901      2837.880          46.400           0.000 0         0.00000         0.000           0.000  
G08  22517453.774 2     64893.04501      -915.588          43.500    22515112.094 2     43773.06609      -683.586          30.600  
G10  21157947.148 2     69454.34501      -965.699          43.100    21155601.874 3         0.00000      -720.491          27.400  
G18  24722303.496 4    248616.75004     -3466.539          32.000           0.000 0         0.00000         0.000           0.000  
G21  22565717.062 2   -162192.56401      2250.271          44.500           0.000 0         0.00000         0.000           0.000  
G23  23253968.901 3    170683.93302     -2368.496          38.700           0.000 0         0.00000         0.000           0.000  
G24  24506518.274 5         0.00000     -2350.401          28.100    24504220.673 3         0.00000     -1751.400          24.000  
G27  22746248.185 4    201269.79103     -2811.140          33.500    22743914.009 1    135991.80003     -2099.151          35.400  
G28  23663697.955 5         0.00000      3353.900          25.400           0.000 0         0.00000         0.000           0.000  
G32  20558680.601 3    -24225.81702       323.771          38.400    20556331.731 3         0.00000       242.521          26.300  
R10  23929097.025 5         0.00000      1138.092          27.100  
R02  20742307.392 2   -129905.26901      1886.311          43.100  
R01  19703406.009 3     96242.03201     -1410.824          39.700  
R24  19254092.062 4     52725.95803      -813.780          33.700  
R23  21986780.960 3    269149.74502     -4050.120          35.100  
R17  21093057.676 2   -222793.86701      3240.024          41.900  
R08  23142201.182 3    237167.20501     -3451.122          40.400  
E07  23503207.360 3     57526.70103      -805.568          40.800    23501089.322 3         0.00000      -599.867          27.700  
E08  27005250.934 3    190148.88904     -2638.386          38.400           0.000 0         0.00000         0.000           0.000  
E13  25794071.718 5         0.00000     -2374.050          29.500           0.000 0         0.00000         0.000           0.000  
E19  28641875.236 5         0.00000      2811.300          25.800           0.000 0         0.00000         0.000           0.000  
E26  23165675.825 3      5346.89005       -82.868          37.000    23163552.989 3         0.00000       -60.300          23.000  
E33  25070774.153 2   -156027.70302      2167.180          44.600           0.000 0         0.00000         0.000           0.000  
> 2023 09 07 19 33 46.4341741  0 23
G02  23438391.632 2   -207115.54101      2836.861          47.400           0.000 0         0.00000         0.000           0.000  
G08  22517625.850 2     65808.43301      -916.974          44.800    22515287.486 2     44456.63905      -684.780          31.900  
G10  21158129.712 2     70420.15101      -967.156          44.300    21155786.532 2         0.00000      -722.000          29.100  
G18  24722960.932 4    252082.87304     -3467.516          32.200           0.000 0         0.00000         0.000           0.000  
G21  22565288.956 2   -164443.20401      2249.163          45.900           0.000 0         0.00000         0.000           0.000  
G23  23254415.889 3    173052.03901     -2369.398          39.900           0.000 0         0.00000         0.000           0.000  
G24  24506974.265 4         0.00000     -2351.895          29.000    24504668.865 3         0.00000     -1752.700          25.800  
G27  22746792.004 4    204080.54303     -2812.177          34.300    22744450.324 1    138090.72603     -2099.978          36.300  
G28  23663046.800 5         0.00000      3352.500          25.500           0.000 0         0.00000         0.000           0.000  
G32  20558616.750 3    -24549.68001       322.225          39.800    20556269.678 3         0.00000       241.150          27.400  
R10  23928904.863 4         0.00000      1136.624          28.800  
R02  20741955.735 2   -131791.62501      1884.825          44.000  
R01  19703679.122 3     97652.61601     -1412.074          40.800  
R24  19254255.745 4     53539.73603      -815.542          34.800  
R23  21987538.527 3    273200.12702     -4051.938          35.900  
R17  21092457.790 2   -226033.59701      3238.177          42.900  
R08  23142845.740 3    240617.85501     -3451.929          40.900  
E07  23503360.241 3     58331.19903      -805.950          42.200    23501242.814 3     39715.50609      -601.991          28.500  
E08  27005755.786 3    192786.19304     -2638.697          39.600    27003628.168 4         0.00000     -1969.150          20.600  
E13  25794523.504 4     98922.52109     -2377.288          30.800    25792407.875 4         0.00000     -1778.000          20.800  
E19  28641347.890 5         0.00000      2808.600          26.200    28639234.355 4         0.00000      2098.000          20.100  
E26  23165692.612 3      5428.56304       -83.245          38.400    23163570.980 3         0.00000       -62.098          24.400  
E33  25070360.129 2   -158195.98802      2166.803          45.700           0.000 0         0.00000         0.000           0.000  
> 2023 09 07 19 33 47.4341741  0 22
G02  23437852.892 2   -209951.55201      2835.762          47.300           0.000 0         0.00000         0.000           0.000  
G08  22517801.539 2     66726.47501      -918.529          45.700    22515462.861 2     45142.24109      -685.991          29.900  
G10  21158315.296 2     71388.16101      -968.286          45.300    21155971.504 2     48244.37405      -723.112          31.000  
G18  24723620.481 5         0.00000     -3469.213          28.100           0.000 0         0.00000         0.000           0.000  
G21  22564862.665 2   -166691.52001      2248.050          46.400           0.000 0         0.00000         0.000           0.000  
G23  23254871.270 3    175422.31401     -2370.544          41.200           0.000 0         0.00000         0.000           0.000  
G24  24507428.442 4         0.00000     -2352.761          29.000    24505116.742 3         0.00000     -1754.700          25.300  
G27  22747319.053 4    206893.66003     -2813.373          34.300    22744984.563 1    140191.40903     -2100.934          37.700  
G32  20558556.495 3    -24870.91901       320.854          40.100    20556210.627 2    -16936.63009       239.477          29.900  
R10  23928683.612 5         0.00000      1134.733          27.200  
R02  20741604.672 2   -133675.44001      1883.446          43.900  
R01  19703945.343 3     99065.68901     -1413.406          40.600  
R24  19254420.928 4     54356.51403      -817.351          34.400  
R23  21988293.423 3    277252.96102     -4053.202          36.500  
R17  21091853.716 2   -229270.79001      3236.786          42.800  
R08  23143495.395 3    244070.58801     -3452.919          41.000  
E07  23503514.938 3     59138.19403      -807.364          41.700    23501399.011 3     40318.19609      -602.819          28.100  
E08  27006256.747 3    195425.69404     -2639.621          38.500           0.000 0         0.00000         0.000           0.000  
E13  25794969.601 4    101300.30609     -2378.184          30.200    25792861.458 3         0.00000     -1778.150          22.300  
E19  28640798.976 5         0.00000      2807.550          25.900    28638699.820 3         0.00000      2096.650          22.800  
E26  23165707.899 3      5512.82805       -84.512          37.100    23163587.471 3      3945.85509       -63.042          28.000  
E33  25069950.328 2   -160361.91102      2165.683          44.700    25067827.788 4         0.00000      1623.100          20.300  
> 2023 09 07 19 33 48.4341741  0 23
G02  23437310.871 2   -212785.71001      2832.328          47.800           0.000 0         0.00000         0.000           0.000  
G08  22517975.116 2     67646.76701      -922.275          45.900    22515637.642 2     45829.47609      -688.624          29.800  
G10  21158496.656 2     72358.06601      -971.767          44.800    21156156.477 2     48968.71809      -725.811          30.200  
G18  24724284.514 4         0.00000     -3472.253          28.800           0.000 0         0.00000         0.000           0.000  
G21  22564434.262 2   -168937.90301      2244.559          46.300           0.000 0         0.00000         0.000           0.000  
G23  23255321.555 3    177794.39001     -2373.859          39.900           0.000 0         0.00000         0.000           0.000  
G24  24507879.931 5         0.00000     -2356.947          27.900    24505561.932 3         0.00000     -1754.050          23.000  
G27  22747858.980 3    209708.76202     -2816.879          36.400    22745519.988 1    142293.61203     -2103.585          37.200  
G28  23661728.611 6         0.00000      3350.150          22.400           0.000 0         0.00000         0.000           0.000  
G32  20558490.533 3    -25189.95101       316.988          40.700    20556149.167 2    -17174.94409       236.830          30.600  
R10  23928485.151 4         0.00000      1130.858          28.600  
R02  20741250.624 2   -135557.10801      1879.626          43.600  
R01  19704207.951 3    100480.88901     -1417.196          40.100  
R24  19254551.945 4     55175.85303      -821.473          34.700  
R23  21989058.179 3    281307.88302     -4056.934          37.500  
R17  21091253.515 2   -232505.73801      3232.930          42.600  
R08  23144136.044 3    247524.97901     -3456.146          40.500  
E07  23503669.337 3     59947.22203      -810.810          41.600    23501554.301 3         0.00000      -605.775          27.900  
E08  27006760.395 3    198067.02104     -2643.018          38.400           0.000 0         0.00000         0.000           0.000  
E13  25795428.577 4    103680.24509     -2381.732          30.600    25793314.448 3         0.00000     -1777.900          23.600  
E19  28640274.039 6         0.00000      2796.650          23.800    28638166.489 3         0.00000      2087.800          23.600  
E26  23165725.593 3      5599.13104       -88.152          38.500    23163603.350 3         0.00000       -65.924          26.200  
E33  25069539.306 2   -162525.97802      2162.365          45.400    25067415.876 3         0.00000      1618.950          25.400  
> 2023 09 07 19 33 49.4341741  0 22
G02  23436774.241 2   -215617.17901      2829.504          48.000           0.000 0         0.00000         0.000           0.000  
G08  22518147.804 2     68570.16101      -925.493          45.800    22515814.221 2     46518.99209      -691.069          30.600  
G10  21158684.333 2     73330.68701      -974.687          44.100    21156341.763 2     49694.92305      -727.745          31.300  
G18  24724961.460 5         0.00000     -3474.963          28.400           0.000 0         0.00000         0.000           0.000  
G21  22564004.044 2   -171181.50201      2241.665          46.100           0.000 0         0.00000         0.000           0.000  
G23  23255772.155 3    180169.08001     -2376.595          40.100           0.000 0         0.00000         0.000           0.000  
G24  24508320.323 4         0.00000     -2360.099          29.000    24506011.327 3         0.00000     -1760.900          24.300  
G27  22748398.296 3    212526.80502     -2819.979          36.400    22746056.617 1    144397.95403     -2105.866          37.400  
G32  20558432.075 3    -25506.00002       313.840          38.600    20556088.894 2         0.00000       234.228          29.300  
R10  23928256.117 4         0.00000      1127.396          28.100  
R02  20740896.874 2   -137435.77101      1876.424          44.100  
R01  19704469.076 3    101899.02501     -1420.320          40.600  
R24  19254713.830 4     55998.63303      -825.108          34.900  
R23  21989819.654 3    285365.66202     -4059.928          37.900  
R17  21090644.049 2   -235737.61501      3229.591          42.900  
R08  23144788.700 3    250981.95901     -3458.887          40.500  
E07  23503823.126 3     60759.11703      -813.781          41.600    23501706.886 3         0.00000      -607.534          24.900  
E08  27007262.246 3    200710.89004     -2645.668          39.000           0.000 0         0.00000         0.000           0.000  
E13  25795884.272 4    106062.85909     -2384.623          30.100           0.000 0         0.00000         0.000           0.000  
E19  28639733.815 5         0.00000      2799.100          25.100    28637631.971 3         0.00000      2089.150          22.000  
E26  23165742.974 4      5688.25806       -90.951          36.000    23163620.155 3         0.00000       -67.908          27.300  
E33  25069126.189 2   -164687.39302      2159.608          45.300    25067005.464 3         0.00000      1612.611          23.500  
> 2023 09 07 19 33 50.4341741  0 21
G02  23436235.222 2   -218443.16201      2825.734          47.000           0.000 0         0.00000         0.000           0.000  
G08  22518325.866 2     69499.45301      -929.780          45.200    22515990.486 2     47212.96605      -694.245          31.200  
G10  21158868.415 2     74308.83501      -978.375          44.200    21156527.922 2     50425.38705      -730.665          31.000  
G18  24725612.004 4         0.00000     -3478.508          28.600           0.000 0         0.00000         0.000           0.000  
G21  22563579.847 2   -173419.56101      2237.747          45.700           0.000 0         0.00000         0.000           0.000  
G23  23256222.143 3    182549.19701     -2380.328          39.800           0.000 0         0.00000         0.000           0.000  
G24  24508773.609 4         0.00000     -2364.312          28.500    24506461.019 3         0.00000     -1768.200          22.400  
G27  22748929.237 3    215350.34102     -2823.880          36.400    22746593.839 1    146506.44003     -2108.791          36.400  
G32  20558374.227 3    -25816.12701       309.788          39.500    20556029.249 2         0.00000       231.193          29.200  
R10  23928045.056 5         0.00000      1123.299          26.900  
R02  20740539.825 2   -139308.49701      1872.359          44.000  
R01  19704740.096 3    103323.01601     -1424.307          40.800  
R24  19254863.728 4     56827.71303      -829.464          34.900  
R23  21990568.234 3    289429.31802     -4063.894          38.200  
R17  21090040.865 2   -238963.54401      3225.498          42.100  
R08  23145427.849 3    254444.29601     -3462.463          40.700  
E07  23503979.619 3     61576.63303      -817.931          41.300    23501863.990 3         0.00000      -611.011          23.700  
E08  27007763.800 3    203360.11204     -2649.538          38.700           0.000 0         0.00000         0.000           0.000  
E13  25796330.963 4    108450.96709     -2388.625          32.500    25794223.116 3         0.00000     -1783.450          22.700  
E26  23165761.262 4      5783.14706       -95.245          35.900    23163639.629 3         0.00000       -71.170          27.700  
E33  25068714.277 2   -166843.28502      2155.549          45.400           0.000 0         0.00000         0.000           0.000  
> 2023 09 07 19 33 51.4341741  0 22
G02  23435694.090 2   -221272.00901      2832.532          47.600           0.000 0         0.00000         0.000           0.000  
G08  22518505.446 2     70426.28101      -923.334          44.900    22516166.471 2     47905.12109      -689.554          30.300  
G10  21159055.778 2     75284.14801      -971.517          45.100    21156712.598 2     51153.70305      -725.451          30.700  
G18  24726279.039 4         0.00000     -3471.771          28.900           0.000 0         0.00000         0.000           0.000  
G21  22563152.334 2   -175660.38101      2244.491          45.800           0.000 0         0.00000         0.000           0.000  
G23  23256676.931 3    184926.39201     -2373.499          39.800           0.000 0         0.00000         0.000           0.000  
G24  24509221.208 4    181103.49409     -2357.782          29.600    24506912.806 3         0.00000     -1761.350          22.400  
G27  22749462.254 3    218171.21202     -2817.265          37.200    22747130.782 1    148612.93303     -2103.791          37.100  
G32  20558314.861 3    -26128.78301       316.332          39.900    20555970.477 3         0.00000       236.154          28.200  
R10  23927839.999 4         0.00000      1129.658          28.000  
R02  20740190.855 2   -141183.88501      1879.109          44.200  
R01  19705004.798 2    104744.33901     -1417.600          41.400  
R24  19255035.211 3     57654.55202      -823.442          36.000  
R23  21991326.114 3    293490.22901     -4057.003          39.000  
R17  21089439.775 2   -242192.00001      3232.188          43.200  
R08  23146077.503 3    257903.51801     -3455.371          41.200  
E07  23504133.408 3     62391.55903      -811.666          40.700    23502016.278 3         0.00000      -605.561          23.100  
E08  27008267.745 3    206006.44505     -2642.773          37.600           0.000 0         0.00000         0.000           0.000  
E13  25796784.843 5         0.00000     -2382.600          29.600    25794675.199 3         0.00000     -1778.550          22.100  
E19  28638676.140 6         0.00000      2807.000          22.600    28636562.901 4         0.00000      2092.150          20.500  
E26  23165777.455 4      5875.43507       -88.891          35.400    23163658.214 3         0.00000       -66.166          25.400  
E33  25068301.160 2   -169001.97302      2162.140          45.300    25066184.030 4         0.00000      1615.800          20.700  
> 2023 09 07 19 33 52.4341741  0 22
G02  23435159.869 2   -224107.20201      2834.233          47.000           0.000 0         0.00000         0.000           0.000  
G08  22518678.727 2     71347.19801      -922.094          45.100    22516342.439 2     48592.79705      -688.509          31.200  
G10  21159238.046 2     76253.19301      -970.104          44.700    21156897.273 2     51877.35605      -724.480          31.200  
G18  24726953.874 5         0.00000     -3470.363          27.200           0.000 0         0.00000         0.000           0.000  
G21  22562723.931 2   -177907.47601      2246.078          45.700           0.000 0         0.00000         0.000           0.000  
G23  23257128.717 3    187297.13901     -2371.670          39.500           0.000 0         0.00000         0.000           0.000  
G24  24509669.696 5         0.00000     -2356.806          28.000    24507358.903 3         0.00000     -1760.200          23.200  
G27  22749997.085 3    220985.85202     -2815.662          35.600    22747665.911 1    150714.75903     -2102.541          37.200  
G32  20558258.201 3    -26447.38602       317.444          39.200    20555909.628 2    -18113.90909       236.892          29.800  
R10  23927586.674 5         0.00000      1130.752          27.000  
R02  20739840.106 2   -143065.40701      1880.312          44.400  
R01  19705269.518 3    106159.45801     -1416.260          40.600  
R24  19255191.704 3     58475.67602      -822.479          36.800  
R23  21992093.592 3    297544.92102     -4055.918          38.800  
R17  21088828.790 2   -245426.57401      3233.328          43.700  
R08  23146718.764 3    261356.05001     -3453.401          40.100  
E07  23504288.401 3     63200.19804      -809.690          40.600    23502171.271 3         0.00000      -604.667          23.100  
E08  27008770.503 3    208646.30904     -2640.746          38.000           0.000 0         0.00000         0.000           0.000  
E13  25797243.225 4    113215.44309     -2380.155          30.400           0.000 0         0.00000         0.000           0.000  
E19  28638156.298 6         0.00000      2805.800          24.200    28636031.368 3         0.00000      2098.950          22.100  
E26  23165795.447 4      5961.50106       -87.025          36.000    23163674.408 3      4280.87809       -64.950          28.300  
E33  25067891.953 2   -171167.05902      2164.166          45.600           0.000 0         0.00000         0.000           0.000  
> 2023 09 07 19 33 53.4341741  0 21
G02  23434613.939 2   -226938.79201      2829.648          47.300           0.000 0         0.00000         0.000           0.000  
G08  22518852.618 2     72272.11801      -927.054          45.600    22516518.424 2     49283.46709      -692.243          30.500  
G10  21159426.316 2     77225.81901      -974.690          45.200    21157082.246 2     52603.63005      -727.782          30.800  
G18  24727599.322 4         0.00000     -3474.698          28.900           0.000 0         0.00000         0.000           0.000  
G21  22562297.640 2   -180150.88401      2241.455          45.400           0.000 0         0.00000         0.000           0.000  
G23  23257579.002 3    189671.42201     -2376.231          39.800           0.000 0         0.00000         0.000           0.000  
G24  24510118.480 5         0.00000     -2361.618          28.400    24507809.782 3         0.00000     -1758.600          22.700  
G27  22750534.918 3    223804.24702     -2820.400          35.900    22748202.226 1    152819.43303     -2106.225          36.800  
G32  20558197.038 3    -26762.03901       312.493          40.200    20555849.966 2         0.00000       233.292          29.400  
R10  23927411.892 5         0.00000      1125.407          26.000  
R02  20739496.546 2   -144942.99301      1875.384          44.500  
R01  19705533.034 3    107578.45001     -1421.130          40.900  
R24  19255337.396 3     59301.09202      -827.807          37.300  
R23  21992846.656 3    301603.45501     -4060.711          39.000  
R17  21088231.312 2   -248657.16101      3228.313          44.100  
R08  23147366.307 3    264812.01802     -3457.850          39.800  
E07  23504444.005 3     64012.62103      -814.422          40.900           0.000 0         0.00000         0.000           0.000  
E08  27009277.153 3    211289.61804     -2645.125          37.800           0.000 0         0.00000         0.000           0.000  
E13  25797697.105 5         0.00000     -2384.400          27.600    25795584.477 4         0.00000     -1780.600          20.800  
E26  23165811.623 4      6051.41806       -91.904          36.300    23163690.305 3      4348.05009       -68.666          28.400  
E33  25067481.524 2   -173328.54602      2159.643          45.700    25065363.503 3         0.00000      1613.300          22.500  
> 2023 09 07 19 33 54.4341741  0 22
G02  23434081.812 2   -229766.24001      2825.688          47.100           0.000 0         0.00000         0.000           0.000  
G08  22519028.883 2     73201.60801      -931.412          45.500    22516695.300 2         0.00000      -695.684          29.400  
G10  21159613.400 2     78202.65401      -978.654          45.000    21157267.811 2     53333.10405      -730.747          31.600  
G18  24728265.764 4         0.00000     -3478.582          29.000           0.000 0         0.00000         0.000           0.000  
G21  22561871.628 2   -182390.05401      2237.386          45.600           0.000 0         0.00000         0.000           0.000  
G23  23258031.993 3    192049.82001     -2380.142          40.500           0.000 0         0.00000         0.000           0.000  
G24  24510551.682 4         0.00000     -2365.775          29.400    24508261.568 3         0.00000     -1763.350          22.900  
G27  22751066.749 3    226626.92602     -2824.516          35.500    22748739.762 1    154927.25303     -2109.134          36.600  
G32  20558138.876 3    -27072.21501       308.208          39.800    20555790.007 2         0.00000       230.125          28.800  
R10  23927182.248 5         0.00000      1121.187          26.200  
R02  20739137.386 2   -146816.06001      1871.118          44.100  
R01  19705803.756 3    109001.87001     -1425.327          40.800  
R24  19255498.985 3     60131.47902      -832.535          35.900  
R23  21993613.227 3    305666.43501     -4064.908          39.200  
R17  21087626.627 2   -251883.15801      3223.956          43.700  
R08  23148009.958 3    268272.01802     -3461.704          39.300  
E07  23504602.295 3     64829.41403      -818.540          41.000    23502479.756 3         0.00000      -610.400          22.600  
E08  27009775.112 3    213937.01005     -2649.056          37.600           0.000 0         0.00000         0.000           0.000  
E13  25798155.488 5         0.00000     -2390.600          26.300           0.000 0         0.00000         0.000           0.000  
E19  28637082.446 6         0.00000      2803.250          21.000           0.000 0         0.00000         0.000           0.000  
E26  23165830.818 4      6145.60306       -96.057          36.600    23163707.685 3         0.00000       -71.777          27.200  
E33  25067067.221 2   -175485.83302      2155.601          45.400    25064952.778 3         0.00000      1609.655          23.200  
> 2023 09 07 19 33 55.4341741  0 22
G02  23433541.292 2   -232592.22901      2829.737          46.100           0.000 0         0.00000         0.000           0.000  
G08  22519208.166 2     74132.89501      -927.703          43.800    22516871.285 3         0.00000      -692.609          27.200  
G10  21159798.355 2     79180.70301      -973.647          44.300    21157454.878 2     54063.47009      -727.114          30.300  
G18  24728940.895 5         0.00000     -3476.250          25.900           0.000 0         0.00000         0.000           0.000  
G21  22561445.319 2   -184627.70301      2241.386          44.500           0.000 0         0.00000         0.000           0.000  
G23  23258486.169 3    194429.24801     -2374.958          39.800           0.000 0         0.00000         0.000           0.000  
G24  24511014.863 5         0.00000     -2362.772          26.300    24508705.868 3         0.00000     -1764.300          25.400  
G27  22751615.069 4    229451.16003     -2820.354          33.500    22749276.391 1    157036.19903     -2106.018          35.600  
G28  23657359.442 6         0.00000      3356.750          22.600           0.000 0         0.00000         0.000           0.000  
G32  20558078.620 3    -27380.74001       312.650          39.700    20555730.659 3         0.00000       233.494          28.100  
R10  23926941.208 5         0.00000      1127.250          25.100  
R02  20738786.636 2   -148687.38401      1875.221          42.600  
R01  19706063.363 3    110426.84302     -1420.826          38.700  
R24  19255654.589 4     60963.84503      -828.592          34.500  
R23  21994360.620 3    309730.79202     -4059.691          37.300  
R17  21087018.958 2   -255107.34501      3228.026          41.500  
R08  23148659.909 3    271732.92302     -3456.472          39.000  
E07  23504752.193 3     65647.61004      -814.520          39.800    23502634.155 3         0.00000      -607.719          23.700  
E08  27010275.462 4    216585.50206     -2644.618          36.000           0.000 0         0.00000         0.000           0.000  
E13  25798604.883 5         0.00000     -2387.650          28.400           0.000 0         0.00000         0.000           0.000  
E26  23165847.309 4      6241.35306       -92.197          35.700    23163725.973 3         0.00000       -68.320          26.000  
E33  25066660.404 2   -177641.68502      2159.229          45.100    25064541.773 3         0.00000      1610.650          22.600  
> 2023 09 07 19 33 56.4341741  0 23
G02  23433001.051 2   -235426.78001      2834.843          46.100           0.000 0         0.00000         0.000           0.000  
G08  22519383.244 2     75056.02601      -923.021          43.900    22517046.067 3         0.00000      -691.900          27.600  
G10  21159979.139 2     80149.12101      -967.420          43.200    21157637.459 2     54786.62809      -722.476          30.100  
G18  24729584.250 4    286814.04809     -3466.237          31.500           0.000 0         0.00000         0.000           0.000  
G21  22561016.026 2   -186873.92001      2246.588          45.200           0.000 0         0.00000         0.000           0.000  
G23  23258938.566 3    196798.36502     -2367.656          39.000           0.000 0         0.00000         0.000           0.000  
G24  24511478.952 5         0.00000     -2355.085          27.600    24509153.152 3         0.00000     -1757.950          24.800  
G27  22752148.697 4    232266.41903     -2814.733          35.000    22749812.113 1    159138.50903     -2101.917          35.900  
G28  23656684.311 5         0.00000      3353.985          27.000           0.000 0         0.00000         0.000           0.000  
G32  20558011.472 3    -27698.33002       318.195          38.700    20555670.996 3         0.00000       237.650          28.100  
R10  23926800.315 5         0.00000      1131.460          26.600  
R02  20738434.369 2   -150567.29601      1880.117          43.600  
R01  19706326.582 3    111842.63901     -1415.143          39.600  
R24  19255793.981 4     61787.46203      -823.107          34.400  
R23  21995128.988 3    313785.25702     -4053.451          38.000  
R17  21086418.462 2   -258340.07501      3232.960          41.700  
R08  23149293.666 3    275183.83701     -3449.559          40.600  
E07  23504907.186 3     66456.35903      -807.992          40.800    23502788.537 3         0.00000      -602.806          24.000  
E08  27010778.517 4    219223.99806     -2637.443          35.900           0.000 0         0.00000         0.000           0.000  
E13  25799037.492 5         0.00000     -2378.050          27.400    25796945.839 3         0.00000     -1778.700          23.300  
E19  28636039.761 6         0.00000      2802.300          21.000           0.000 0         0.00000         0.000           0.000  
E26  23165864.392 3      6327.80905       -85.638          37.400    23163740.963 3         0.00000       -63.744          26.600  
E33  25066249.678 2   -179806.24602      2164.972          45.200    25064128.656 3         0.00000      1617.079          25.500  
> 2023 09 07 19 33 57.4341741  0 23
G02  23432463.828 2   -238258.72701      2831.521          45.500           0.000 0         0.00000         0.000           0.000  
G08  22519559.212 2     75982.37801      -927.363          44.400    22517221.738 3         0.00000      -692.588          24.900  
G10  21160164.705 2     81118.44201      -968.765          44.300    21157823.339 2     55510.51804      -723.493          33.700  
G18  24730244.095 4    290283.50209     -3469.389          31.300           0.000 0         0.00000         0.000           0.000  
G21  22560590.921 2   -189117.57701      2243.162          45.400           0.000 0         0.00000         0.000           0.000  
G23  23259385.554 3    199167.44802     -2368.260          36.200           0.000 0         0.00000         0.000           0.000  
G24  24511912.136 6         0.00000     -2362.550          22.700    24509607.643 3         0.00000     -1763.550          23.300  
G27  22752686.234 3    235084.15702     -2818.664          35.900    22750347.241 1    161242.64503     -2104.711          35.900  
G28  23656037.955 5         0.00000      3351.400          24.900           0.000 0         0.00000         0.000           0.000  
G32  20557949.716 3    -28013.96702       315.478          37.300    20555611.334 3         0.00000       235.481          28.600  
R10  23926538.893 5         0.00000      1129.404          26.300  
R02  20738080.914 2   -152444.27001      1876.182          43.700  
R01  19706596.101 2    113260.23501     -1417.576          41.100  
R24  19255959.165 3     62613.39102      -826.335          36.900  
R23  21995887.165 4    317840.73503     -4055.683          33.600  
R17  21085814.091 2   -261570.04301      3229.614          43.700  
R08  23149939.132 3    278635.05902     -3450.461          38.300  
E07  23505062.179 3     67266.35703      -809.864          41.100           0.000 0         0.00000         0.000           0.000  
E08  27011277.367 4    221863.07507     -2638.392          35.300           0.000 0         0.00000         0.000           0.000  
E13  25799508.752 4      1422.84207     -2378.319          35.100           0.000 0         0.00000         0.000           0.000  
E19  28635492.051 6         0.00000      2799.050          23.800           0.000 0         0.00000         0.000           0.000  
E26  23165879.679 3      6415.89405       -88.222          37.200    23163758.954 3         0.00000       -65.802          25.600  
E33  25065837.469 2   -181968.35502      2161.703          44.600    25063714.336 3         0.00000      1614.440          25.800  
> 2023 09 07 19 33 58.4341741  0 23
G02  23431925.402 2   -241089.88401      2829.042          45.900           0.000 0         0.00000         0.000           0.000  
G08  22519738.199 2     76910.66001      -930.272          47.200    22517393.815 3         0.00000      -696.050          24.500  
G10  21160347.583 2     82086.91801      -969.660          41.500    21158007.107 1     56233.62703      -724.004          34.700  
G18  24730906.331 4    293751.06509     -3468.072          33.100           0.000 0         0.00000         0.000           0.000  
G21  22560164.002 2   -191360.39401      2240.758          44.400           0.000 0         0.00000         0.000           0.000  
G23  23259842.435 4    201534.06109     -2367.846          32.000           0.000 0         0.00000         0.000           0.000  
G24  24512350.747 5         0.00000     -2358.890          27.700    24510057.928 3         0.00000     -1765.450          24.600  
G27  22753223.753 3    237903.38602     -2820.746          39.400    22750884.185 1    163347.85903     -2106.444          36.800  
G28  23655394.600 4    -11527.74709      3352.300          33.500           0.000 0         0.00000         0.000           0.000  
G32  20557890.350 3    -28329.24802       313.704          36.200    20555550.468 3         0.00000       234.231          28.300  
R10  23926321.551 5         0.00000      1130.386          26.600  
R02  20737721.771 3   -154319.57801      1873.275          39.500  
R01  19706868.010 2    114677.82401     -1419.345          41.800  
R24  19256119.253 3     63440.06402      -828.484          35.700  
R23  21996631.539 4    321897.33109     -4057.641          29.800  
R17  21085213.000 2   -264799.27501      3227.017          46.000  
R08  23150597.162 3    282084.13402     -3450.291          36.500  
E07  23505216.561 3     68075.93803      -811.006          41.100    23503097.040 3         0.00000      -607.650          23.800  
E08  27011778.921 4    224500.21508     -2637.862          34.500           0.000 0         0.00000         0.000           0.000  
E13  25799962.946 4      3800.48909     -2378.404          33.300    25797843.705 4         0.00000     -1769.800          21.600  
E19  28634937.727 6         0.00000      2799.100          24.600           0.000 0         0.00000         0.000           0.000  
E26  23165897.967 3      6504.05605       -89.468          37.300    23163775.444 3         0.00000       -66.952          27.300  
E33  25065422.852 2   -184129.77203      2159.573          42.800    25063304.814 2   -126638.35009      1612.502          30.300  
> 2023 09 07 19 33 59.4341741  0 23
G02  23431381.583 2   -243916.95801      2826.787          42.500           0.000 0         0.00000         0.000           0.000  
G08  22519912.370 2     77842.69201      -932.346          42.300    22517574.896 2     53443.28505      -695.916          31.800  
G10  21160537.057 2     83058.28101      -973.041          46.500    21158192.080 2     56958.69705      -726.227          31.000  
G18  24731559.283 3    297218.69609     -3469.849          37.200           0.000 0         0.00000         0.000           0.000  
G21  22559740.101 2   -193599.17601      2238.425          45.100           0.000 0         0.00000         0.000           0.000  
G23  23260287.032 3    203905.44209     -2372.250          37.300           0.000 0         0.00000         0.000           0.000  
G24  24512800.422 5         0.00000     -2361.294          27.000    24510506.119 3         0.00000     -1765.650          23.500  
G27  22753759.788 4    240725.22703     -2822.054          34.500    22751421.110 2    165455.32609     -2107.494          31.900  
G28  23654752.450 4    -14878.78709      3349.373          29.600           0.000 0         0.00000         0.000           0.000  
G32  20557835.801 3    -28641.39602       311.061          38.300    20555493.510 3         0.00000       232.398          24.900  
R10  23926134.781 5         0.00000      1124.470          26.700  
R02  20737383.604 4   -156191.16103      1871.433          34.500  
R01  19707127.338 3    116098.92502     -1422.206          36.300  
R24  19256246.361 4     64270.38409      -831.652          29.700  
R23  21997411.895 5         0.00000     -4059.127          25.600  
R17  21084608.630 2   -268024.21901      3224.180          44.400  
R08  23151234.531 3    285536.58202     -3454.056          38.600  
E07  23505369.756 3     68888.55503      -814.060          42.500    23503251.718 3     47605.84409      -608.013          28.000  
E08  27012281.976 3    227140.49104     -2641.782          38.400    27010166.940 3         0.00000     -1979.600          25.200  
E13  25800417.437 4      6180.20009     -2381.367          30.200    25798296.398 3         0.00000     -1778.377          27.100  
E19  28634415.198 5         0.00000      2801.550          28.400    28632298.068 4         0.00000      2089.950          20.200  
E26  23165914.457 4      6595.29607       -92.316          35.400    23163793.732 3         0.00000       -68.787          27.600  
E33  25065013.644 3   -186287.40003      2157.114          41.700    25062895.903 3         0.00000      1610.527          24.300  
> 2023 09 07 19 34 00.4341741  0 22
G02  23430849.142 2   -246747.02701      2835.351          42.600           0.000 0         0.00000         0.000           0.000  
G08  22520094.044 3     78771.97801      -924.165          41.100    22517751.178 2     54137.13805      -690.103          30.900  
G10  21160717.231 2     84030.98201      -968.909          44.200    21158377.349 2     57685.08905      -723.490          31.200  
G18  24732222.723 4    300690.63703     -3468.826          34.200           0.000 0         0.00000         0.000           0.000  
G21  22559310.808 2   -195840.64401      2246.556          43.700           0.000 0         0.00000         0.000           0.000  
G23  23260742.413 3    206278.39802     -2369.900          35.800           0.000 0         0.00000         0.000           0.000  
G27  22754294.009 4    243545.20104     -2815.601          32.500    22751957.443 3         0.00000     -2103.550          27.500  
G28  23654125.271 4    -18228.40103      3352.951          34.800           0.000 0         0.00000         0.000           0.000  
G32  20557769.839 3    -28953.25102       315.720          38.900    20555438.350 3         0.00000       236.850          27.000  
R10  23925937.209 5         0.00000      1127.710          26.000  
R02  20737040.934 4   -158065.40809      1879.149          29.300  
R01  19707388.759 3    117520.01402     -1416.823          35.600  
R24  19256433.148 5         0.00000      -827.046          27.100  
R17  21084002.444 2   -271251.01101      3231.918          43.900  
R08  23151876.385 4    288990.68803     -3450.450          35.600  
E07  23505525.046 3     69702.14903      -810.321          41.900    23503405.211 2     48213.29909      -603.116          29.300  
E08  27012787.421 3    229782.80704     -2639.219          39.800    27010668.790 3         0.00000     -1970.264          26.500  
E13  25800866.222 4      8562.49608     -2379.802          33.200    25798752.076 2    142568.88909     -1775.620          29.700  
E19  28633882.164 6         0.00000      2802.550          24.600    28631765.627 3         0.00000      2097.650          23.700  
E26  23165928.853 4      6686.86807       -88.055          34.700    23163812.020 2      4822.61709       -65.156          29.200  
E33  25064602.028 3   -188447.39803      2164.687          41.000    25062492.088 3         0.00000      1617.171          25.000  
G24         0.000 0         0.00000         0.000           0.000    24510954.311 3         0.00000     -1762.300          27.300  
> 2023 09 07 19 34 01.4341741  0 22
G02  23430314.625 2   -249585.69101      2838.446          42.300           0.000 0         0.00000         0.000           0.000  
G08  22520266.138 3     79693.09001      -921.630          41.000    22517925.645 2     54824.97305      -688.339          31.700  
G10  21160900.406 2     84996.82101      -966.329          45.300    21158561.413 2     58406.27605      -721.453          30.800  
G18  24732888.571 4    304156.41204     -3466.496          33.300           0.000 0         0.00000         0.000           0.000  
G21  22558878.793 2   -198090.50101      2249.528          43.200           0.000 0         0.00000         0.000           0.000  
G23  23261194.792 4    208645.00603     -2367.271          35.200           0.000 0         0.00000         0.000           0.000  
G27  22754839.940 4    246357.66204     -2812.887          33.200    22752491.664 3         0.00000     -2102.150          27.800  
G28  23653488.513 4    -21584.47303      3355.362          34.400           0.000 0         0.00000         0.000           0.000  
G32  20557705.692 3    -29272.01502       318.052          38.400    20555377.187 3         0.00000       237.424          26.000  
R10  23925677.882 5         0.00000      1130.025          27.000  
R02  20736691.388 4   -159947.74504      1881.634          31.000  
R01  19707660.058 3    118933.69802     -1414.198          37.100  
R24  19256574.634 5         0.00000      -823.950          24.900  
R17  21083401.354 2   -274485.90701      3234.453          44.100  
R08  23152524.539 3    292437.69302     -3447.428          36.100  
E07  23505677.648 3     70508.91503      -807.168          41.900    23503558.720 3         0.00000      -603.090          26.800  
E08  27013288.068 3    232418.22004     -2635.695          40.400    27011170.938 3         0.00000     -1968.399          24.700  
E13  25801317.415 4     10938.73308     -2377.058          34.400    25799203.862 2    144342.41109     -1775.681          29.000  
E19  28633368.918 6         0.00000      2814.550          23.500    28631233.203 3         0.00000      2098.641          23.400  
E26  23165944.733 4      6771.21307       -84.959          35.600    23163827.603 3      4885.61909       -63.575          28.600  
E33  25064190.413 3   -190615.91103      2168.391          41.400    25062075.970 3         0.00000      1618.983          25.300  
G24         0.000 0         0.00000         0.000           0.000    24511403.392 3         0.00000     -1759.300          25.800  
> 2023 09 07 19 34 02.4341741  0 22
G02  23429768.101 2   -252426.42301      2841.894          42.000           0.000 0         0.00000         0.000           0.000  
G08  22520438.808 2     80613.25601      -920.210          41.500    22518102.520 2     55512.10805      -687.083          31.100  
G10  21161085.378 2     85962.37001      -966.676          42.900    21158746.089 2     59127.34205      -721.775          32.100  
G18  24733548.102 4    307623.81804     -3471.369          31.800           0.000 0         0.00000         0.000           0.000  
G21  22558456.986 2   -200342.08501      2252.465          42.700           0.000 0         0.00000         0.000           0.000  
G23  23261642.687 3    211012.25302     -2369.322          37.300           0.000 0         0.00000         0.000           0.000  
G27  22755375.365 4    249169.70409     -2813.882          31.800    22753026.792 3         0.00000     -2097.850          26.400  
G28  23652842.471 4    -24939.03703      3351.191          35.100           0.000 0         0.00000         0.000           0.000  
G32  20557653.812 3    -29590.54802       316.838          37.700    20555312.743 3         0.00000       236.700          26.500  
R10  23925519.608 5         0.00000      1128.787          27.300  
R02  20736328.040 4   -161830.82804      1882.348          30.300  
R01  19707925.685 3    120346.61202     -1413.288          38.600  
R24  19256708.652 5         0.00000      -826.430          27.000  
R17  21082791.887 2   -277722.35801      3237.280          44.600  
R08  23153167.282 3    295884.27202     -3447.202          38.900  
E07  23505832.344 3     71315.71103      -808.319          41.700    23503711.601 3         0.00000      -602.487          27.500  
E08  27013791.420 3    235053.23903     -2635.878          41.100    27011674.289 3         0.00000     -1967.795          26.700  
E13  25801773.982 4     13316.79308     -2381.393          34.500    25799654.461 2    146118.13809     -1777.637          29.000  
E19  28632808.609 6         0.00000      2813.400          22.800    28630698.075 3         0.00000      2099.139          23.300  
E26  23165967.820 4      6855.83606       -86.243          36.100    23163844.093 2      4948.80809       -63.300          30.000  
E33  25063778.186 3   -192786.12903      2170.764          41.800    25061664.965 3         0.00000      1622.274          26.700  
G24         0.000 0         0.00000         0.000           0.000    24511850.694 3         0.00000     -1756.350          26.000  
> 2023 09 07 19 34 03.4341741  0 23
G02  23429225.469 3   -255266.97302      2843.414          39.300           0.000 0         0.00000         0.000           0.000  
G08  22520618.091 2     81536.48401      -922.245          42.900    22518275.208 3         0.00000      -688.633          28.400  
G10  21161270.036 2     86932.83601      -970.096          46.000    21158930.171 2         0.00000      -724.294          28.700  
G18  24734198.053 4    311102.29709     -3482.522          31.600           0.000 0         0.00000         0.000           0.000  
G21  22558024.692 2   -202592.88801      2253.325          43.300           0.000 0         0.00000         0.000           0.000  
G23  23262091.768 3    213386.96209     -2375.193          36.700           0.000 0         0.00000         0.000           0.000  
G24  24514641.158 5         0.00000     -2360.400          23.600    24512298.274 3         0.00000     -1761.900          26.300  
G27  22755909.900 4    251989.45809     -2821.090          32.000           0.000 0         0.00000         0.000           0.000  
G28  23652200.006 4    -28282.59203      3340.269          34.000           0.000 0         0.00000         0.000           0.000  
G32  20557595.354 3    -29902.75802       311.620          36.900    20555255.175 3         0.00000       233.086          26.300  
R10  23925272.566 5         0.00000      1123.767          27.900  
R02  20735981.775 3   -163709.74602      1879.511          37.300  
R01  19708191.295 3    121763.00901     -1415.164          40.400  
R24  19256901.721 4     67580.97609      -832.531          31.100  
R23  22000446.697 6         0.00000     -4067.000          22.700  
R17  21082194.392 2   -280957.89801      3238.125          44.700  
R08  23153810.044 3    299334.78002     -3449.230          37.000  
E07  23505986.133 3     72128.00604      -812.486          40.500    23503863.000 3         0.00000      -606.196          26.500  
E08  27014290.286 3    237692.48105     -2638.632          37.500           0.000 0         0.00000         0.000           0.000  
E13  25802221.877 4     15705.33209     -2391.077          30.200    25800107.748 3         0.00000     -1785.438          26.600  
E19  28632268.978 5         0.00000      2806.150          26.000    28630162.039 3         0.00000      2094.450          23.600  
E26  23165980.716 4      6946.32207       -90.933          35.400    23163861.177 2      5016.38709       -65.473          30.500  
E33  25063365.087 3   -194955.61204      2171.728          40.400    25061246.753 3         0.00000      1622.427          27.800  
> 2023 09 07 19 34 04.4341741  0 21
G02  23428685.839 2   -258110.93401      2844.714          41.900           0.000 0         0.00000         0.000           0.000  
G08  22520796.171 3     82460.52202      -925.562          37.800    22518453.880 2     56891.53605      -691.017          32.300  
G10  21161455.323 2     87904.70801      -972.454          46.900    21159116.034 2     60577.54909      -726.113          30.400  
G18  24734854.896 4    314590.69609     -3492.452          32.600           0.000 0         0.00000         0.000           0.000  
G21  22557598.994 2   -204846.42601      2253.913          46.500           0.000 0         0.00000         0.000           0.000  
G23  23262548.667 4    215765.15309     -2379.513          33.600           0.000 0         0.00000         0.000           0.000  
G24  24515057.258 5         0.00000     -2359.361          27.700           0.000 0         0.00000         0.000           0.000  
G27  22756441.730 4    254814.00409     -2828.384          33.900    22754106.350 3         0.00000     -2110.200          24.700  
G28  23651573.439 4    -31616.72209      3329.803          31.500           0.000 0         0.00000         0.000           0.000  
G32  20557537.192 3    -30211.28102       306.344          38.300    20555196.124 3         0.00000       229.200          26.300  
R02  20735623.226 3   -165586.79702      1875.085          35.500  
R01  19708448.825 3    123179.18202     -1416.359          37.800  
R24  19257041.428 3     68416.73302      -838.455          35.200  
R17  21081585.816 2   -284196.16101      3238.915          43.500  
R08  23154457.901 3    302784.70402     -3449.738          38.100  
E07  23506139.328 3     72942.62604      -815.717          38.300    23504022.198 3     50633.09209      -609.305          28.600  
E08  27014797.233 4    240331.48309     -2638.285          34.700    27012676.508 4         0.00000     -1972.750          20.300  
E13  25802683.261 5         0.00000     -2403.300          29.500    25800567.928 3         0.00000     -1792.868          24.000  
E19  28631740.743 5         0.00000      2798.950          28.800    28629631.099 3         0.00000      2087.982          26.900  
E26  23166001.097 3      7039.94605       -95.254          37.200    23163878.575 2      5086.39209       -71.094          29.900  
E33  25062950.767 3   -197127.66603      2172.486          42.200    25060832.432 3         0.00000      1622.564          26.000  
> 2023 09 07 19 34 05.4341741  0 23
G02  23428141.130 2   -260957.74201      2851.570          42.200           0.000 0         0.00000         0.000           0.000  
G08  22520974.233 3     83386.40202      -923.635          35.900    22518630.163 1     57582.89103      -689.653          36.600  
G10  21161639.981 2     88875.33401      -965.520          41.800    21159298.912 2     61302.35005      -721.098          32.700  
G18  24735524.339 4    318086.81809     -3496.605          29.700           0.000 0         0.00000         0.000           0.000  
G21  22557167.887 2   -207102.23101      2260.305          46.000           0.000 0         0.00000         0.000           0.000  
G23  23262997.155 3    218143.35009     -2373.270          37.200           0.000 0         0.00000         0.000           0.000  
G24  24515489.570 4         0.00000     -2357.302          28.700           0.000 0         0.00000         0.000           0.000  
G27  22756977.155 3    257644.63609     -2830.061          35.800    22754642.979 3         0.00000     -2110.650          26.300  
G28  23650935.180 4    -34943.35509      3327.022          33.400           0.000 0         0.00000         0.000           0.000  
G32  20557478.438 3    -30517.30602       308.839          39.200    20555136.758 3         0.00000       230.884          26.400  
R10  23924849.258 6         0.00000      1128.800          21.000  
R02  20735277.554 4   -167461.70109      1876.399          30.200  
R01  19708720.421 4    124593.55403     -1409.431          34.400  
R24  19257199.701 4     69256.21803      -837.185          33.500  
R23  22001963.051 5         0.00000     -4080.550          25.000  
R17  21080982.038 2   -287437.40101      3246.288          45.600  
R08  23155104.850 3    306231.22402     -3439.728          38.900  
E07  23506293.414 3     73757.71804      -811.153          40.600    23504177.487 3         0.00000      -605.299          26.300  
E08  27015293.988 4    242967.64308     -2630.088          34.300    27013178.044 3         0.00000     -1961.800          22.300  
E13  25803137.141 3     20505.62605     -2401.780          37.000    25801024.216 3         0.00000     -1793.646          24.700  
E19  28631207.115 5         0.00000      2794.350          28.000    28629095.674 3         0.00000      2086.467          26.100  
E26  23166017.291 4      7135.67807       -92.859          35.500    23163896.863 3         0.00000       -69.550          27.800  
E33  25062536.149 2   -199302.29102      2179.055          44.000    25060420.520 3         0.00000      1628.054          23.300  
> 2023 09 07 19 34 06.4341741  0 23
G02  23427602.686 2   -263811.26301      2848.800          46.200           0.000 0         0.00000         0.000           0.000  
G08  22521144.215 3     84310.51302      -929.701          35.700    22518805.834 1     58272.88103      -694.269          36.800  
G10  21161823.767 2     89838.19601      -966.637          45.100    21159482.680 2     62021.27605      -721.705          32.300  
G18  24736198.580 3    321580.89702     -3496.403          36.200           0.000 0         0.00000         0.000           0.000  
G21  22556738.280 2   -209364.23301      2257.415          48.700           0.000 0         0.00000         0.000           0.000  
G23  23263448.331 3    220513.14501     -2373.065          39.500           0.000 0         0.00000         0.000           0.000  
G24  24515938.948 4         0.00000     -2349.500          32.200    24513604.179 3         0.00000     -1754.450          23.300  
G27  22757513.191 4    260476.05703     -2836.587          35.000    22755180.201 3         0.00000     -2118.544          27.100  
G28  23650307.722 4    -38270.15204      3322.053          32.800           0.000 0         0.00000         0.000           0.000  
G32  20557421.480 2    -30826.84201       304.636          41.900    20555078.893 3         0.00000       227.500          28.200  
R10  23924637.919 4    -80615.71607      1131.785          29.400  
R02  20734915.707 3   -169337.01402      1870.078          35.300  
R01  19708991.143 3    126000.71902     -1411.401          38.400  
R24  19257363.698 4     70093.19107      -842.195          29.600  
R23  22002725.416 4    354423.95507     -4088.889          29.200  
R17  21080373.148 2   -290685.58301      3243.351          47.100  
R08  23155744.906 2    309666.85101     -3438.781          42.400  
E07  23506451.111 2     74566.67402      -812.658          44.700    23504330.979 2     51845.60809      -606.898          29.300  
E08  27015792.541 3    245593.23004     -2628.339          38.900    27013679.005 3         0.00000     -1961.250          26.800  
E13  25803592.836 4     22906.66009     -2405.106          33.800    25801478.986 3         0.00000     -1796.075          25.300  
E19  28630682.474 6         0.00000      2785.900          24.200           0.000 0         0.00000         0.000           0.000  
E26  23166034.672 3      7226.95405       -95.483          37.400    23163915.447 2      5235.11309       -71.265          30.100  
E33  25062123.644 2   -201483.33702      2176.837          46.800           0.000 0         0.00000         0.000           0.000  
> 2023 09 07 19 34 07.4341741  0 23
G02  23427059.775 2   -266655.19401      2843.596          46.200           0.000 0         0.00000         0.000           0.000  
G08  22521325.000 3     85246.07502      -937.309          36.300    22518982.727 1     58971.55803      -699.974          35.900  
G10  21162009.629 2     90809.71801      -973.114          45.300    21159666.152 2     62746.74805      -726.833          31.600  
G18  24736862.614 3    325083.35402     -3506.680          38.600           0.000 0         0.00000         0.000           0.000  
G21  22556309.877 2   -211616.47101      2251.700          48.300           0.000 0         0.00000         0.000           0.000  
G23  23263896.522 3    222891.25402     -2380.416          38.400           0.000 0         0.00000         0.000           0.000  
G24  24516384.749 4     10562.38709     -2354.564          33.100    24514053.853 2         0.00000     -1759.250          29.400  
G27  22758068.998 4         0.00000     -2846.413          29.300    22755720.425 3         0.00000     -2125.700          26.800  
G28  23649681.155 4    -41585.81004      3311.602          33.000           0.000 0         0.00000         0.000           0.000  
G32  20557362.725 2    -31125.73101       296.410          42.300    20555022.843 3         0.00000       221.114          28.200  
R10  23924461.043 6         0.00000      1124.650          22.300  
R02  20734565.254 4   -171201.13403      1862.247          33.100  
R01  19709246.265 3    127417.23201     -1417.807          39.300  
R24  19257502.201 5         0.00000      -851.248          26.800  
R23  22003489.300 4         0.00000     -4098.786          28.800  
R17  21079769.963 2   -293924.03501      3237.999          47.600  
R08  23156390.058 3    313109.98802     -3444.129          38.200  
E07  23506603.696 2     75385.17102      -820.534          44.900    23504486.862 2     52456.93609      -612.800          29.600  
E08  27016292.298 3    248226.54604     -2634.434          39.100    27014177.855 3         0.00000     -1969.050          27.000  
E13  25804058.704 4         0.00000     -2418.650          30.300    25801941.574 3         0.00000     -1803.882          26.400  
E26  23166051.459 3      7328.54705      -103.797          37.200    23163934.032 2      5310.99009       -78.135          29.000  
E33  25061710.824 2   -203654.83502      2170.868          47.600           0.000 0         0.00000         0.000           0.000  
E19         0.000 0         0.00000         0.000           0.000    28628037.702 4         0.00000      2074.750          21.700  
> 2023 09 07 19 34 08.4341741  0 22
G02  23426518.347 2   -269501.78001      2849.484          45.700           0.000 0         0.00000         0.000           0.000  
G08  22521502.782 3     86181.56702      -933.346          36.600    22519161.696 1     59670.16503      -697.037          37.400  
G10  21162195.212 2     91783.08601      -974.112          45.000    21159853.218 2     63473.70504      -727.470          34.300  
G18  24737539.246 4    328593.51203     -3513.710          33.600           0.000 0         0.00000         0.000           0.000  
G21  22555880.881 2   -213870.76201      2256.808          48.400           0.000 0         0.00000         0.000           0.000  
G23  23264357.016 3    225273.49802     -2384.990          38.600           0.000 0         0.00000         0.000           0.000  
G24  24516835.942 3     12916.78209     -2355.894          36.500    24514505.343 3         0.00000     -1762.800          28.000  
G27  22758599.938 3    266165.89509     -2846.724          39.400    22756263.057 3         0.00000     -2125.316          23.000  
G28  23649043.489 3    -44894.19302      3305.634          37.000           0.000 0         0.00000         0.000           0.000  
G32  20557306.658 2    -31421.60301       295.446          42.400    20554966.775 3         0.00000       221.300          28.300  
R02  20734210.596 4   -173064.36903      1865.134          34.000  
R01  19709509.781 3    128834.12702     -1416.416          37.500  
R24  19257668.292 4     71793.56909      -852.571          33.400  
R23  22004267.562 4    362620.40203     -4104.816          32.700  
R17  21079162.295 2   -297164.36001      3242.925          48.200  
R08  23157027.114 2    316554.11901     -3444.923          43.100  
E07  23506760.504 2     76206.02502      -821.626          43.700    23504641.855 3         0.00000      -613.515          27.300  
E08  27016797.446 3    250860.90504     -2635.280          40.600    27014683.004 3         0.00000     -1968.375          26.400  
E13  25804516.197 3     27747.53004     -2421.632          38.400           0.000 0         0.00000         0.000           0.000  
E19  28629627.207 5         0.00000      2779.850          25.200           0.000 0         0.00000         0.000           0.000  
E26  23166073.655 4      7433.04606      -104.978          36.600    23163953.524 2      5388.93409       -78.665          29.900  
E33  25061295.613 2   -205828.30602      2175.792          46.300           0.000 0         0.00000         0.000           0.000  
> 2023 09 07 19 34 09.4341741  0 21
G02  23425976.326 2   -272353.26101      2851.137          42.500           0.000 0         0.00000         0.000           0.000  
G08  22521678.454 3     87113.36802      -932.071          35.500    22519338.868 1     60365.98603      -696.158          36.900  
G10  21162380.777 2     92759.10501      -978.794          42.900    21160038.505 2     64202.68309      -731.039          29.800  
G18  24738197.887 4    332110.66709     -3521.417          33.000           0.000 0         0.00000         0.000           0.000  
G21  22555449.180 2   -216129.36401      2258.007          45.400           0.000 0         0.00000         0.000           0.000  
G23  23264813.898 3    227661.77401     -2391.843          40.300           0.000 0         0.00000         0.000           0.000  
G24  24517284.116 3     15274.83309     -2361.257          37.400    24514955.628 3         0.00000     -1764.850          27.300  
G27  22759143.460 4    269012.23209     -2847.529          32.800           0.000 0         0.00000         0.000           0.000  
G28  23648410.325 4    -48196.83403      3299.731          34.000           0.000 0         0.00000         0.000           0.000  
G32  20557252.702 2    -31715.76101       292.022          42.100    20554908.928 2         0.00000       218.208          28.800  
R02  20733878.431 5         0.00000      1867.450          25.400  
R01  19709756.213 4    130250.93709     -1418.859          31.800  
R24  19257837.664 3     72647.26302      -855.806          35.000  
R23  22005024.535 4    366728.40009     -4111.183          29.800  
R17  21078555.812 2   -300408.32701      3242.997          47.800  
R08  23157671.079 2    320001.35201     -3450.366          42.000  
E07  23506917.887 3     77029.24004      -825.778          39.900    23504802.851 3     53684.75909      -616.417          28.700  
E08  27017298.407 3    253498.61004     -2640.710          38.300    27015184.872 3         0.00000     -1971.627          27.600  
E13  25804970.374 4     30172.78508     -2428.463          33.600    25802865.528 3         0.00000     -1812.650          23.800  
E26  23166094.037 3      7539.08105      -108.178          37.600    23163973.609 3         0.00000       -80.731          27.600  
E33  25060879.792 2   -208005.96302      2176.862          44.600           0.000 0         0.00000         0.000           0.000  
> 2023 09 07 19 34 10.4341741  0 21
G02  23425432.804 3   -275204.32902      2855.682          39.400           0.000 0         0.00000         0.000           0.000  
G08  22521858.034 3     88045.44802      -927.436          35.700    22519517.244 1     61062.12403      -692.649          37.600  
G10  21162565.139 2     93739.53001      -976.660          43.100    21160226.461 2     64934.83205      -729.309          31.400  
G18  24738868.830 4    335634.34709     -3520.407          29.900           0.000 0         0.00000         0.000           0.000  
G21  22555019.276 2   -218387.17001      2262.344          45.100           0.000 0         0.00000         0.000           0.000  
G23  23265258.477 3    230055.98202     -2391.439          37.000           0.000 0         0.00000         0.000           0.000  
G24  24517736.809 3     17639.08409     -2360.515          35.700    24515399.021 2         0.00000     -1763.400          29.900  
G27  22759689.687 4         0.00000     -2842.400          29.900    22757346.506 3         0.00000     -2130.500          22.000  
G28  23647791.261 4    -51495.10209      3301.860          29.900           0.000 0         0.00000         0.000           0.000  
G32  20557198.135 3    -32006.62801       294.921          40.300    20554854.658 2         0.00000       217.150          29.600  
R10  23923820.376 5         0.00000      1120.254          26.300  
R02  20733531.259 4   -176795.94904      1870.346          31.100  
R01  19710041.926 4    131671.01004     -1416.008          31.000  
R24  19257987.561 4     73504.34803      -853.067          32.900  
R17  21077949.627 2   -303650.68301      3246.998          43.300  
R08  23158309.338 3    323453.56802     -3448.988          39.000  
E07  23507074.084 3     77856.44804      -824.033          37.800    23504959.641 2     54302.47805      -614.135          31.400  
E08  27017798.461 4    256141.41409     -2640.159          32.000    27015685.222 4         0.00000     -1971.100          21.900  
E13  25805443.152 5         0.00000     -2428.250          27.600    25803321.817 3         0.00000     -1812.695          27.100  
E26  23166113.215 4      7648.41207      -105.858          35.500    23163995.788 3      5549.74509       -78.831          28.500  
E33  25060466.379 2   -210182.55902      2180.490          43.700    25058348.656 3         0.00000      1633.450          26.400  
> 2023 09 07 19 34 11.4341741  0 22
G02  23424889.579 2   -278066.29101      2862.262          42.200           0.000 0         0.00000         0.000           0.000  
G08  22522034.613 3     88966.50602      -920.733          38.000    22519692.637 1     61749.90703      -687.508          36.800  
G10  21162751.612 2     94711.02001      -971.699          43.900    21160411.730 2     65660.25905      -725.663          32.000  
G18  24739545.759 5         0.00000     -3513.496          27.100           0.000 0         0.00000         0.000           0.000  
G21  22554586.964 2   -220655.72801      2268.810          46.000           0.000 0         0.00000         0.000           0.000  
G23  23265714.765 4    232442.13304     -2386.367          32.400           0.000 0         0.00000         0.000           0.000  
G24  24518181.702 4     19994.10609     -2354.645          33.900    24515846.916 3         0.00000     -1758.909          27.700  
G27  22760219.719 4    274697.13809     -2835.588          32.800           0.000 0         0.00000         0.000           0.000  
G32  20557139.676 3    -32307.09701       300.386          41.000    20554797.700 2    -22489.61909       224.403          30.100  
R10  23923587.433 4    -86244.39309      1120.200          31.600  
R02  20733171.226 4   -178672.65109      1876.938          32.300  
R01  19710310.519 3    133081.33502     -1410.422          35.100  
R24  19258164.454 4     74351.80403      -847.671          33.900  
R23  22006581.059 6         0.00000     -4099.250          20.000  
R17  21077343.162 2   -306903.47001      3252.745          42.900  
R08  23158958.381 3    326897.23302     -3443.757          38.300  
E07  23507230.263 3     78674.34905      -817.963          37.600    23505114.931 2     54913.24309      -608.797          29.800  
E08  27018300.312 4    258775.95109     -2634.517          35.600           0.000 0         0.00000         0.000           0.000  
E13  25805903.629 5         0.00000     -2423.850          27.300    25803786.202 3         0.00000     -1808.444          26.100  
E19  28628047.003 6         0.00000      2781.950          20.200           0.000 0         0.00000         0.000           0.000  
E26  23166133.911 4      7748.17006       -99.778          36.000    23164013.169 3      5624.16409       -74.077          28.300  
E33  25060049.371 2   -212370.01002      2187.711          44.100    25057931.334 3         0.00000      1633.994          26.500  
> 2023 09 07 19 34 12.4341741  0 22
G02  23424341.555 2   -280922.53301      2852.109          43.000           0.000 0         0.00000         0.000           0.000  
G08  22522212.378 3     89893.37201      -931.080          39.500    22519868.308 1     62442.05003      -695.199          35.800  
G10  21162937.195 2     95688.91601      -982.293          44.500    21160598.203 2     66390.46105      -733.420          31.900  
G18  24740209.792 4         0.00000     -3525.569          28.500           0.000 0         0.00000         0.000           0.000  
G21  22554160.359 2   -222918.52001      2258.594          46.800           0.000 0         0.00000         0.000           0.000  
G23  23266172.258 4    234835.15209     -2397.488          30.800           0.000 0         0.00000         0.000           0.000  
G24  24518628.393 3     22355.88202     -2366.897          37.000    24516295.404 3         0.00000     -1767.481          26.800  
G27  22760763.835 3    277539.37802     -2845.955          37.600           0.000 0         0.00000         0.000           0.000  
G32  20557079.124 2    -32601.36101       289.817          41.600    20554741.929 2         0.00000       216.412          29.300  
R10  23923382.690 4    -87358.15703      1109.390          32.300  
R02  20732822.850 4   -180543.57703      1866.575          33.600  
R01  19710574.646 3    134498.03102     -1421.038          37.000  
R24  19258305.050 4     75205.79409      -858.537          34.400  
R23  22007317.947 6         0.00000     -4114.100          21.500  
R17  21076733.678 2   -310149.97801      3241.965          42.000  
R08  23159618.523 3    330347.39702     -3454.576          38.300  
E07  23507389.462 3     79498.68004      -828.534          38.900    23505271.424 2     55527.85009      -617.942          30.000  
E08  27018809.352 3    261416.85004     -2645.039          39.500           0.000 0         0.00000         0.000           0.000  
E13  25806358.416 4      1507.77609     -2432.418          30.400    25804246.678 3         0.00000     -1816.661          26.400  
E19  28627504.074 4     -1491.13108      2779.884          33.500    28625389.038 4         0.00000      2079.500          20.500  
E26  23166155.794 3      7854.03805      -110.125          36.800    23164033.568 3      5703.30209       -82.342          28.400  
E33  25059635.661 2   -214551.74102      2177.711          44.600    25057516.734 3         0.00000      1626.049          27.700  
> 2023 09 07 19 34 13.4341741  0 22
G02  23423804.332 2   -283776.07901      2856.224          42.300           0.000 0         0.00000         0.000           0.000  
G08  22522387.456 3     90823.12502      -927.154          38.400    22520044.887 1     63136.34103      -692.402          35.200  
G10  21163123.057 2     96669.88401      -978.351          44.700    21160784.676 2     67123.01605      -730.513          31.100  
G18  24740876.233 4    346192.02809     -3521.563          33.700           0.000 0         0.00000         0.000           0.000  
G21  22553728.658 2   -225178.52301      2262.647          45.600           0.000 0         0.00000         0.000           0.000  
G23  23266627.638 4    237231.55109     -2393.793          31.300           0.000 0         0.00000         0.000           0.000  
G24  24519088.573 4     24721.56909     -2363.220          33.800    24516743.892 3         0.00000     -1763.600          23.200  
G27  22761306.170 3    280383.78102     -2841.614          36.900           0.000 0         0.00000         0.000           0.000  
G28  23645881.283 5         0.00000      3299.118          27.000           0.000 0         0.00000         0.000           0.000  
G32  20557029.060 3    -32892.43401       293.569          41.000    20554687.677 2         0.00000       219.211          29.300  
R10  23923176.428 4    -88468.84109      1112.580          32.400  
R02  20732472.100 4   -182411.74703      1870.877          33.800  
R01  19710833.363 3    135917.97102     -1417.365          36.600  
R24  19258485.224 4     76063.35903      -855.204          32.600  
R17  21076125.992 2   -313393.39601      3245.968          41.500  
R08  23160255.282 3    333800.18109     -3450.725          36.700  
E07  23507543.250 3     80326.14904      -825.227          38.500    23505428.825 2     56145.79009      -610.750          29.500  
E08  27019307.015 3    264060.99204     -2641.826          38.700           0.000 0         0.00000         0.000           0.000  
E13  25806824.599 4      3939.46509     -2428.568          29.700    25804710.453 3         0.00000     -1816.663          24.300  
E19  28626971.651 4     -4271.90709      2783.394          32.500    28624862.007 3         0.00000      2079.250          25.800  
E26  23166173.785 4      7963.01207      -106.715          35.600    23164053.339 3         0.00000       -86.417          27.400  
E33  25059220.451 2   -216730.70903      2181.328          43.600    25057101.820 3         0.00000      1630.150          25.200  
> 2023 09 07 19 34 14.4341741  0 22
G02  23423260.200 2   -286625.49701      2843.763          43.600           0.000 0         0.00000         0.000           0.000  
G08  22522564.332 3     91756.74101      -938.457          39.600    22520223.263 1     63833.51403      -700.818          36.400  
G10  21163310.438 2     97654.57701      -988.720          46.000    21160972.946 2     67858.35105      -738.377          31.400  
G18  24741545.379 4    349718.74009     -3528.568          35.000           0.000 0         0.00000         0.000           0.000  
G21  22553300.569 2   -227434.41401      2250.479          47.100           0.000 0         0.00000         0.000           0.000  
G23  23267090.209 4    239631.12809     -2402.610          32.400           0.000 0         0.00000         0.000           0.000  
G24  24519538.858 4     27091.65209     -2374.950          35.300    24517196.882 3         0.00000     -1774.100          25.000  
G27  22761849.081 3    283231.12702     -2850.747          37.500           0.000 0         0.00000         0.000           0.000  
G32  20556972.695 2    -33179.86501       283.629          41.500    20554632.516 2         0.00000       211.757          29.500  
R10  23922953.083 4         0.00000      1100.169          28.800  
R02  20732123.742 4   -184276.05003      1859.786          34.900  
R01  19711111.275 3    137342.04502     -1428.846          38.200  
R24  19258645.905 4     76924.82203      -865.323          33.300  
R23  22008863.984 6         0.00000     -4112.000          21.900  
R17  21075526.699 2   -316632.09301      3233.026          43.300  
R08  23160890.539 3    337257.75109     -3461.334          37.000  
E07  23507699.744 3     81157.32704      -835.026          39.900    23505585.912 2     56766.45809      -623.106          29.700  
E08  27019813.664 3    266708.83204     -2651.853          38.400           0.000 0         0.00000         0.000           0.000  
E13  25807290.171 4      6373.60009     -2435.943          31.800    25805176.042 3         0.00000     -1819.114          23.900  
E19  28626445.509 4     -7050.10908      2774.714          33.500    28624336.179 3         0.00000      2072.080          26.900  
E26  23166197.761 3      8075.54805      -116.250          37.300    23164075.832 3         0.00000       -85.150          26.700  
E33  25058805.537 2   -218905.49702      2169.625          44.300    25056687.796 3         0.00000      1621.300          27.100  
> 2023 09 07 19 34 15.4341741  0 22
G02  23422721.180 2   -289465.88301      2837.756          42.100           0.000 0         0.00000         0.000           0.000  
G08  22522742.114 3     92697.89301      -943.208          40.000    22520402.529 1     64536.33503      -704.307          36.300  
G10  21163498.708 2     98644.32401      -989.725          45.300    21161160.920 2     68597.43905      -739.184          32.400  
G18  24742222.605 4    353245.53109     -3524.464          33.800           0.000 0         0.00000         0.000           0.000  
G21  22552868.258 2   -229681.59101      2244.761          46.200           0.000 0         0.00000         0.000           0.000  
G23  23267542.309 4    242033.38409     -2400.310          34.300           0.000 0         0.00000         0.000           0.000  
G24  24519980.750 3     29467.78209     -2376.589          37.000    24517650.169 2    152332.71409     -1774.715          30.000  
G27  22762389.305 4    286082.63503     -2851.885          35.300           0.000 0         0.00000         0.000           0.000  
G32  20556922.631 2    -33462.59401       282.528          42.100    20554577.653 2         0.00000       211.031          29.100  
R10  23922761.218 4    -90674.37709      1100.400          33.400  
R02  20731778.384 4   -186133.74203      1856.191          34.000  
R01  19711366.694 3    138773.10202     -1432.122          35.100  
R24  19258810.199 4     77791.43803      -866.929          32.700  
R23  22009629.351 5         0.00000     -4114.500          25.300  
R17  21074929.831 2   -319861.67601      3227.029          43.600  
R08  23161544.085 3    340720.30402     -3462.628          39.800  
E07  23507861.333 3     81993.39604      -836.233          40.200    23505746.594 2     57390.73505      -625.142          31.000  
E08  27020315.515 3    269362.18105     -2653.533          37.400           0.000 0         0.00000         0.000           0.000  
E13  25807753.352 4      8808.45509     -2434.187          31.100    25805637.408 3         0.00000     -1816.574          24.400  
E19  28625913.679 4     -9824.34108      2773.969          34.200    28623804.942 3         0.00000      2071.439          27.600  
E26  23166221.145 3      8192.81504      -117.423          37.700    23164098.308 3         0.00000       -86.800          27.900  
E33  25058393.921 2   -221071.81102      2164.113          44.500    25056276.791 3         0.00000      1618.100          27.900  
> 2023 09 07 19 34 16.4341741  0 23
G02  23422179.752 2   -292302.64901      2835.826          42.500           0.000 0         0.00000         0.000           0.000  
G08  22522921.398 3     93641.93002      -945.282          36.700    22520581.516 1     65241.19203      -705.718          37.400  
G10  21163686.979 2     99632.04301      -985.158          43.700    21161347.690 2     69335.01805      -735.524          32.300  
G18  24742892.344 4    356765.43809     -3515.708          33.800           0.000 0         0.00000         0.000           0.000  
G21  22552445.858 2   -231925.71601      2243.281          46.600           0.000 0         0.00000         0.000           0.000  
G23  23267997.690 3    244431.01809     -2393.520          41.100           0.000 0         0.00000         0.000           0.000  
G24  24520434.648 3     31842.29309     -2371.771          35.800    24518103.752 3         0.00000     -1771.135          25.400  
G27  22762930.140 4    288933.80709     -2851.697          33.800    22760596.557 3         0.00000     -2129.500          25.100  
G28  23644014.476 4     -1442.54509      3305.152          30.000           0.000 0         0.00000         0.000           0.000  
G32  20556864.766 2    -33746.62501       285.576          41.800    20554523.994 2         0.00000       213.156          29.000  
R10  23922558.551 4    -91777.52209      1107.482          30.300  
R02  20731422.225 4   -187989.82709      1855.941          31.800  
R01  19711630.524 4    140204.28103     -1430.086          32.900  
R24  19258946.607 3     78657.19902      -864.850          35.100  
R23  22010394.124 5         0.00000     -4108.629          27.400  
R17  21074318.550 2   -323088.07101      3225.803          47.700  
R08  23162184.752 3    344180.47109     -3457.748          39.700  
E07  23508019.624 3     82827.53404      -832.177          40.600    23505905.792 2     58013.66309      -621.907          29.700  
E08  27020820.367 4    272012.86109     -2647.879          35.400    27018706.832 3         0.00000     -1977.100          25.900  
E13  25808209.937 4     11237.92309     -2425.166          35.500    25806100.589 3         0.00000     -1810.779          26.700  
E19  28625393.244 5         0.00000      2777.500          28.800    28623279.708 3         0.00000      2071.900          22.500  
E26  23166242.434 4      8308.48706      -114.237          36.500    23164119.004 2      6066.70709       -85.384          29.700  
E33  25057982.899 2   -223235.35602      2162.932          45.300    25055866.065 3         0.00000      1615.569          26.700  
> 2023 09 07 19 34 17.4341741  0 22
G02  23421638.917 2   -295136.53301      2831.513          45.700           0.000 0         0.00000         0.000           0.000  
G08  22523099.163 3     94590.08602      -951.070          35.500    22520761.689 1     65949.19403      -710.350          36.500  
G10  21163875.842 2    100614.33001      -980.680          45.200    21161533.866 2     70068.37705      -732.143          32.800  
G18  24743554.877 3    360276.20609     -3507.704          36.900           0.000 0         0.00000         0.000           0.000  
G21  22552018.641 2   -234167.19101      2239.366          48.200           0.000 0         0.00000         0.000           0.000  
G23  23268450.680 3    246818.96609     -2384.426          36.800           0.000 0         0.00000         0.000           0.000  
G24  24520878.040 4     34211.14909     -2367.302          34.800    24518555.242 3         0.00000     -1768.500          26.000  
G27  22763473.662 4    291785.48609     -2852.866          34.500    22761139.171 3         0.00000     -2133.100          28.300  
G28  23643388.816 4     -4751.06609      3309.759          34.000           0.000 0         0.00000         0.000           0.000  
G32  20556812.904 2    -34033.13501       286.449          42.200    20554468.816 2    -23778.46009       213.932          29.900  
R10  23922348.694 4    -92888.55609      1112.882          31.500  
R02  20731079.259 3   -189843.21709      1850.122          35.900  
R01  19711909.622 3    141633.51301     -1429.215          40.100  
R24  19259126.781 4     79521.63507      -864.709          29.900  
R23  22011156.786 4         0.00000     -4102.765          28.500  
R17  21073716.553 2   -326312.47901      3222.407          47.200  
R08  23162818.509 3    347633.23001     -3450.469          40.000  
E07  23508179.119 2     83657.36502      -828.942          44.000    23506061.675 3     58633.11409      -618.554          28.400  
E08  27021321.607 3    274656.41704     -2641.491          38.900    27019209.276 2    192063.32909     -1972.993          29.200  
E13  25808674.619 4     13658.03709     -2417.870          36.400    25806560.472 3         0.00000     -1797.900          22.900  
E26  23166260.425 4      8421.30507      -112.701          34.800    23164141.480 2      6150.89009       -84.045          29.500  
E33  25057572.191 2   -225396.71902      2159.595          46.900    25055454.450 3         0.00000      1611.378          26.700  
> 2023 09 07 19 34 18.4341741  0 23
G02  23421099.601 2   -297966.94301      2831.055          43.200           0.000 0         0.00000         0.000           0.000  
G08  22523280.244 4     95542.23404      -950.935          32.700    22520942.159 2     66660.38604      -710.107          34.000  
G10  21164060.815 2    101594.42301      -979.671          42.900    21161717.634 2     70800.14909      -731.609          30.300  
G18  24744220.428 4    363782.78709     -3504.230          34.000           0.000 0         0.00000         0.000           0.000  
G21  22551592.943 2   -236405.50901      2239.059          44.600           0.000 0         0.00000         0.000           0.000  
G23  23268899.761 3    249202.49902     -2382.506          38.700           0.000 0         0.00000         0.000           0.000  
G24  24521339.721 4     36577.92103     -2365.552          35.400    24519005.231 3         0.00000     -1761.397          22.800  
G27  22764019.278 4    294639.25209     -2851.930          33.400    22761683.008 2    205788.96609     -2129.528          30.400  
G28  23642759.840 5         0.00000      3312.802          27.800           0.000 0         0.00000         0.000           0.000  
G32  20556754.445 2    -34319.67301       287.678          43.100    20554414.267 2    -23992.41209       214.790          29.800  
R10  23922135.243 4         0.00000      1113.908          28.800  
R02  20730728.509 3   -191692.05102      1851.102          35.800  
R01  19712174.639 3    143062.85601     -1428.975          40.700  
R24  19259282.070 4     80386.50409      -863.785          31.100  
R23  22011937.142 4    403698.16109     -4099.524          30.000  
R17  21073114.590 2   -329533.93101      3221.814          47.800  
R08  23163472.351 3    351082.46301     -3449.058          41.100  
E07  23508333.798 3     84485.83303      -827.790          42.500    23506218.168 3     59251.77009      -617.787          28.800  
E08  27021829.164 3    277296.47204     -2639.721          38.800    27019710.830 3         0.00000     -1971.379          23.500  
E13  25809131.204 4     16074.45809     -2414.848          31.700    25807019.151 3         0.00000     -1803.218          26.800  
E19  28624336.179 4     -1208.85709      2772.736          30.100           0.000 0         0.00000         0.000           0.000  
E26  23166284.995 4      8533.67507      -111.475          35.100    23164162.473 2      6234.89709       -83.130          29.400  
E33  25057162.372 2   -227555.30302      2159.202          45.900    25055043.445 3         0.00000      1612.408          27.400  
> 2023 09 07 19 34 19.4341741  0 23
G02  23420562.361 2   -300797.68201      2830.981          44.400           0.000 0         0.00000         0.000           0.000  
G08  22523468.515 4     96491.86203      -947.513          33.800    22521122.333 2     67369.47504      -707.493          34.000  
G10  21164246.991 2    102574.78301      -979.854          43.800    21161905.311 2     71532.34609      -731.733          30.400  
G18  24744898.543 4    367283.99709     -3497.953          32.000           0.000 0         0.00000         0.000           0.000  
G21  22551163.040 2   -238644.34601      2239.243          45.300           0.000 0         0.00000         0.000           0.000  
G23  23269360.849 3    251585.75702     -2382.979          38.900           0.000 0         0.00000         0.000           0.000  
G24  24521783.707 4     38945.40909     -2369.223          31.900           0.000 0         0.00000         0.000           0.000  
G27  22764568.802 4    297488.38504     -2845.568          31.900    22762224.418 3         0.00000     -2124.602          27.800  
G28  23642122.192 4    -11377.94709      3321.305          31.900           0.000 0         0.00000         0.000           0.000  
G32  20556705.567 2    -34608.24801       290.655          43.400    20554359.700 2    -24207.91605       217.061          31.500  
R10  23921929.575 4    -95114.27609      1110.770          30.600  
R02  20730381.652 4   -193544.88903      1855.574          34.900  
R01  19712445.658 3    144492.48401     -1429.431          39.900  
R24  19259458.353 4         0.00000      -860.472          28.200  
R23  22012684.535 4    407795.37309     -4093.058          29.000  
R17  21072511.702 2   -332755.02301      3221.179          46.000  
R08  23164112.111 3    354533.32701     -3451.587          41.600  
E07  23508493.293 2     85313.66103      -827.072          43.300    23506375.866 3     59869.93209      -617.078          28.200  
E08  27022329.811 3    279938.22804     -2642.531          39.400    27020213.885 2    196007.72009     -1973.333          29.200  
E13  25809592.273 4     18487.20507     -2410.072          34.700    25807480.238 3         0.00000     -1799.364          23.800  
E19  28623806.146 5         0.00000      2779.100          25.600    28621695.002 4         0.00000      2075.000          20.800  
E26  23166305.394 4      8644.24806      -109.025          35.800    23164183.762 2      6317.54809       -81.302          29.900  
E33  25056750.163 2   -229714.18102      2159.167          45.800    25054632.422 2   -160650.56409      1612.435          29.000  
> 2023 09 07 19 34 20.4341741  0 23
G02  23420023.934 2   -303628.07801      2827.801          44.900           0.000 0         0.00000         0.000           0.000  
G08  22523638.794 4     97438.01409      -947.454          30.700    22521302.506 1     68075.90903      -707.178          35.700  
G10  21164435.558 2    103555.08901      -982.358          44.200    21162092.674 2     72264.36405      -733.695          32.300  
G18  24745554.201 4    370779.13409     -3494.478          33.200           0.000 0         0.00000         0.000           0.000  
G21  22550737.638 2   -240883.13801      2236.342          47.500           0.000 0         0.00000         0.000           0.000  
G23  23269812.635 3    253968.54202     -2383.983          35.600           0.000 0         0.00000         0.000           0.000  
G24  24522241.496 4         0.00000     -2376.904          28.900    24519904.004 3         0.00000     -1771.600          22.500  
G27  22765120.125 4         0.00000     -2839.624          28.900           0.000 0         0.00000         0.000           0.000  
G28  23641505.518 4         0.00000      3328.448          28.700           0.000 0         0.00000         0.000           0.000  
G32  20556646.516 2    -34900.01601       291.042          43.000    20554304.540 2    -24425.83505       217.203          31.000  
R10  23921717.328 4         0.00000      1105.806          28.400  
R02  20730038.388 4   -195402.13503      1856.822          33.600  
R01  19712711.861 3    145922.45401     -1432.385          39.000  
R24  19259600.450 5         0.00000      -859.418          26.500  
R23  22013455.904 4    411881.94309     -4084.249          30.300  
R17  21071913.910 2   -335974.90701      3216.854          47.000  
R08  23164761.469 4    357986.62909     -3457.036          35.600  
E07  23508651.880 2     86140.06902      -828.095          43.900    23506531.749 3     60487.08409      -619.058          28.700  
E08  27022828.975 4    282581.97806     -2646.741          35.900    27020716.032 3         0.00000     -1976.919          25.700  
E13  25810053.657 4         0.00000     -2404.900          31.300    25807937.417 3         0.00000     -1796.611          24.000  
E26  23166326.666 3      8751.93105      -108.780          37.100    23164205.034 2      6397.80909       -81.371          30.900  
E33  25056339.141 2   -231873.06002      2156.399          46.700    25054227.106 3         0.00000      1609.937          23.400  
E19         0.000 0         0.00000         0.000           0.000    28621164.672 3         0.00000      2078.450          22.200  
> 2023 09 07 19 34 21.4341741  0 22
G02  23419484.915 2   -306455.55001      2825.106          46.900           0.000 0         0.00000         0.000           0.000  
G08  22523824.970 4     98383.85209      -947.286          35.300    22521482.994 1     68782.18103      -707.169          36.100  
G10  21164621.420 2    104537.17601      -983.600          45.400    21162280.351 1     72997.79503      -734.465          35.200  
G18  24746220.031 4    374270.51509     -3490.797          33.500           0.000 0         0.00000         0.000           0.000  
G21  22550314.628 2   -243119.28701      2233.907          47.600           0.000 0         0.00000         0.000           0.000  
G23  23270265.922 3    256351.33009     -2384.201          35.800           0.000 0         0.00000         0.000           0.000  
G24  24522690.874 5         0.00000     -2379.400          25.400           0.000 0         0.00000         0.000           0.000  
G27  22765651.047 4    303166.26409     -2837.237          30.100    22763304.883 3         0.00000     -2119.000          24.900  
G28  23640865.758 4         0.00000      3332.650          29.200           0.000 0         0.00000         0.000           0.000  
G32  20556590.762 3    -35192.33101       291.303          39.600    20554249.083 2    -24644.13205       217.644          30.900  
R10  23921574.324 5         0.00000      1104.300          23.300  
R02  20729685.231 4   -197260.39303      1857.192          34.800  
R01  19712975.080 3    147354.90102     -1434.548          35.800  
R24  19259735.061 5         0.00000      -858.279          25.500  
R23  22014233.556 4    415964.43609     -4083.048          33.200  
R17  21071309.819 2   -339191.17201      3213.607          48.100  
R08  23165421.611 4    361443.21309     -3458.072          33.300  
E07  23508808.374 2     86967.29503      -828.327          43.300    23506691.244 3     61104.96309      -619.592          28.100  
E08  27023341.016 4    285229.03009     -2648.528          33.800    27021223.886 3         0.00000     -1979.700          22.900  
E13  25810505.740 4     23318.11706     -2398.043          36.500    25808391.908 3         0.00000     -1793.832          25.500  
E26  23166345.268 4      8859.24306      -108.193          36.400    23164223.932 2      6477.97905       -81.037          33.800  
E33  25055928.729 2   -234029.31602      2154.324          46.000           0.000 0         0.00000         0.000           0.000  
> 2023 09 07 19 34 22.4341741  0 23
G02  23418947.692 2   -309276.18101      2818.295          46.400           0.000 0         0.00000         0.000           0.000  
G08  22524006.941 3     99334.36309      -951.744          36.500    22521664.965 1     69491.95403      -710.556          37.900  
G10  21164808.190 2    105523.94701      -988.463          45.000    21162468.011 2     73734.71604      -738.018          34.200  
G18  24746892.475 3    377761.56709     -3490.009          37.000           0.000 0         0.00000         0.000           0.000  
G21  22549889.523 2   -245348.92101      2227.376          47.700           0.000 0         0.00000         0.000           0.000  
G23  23270724.897 3    258737.98609     -2387.607          38.200           0.000 0         0.00000         0.000           0.000  
G24  24523145.958 4     46078.56409     -2383.386          32.400           0.000 0         0.00000         0.000           0.000  
G27  22766189.177 5         0.00000     -2838.970          27.900    22763848.405 2    214285.52409     -2119.842          30.500  
G28  23640234.095 4    -21368.07509      3333.094          29.800           0.000 0         0.00000         0.000           0.000  
G32  20556529.599 3    -35481.38802       288.432          36.400    20554193.015 3         0.00000       215.303          27.600  
R10  23921297.633 6         0.00000      1100.950          22.900  
R02  20729324.290 3   -199114.76202      1853.328          36.700  
R01  19713247.897 4    148793.21004     -1440.149          31.200  
R24  19259917.032 5         0.00000      -861.682          27.300  
R23  22014997.125 4    420048.34703     -4082.454          34.800  
R17  21070710.543 2   -342400.22001      3206.116          48.100  
R08  23166039.470 4    364905.08309     -3464.015          32.300  
E07  23508967.869 3     87798.60904      -832.163          40.400    23506851.332 2     61725.85709      -621.805          29.300  
E08  27023844.665 5         0.00000     -2657.700          26.500           0.000 0         0.00000         0.000           0.000  
E13  25810966.234 3         0.00000     -2403.700          37.100    25808850.883 3         0.00000     -1793.726          26.500  
E19  28622217.845 6         0.00000      2788.100          23.800    28620103.105 3         0.00000      2082.300          22.000  
E26  23166369.245 3      8970.02704      -111.117          39.300    23164245.518 2      6560.64405       -82.960          33.200  
E33  25055519.818 2   -236179.11302      2147.933          45.800    25053398.779 3         0.00000      1604.500          22.500  
> 2023 09 07 19 34 23.4341741  0 23
G02  23418412.250 2   -312095.04601      2824.831          45.800           0.000 0         0.00000         0.000           0.000  
G08  22524185.614 4    100284.93409      -944.704          34.800    22521844.545 1     70201.87203      -705.395          36.900  
G10  21164997.368 2    106510.87301      -980.741          43.600    21162656.282 2     74471.70404      -732.364          33.700  
G18  24747552.006 3    381249.02109     -3480.926          35.500           0.000 0         0.00000         0.000           0.000  
G21  22549465.308 2   -247576.98501      2234.028          47.500           0.000 0         0.00000         0.000           0.000  
G23  23271183.279 3    261123.97509     -2379.743          38.700           0.000 0         0.00000         0.000           0.000  
G24  24523589.350 4     48461.25809     -2376.560          30.800           0.000 0         0.00000         0.000           0.000  
G27  22766714.725 5         0.00000     -2831.170          27.200    22764385.924 3         0.00000     -2113.308          27.600  
G28  23639611.123 4         0.00000      3341.115          29.000           0.000 0         0.00000         0.000           0.000  
G32  20556475.643 3    -35771.23202       296.110          36.000    20554139.059 2         0.00000       223.050          29.000  
R10  23921077.272 5         0.00000      1107.350          23.800  
R02  20728984.622 3   -200969.68602      1861.109          36.100  
R01  19713503.316 4    150232.45204     -1433.038          30.300  
R24  19260078.324 5         0.00000      -856.278          26.000  
R23  22015756.192 4    424128.15103     -4073.093          33.500  
R17  21070108.563 2   -345607.22701      3212.978          46.800  
R08  23166699.926 4    368367.93203     -3456.591          35.200  
E07  23509127.050 3     88629.73404      -825.253          39.400    23507009.326 2     62346.47609      -614.354          29.000  
E08  27024355.223 5         0.00000     -2651.200          26.400           0.000 0         0.00000         0.000           0.000  
E13  25811423.708 3     28118.48505     -2393.657          37.400    25809308.079 3         0.00000     -1786.571          26.300  
E26  23166388.422 3      9080.00604      -104.148          38.100    23164265.603 2      6642.80105       -75.170          33.200  
E33  25055111.797 2   -238327.39402      2154.022          45.100    25052992.852 3         0.00000      1609.333          24.000  
E19         0.000 0         0.00000         0.000           0.000    28619574.573 3         0.00000      2088.150          25.400  
> 2023 09 07 19 34 24.4341741  0 23
G02  23417875.027 2   -314921.54301      2822.838          47.000           0.000 0         0.00000         0.000           0.000  
G08  22524370.586 3    101227.76402      -946.390          36.000    22522024.422 1     70905.87103      -706.709          36.900  
G10  21165182.637 2    107489.78401      -982.546          44.800    21162842.755 2     75202.68404      -733.678          34.300  
G18  24748215.760 3    384727.85002     -3481.576          36.900           0.000 0         0.00000         0.000           0.000  
G21  22549039.610 2   -249812.80301      2232.238          48.200           0.000 0         0.00000         0.000           0.000  
G23  23271627.579 3    263502.05401     -2381.060          40.500           0.000 0         0.00000         0.000           0.000  
G24  24524045.935 4     50836.91309     -2379.077          32.000           0.000 0         0.00000         0.000           0.000  
G27  22767291.822 5         0.00000     -2830.024          27.100    22764925.555 3         0.00000     -2114.800          27.900  
G28  23638977.662 4    -28047.11907      3341.617          29.900           0.000 0         0.00000         0.000           0.000  
G32  20556416.278 3    -36069.17302       294.241          36.400    20554083.585 2         0.00000       219.628          29.100  
R10  23920860.522 5         0.00000      1098.550          27.600  
R02  20728643.453 3   -202832.78002      1859.368          37.600  
R01  19713776.429 4    151663.83407     -1435.260          29.400  
R24  19260262.389 5         0.00000      -854.800          23.500  
R23  22016523.077 4    428198.79803     -4074.243          34.600  
R17  21069508.677 2   -348821.56701      3210.391          48.000  
R08  23167339.075 4    371822.62303     -3458.323          35.800  
E07  23509283.543 3     89452.76004      -826.248          40.500    23507164.616 2     62961.08609      -617.173          30.100  
E08  27024851.664 5         0.00000     -2648.750          26.500           0.000 0         0.00000         0.000           0.000  
E13  25811874.291 3     30509.09305     -2393.678          37.600    25809764.664 3         0.00000     -1787.796          26.500  
E19  28621159.873 6         0.00000      2798.300          21.200    28619038.834 3         0.00000      2088.763          24.100  
E26  23166408.822 3      9181.68204      -104.823          39.100    23164285.689 2      6718.66405       -78.585          33.200  
E33  25054701.979 2   -240483.40002      2152.800          46.000    25052580.643 3         0.00000      1607.080          26.100  
> 2023 09 07 19 34 25.4341741  0 23
G02  23417339.306 2   -317740.52701      2817.090          47.300           0.000 0         0.00000         0.000           0.000  
G08  22524547.165 3    102178.40602      -953.009          37.100    22522205.189 1     71615.73003      -711.691          36.700  
G10  21165368.202 2    108476.11101      -988.642          45.400    21163029.524 2     75939.25604      -738.202          34.000  
G18  24748883.388 3    388213.34002     -3488.499          37.400           0.000 0         0.00000         0.000           0.000  
G21  22548617.210 2   -252041.02501      2226.217          48.000           0.000 0         0.00000         0.000           0.000  
G23  23272080.552 3    265886.91001     -2387.252          40.800           0.000 0         0.00000         0.000           0.000  
G24  24524506.726 4     53219.92303     -2385.273          34.200    24522171.642 3         0.00000     -1778.100          22.600  
G27  22767804.160 5         0.00000     -2839.230          26.300    22765463.981 2         0.00000     -2119.643          29.400  
G28  23638324.413 4    -31385.38709      3334.384          30.400           0.000 0         0.00000         0.000           0.000  
G32  20556359.914 3    -36359.45802       287.482          36.600    20554027.832 2         0.00000       214.900          29.200  
R10  23920704.640 5         0.00000      1096.455          27.400  
R02  20728301.394 3   -204688.09302      1852.756          37.900  
R01  19714037.258 4    153103.05007     -1441.497          29.900  
R24  19260382.603 5         0.00000      -861.028          26.400  
R23  22017273.750 4    432276.90903     -4081.484          34.400  
R17  21068916.591 2   -352027.98101      3204.277          48.200  
R08  23167986.636 3    375284.69802     -3464.012          37.400  
E07  23509438.239 3     90283.38304      -832.787          39.600    23507321.999 3     63581.34109      -621.903          28.600  
E08  27025345.122 6         0.00000     -2652.950          23.600           0.000 0         0.00000         0.000           0.000  
E13  25812334.488 3     32907.11204     -2400.762          39.300    25810220.045 3         0.00000     -1792.791          26.900  
E19  28620609.144 5         0.00000      2789.800          25.000    28618508.505 3         0.00000      2083.700          24.200  
E26  23166428.000 3      9291.00804      -111.656          39.000    23164306.070 2      6800.28905       -83.460          32.800  
E33  25054293.661 2   -242631.82002      2146.632          46.500    25052171.732 3         0.00000      1602.715          25.300  
> 2023 09 07 19 34 26.4341741  0 22
G02  23416802.677 2   -320558.99101      2824.014          46.000           0.000 0         0.00000         0.000           0.000  
G08  22524723.150 3    103131.53202      -948.983          37.200    22522386.566 1     72327.51003      -708.704          36.800  
G10  21165556.473 2    109464.38601      -982.930          43.900    21163217.201 2     76677.32705      -733.993          31.500  
G18  24749532.745 4    391703.82304     -3488.115          33.200           0.000 0         0.00000         0.000           0.000  
G21  22548191.495 2   -254268.36401      2232.729          47.800           0.000 0         0.00000         0.000           0.000  
G23  23272538.341 3    268274.38202     -2383.585          37.700           0.000 0         0.00000         0.000           0.000  
G24  24524951.322 4     55604.30703     -2379.320          33.800    24522620.427 3         0.00000     -1777.100          25.200  
G27  22768353.685 4    317346.16309     -2836.738          30.800    22766005.409 2    222754.02409     -2118.358          29.700  
G28  23637695.455 4    -34718.34209      3334.890          30.000           0.000 0         0.00000         0.000           0.000  
G32  20556314.944 3    -36646.43502       290.730          37.400    20553972.061 2         0.00000       217.589          28.900  
R10  23920483.092 6         0.00000      1097.700          20.900  
R02  20727937.138 3   -206540.60602      1857.337          36.200  
R01  19714310.964 4    154543.79609     -1435.925          30.300  
R23  22018050.215 4    436360.54709     -4080.631          33.700  
R17  21068310.405 2   -355233.47201      3211.880          47.300  
R08  23168642.275 3    378747.66302     -3457.530          37.500  
E07  23509596.827 3     91116.61804      -829.508          39.800    23507482.087 2     64203.51109      -619.689          29.300  
E08  27025864.370 5         0.00000     -2648.450          26.800           0.000 0         0.00000         0.000           0.000  
E13  25812790.165 3     35309.94904     -2400.668          39.700    25810676.630 3         0.00000     -1789.200          22.200  
E19  28620101.308 5         0.00000      2794.350          27.800           0.000 0         0.00000         0.000           0.000  
E26  23166448.085 3      9403.39105      -108.927          37.500    23164327.656 2      6884.18405       -81.563          32.800  
E33  25053881.452 2   -244779.43602      2152.464          46.000    25051762.507 3         0.00000      1604.233          23.700  
> 2023 09 07 19 34 27.4341741  0 23
G02  23416265.437 2   -323387.02901      2823.711          46.200           0.000 0         0.00000         0.000           0.000  
G08  22524907.826 4    104077.77103      -951.509          35.100    22522567.944 1     73034.02903      -710.683          37.400  
G10  21165742.649 2    110445.69001      -986.547          44.100    21163402.470 2     77410.00905      -736.924          31.300  
G18  24750206.673 4         0.00000     -3494.382          28.700           0.000 0         0.00000         0.000           0.000  
G21  22547767.594 2   -256504.74801      2231.889          49.000           0.000 0         0.00000         0.000           0.000  
G23  23272987.126 4    270655.55209     -2387.253          35.100           0.000 0         0.00000         0.000           0.000  
G24  24525403.405 3     57980.75602     -2381.032          37.500    24523074.918 3         0.00000     -1784.000          24.000  
G27  22768884.014 3    320181.37209     -2841.913          37.900    22766545.929 3         0.00000     -2122.239          26.800  
G28  23637061.995 4    -38054.87109      3333.327          31.000           0.000 0         0.00000         0.000           0.000  
G32  20556258.877 3    -36938.84902       286.206          38.200    20553916.604 2    -25948.34309       213.821          31.000  
R10  23920301.121 6         0.00000      1097.300          22.100  
R02  20727603.472 3   -208399.47302      1852.980          35.900  
R01  19714578.982 4    155976.77609     -1438.018          32.900  
R24  19260697.684 5         0.00000      -865.550          24.200  
R23  22018796.997 4    440441.56503     -4088.770          33.000  
R17  21067710.223 2   -358448.11401      3209.963          47.500  
R08  23169292.226 3    382201.95502     -3458.949          39.800  
E07  23509756.619 3     91943.30304      -832.244          40.600    23507638.895 2     64820.76509      -621.803          30.300  
E08  27026365.017 4      1526.44306     -2649.668          36.200           0.000 0         0.00000         0.000           0.000  
E13  25813248.844 3     37709.59703     -2406.489          41.300           0.000 0         0.00000         0.000           0.000  
E19  28619556.582 4         0.00000      2785.700          31.800    28617444.251 4         0.00000      2081.500          21.100  
E26  23166468.781 3      9509.84905      -112.349          37.300    23164348.649 2      6963.70805       -84.057          33.400  
E33  25053476.118 2   -246936.33502      2152.437          46.200    25051349.391 3         0.00000      1608.850          22.400  
> 2023 09 07 19 34 28.4341741  0 23
G02  23415727.010 2   -326209.18601      2826.682          45.000           0.000 0         0.00000         0.000           0.000  
G08  22525089.500 4    105031.39609      -948.750          34.100    22522747.821 1     73746.17303      -708.557          36.600  
G10  21165934.218 2    111433.97401      -983.579          44.000    21163589.833 2     78148.12009      -734.568          30.200  
G18  24750870.113 4         0.00000     -3488.700          30.600           0.000 0         0.00000         0.000           0.000  
G21  22547344.583 2   -258735.02001      2234.808          46.200           0.000 0         0.00000         0.000           0.000  
G23  23273464.703 4    273045.16009     -2386.124          30.700           0.000 0         0.00000         0.000           0.000  
G24  24525864.178 4     60363.60709     -2379.904          35.400    24523530.002 3         0.00000     -1776.350          23.200  
G27  22769420.050 3    323025.46209     -2838.715          39.700    22767080.761 3         0.00000     -2117.300          26.000  
G28  23636440.226 5         0.00000      3332.169          28.000           0.000 0         0.00000         0.000           0.000  
G32  20556203.420 3    -37223.06001       289.286          40.500    20553861.740 3         0.00000       216.075          28.300  
R10  23920070.272 6         0.00000      1095.350          22.700  
R02  20727266.212 4   -210250.53109      1856.091          29.100  
R01  19714844.592 4    157416.52903     -1435.258          34.400  
R24  19260892.551 4     88983.95403      -863.904          32.700  
R23  22019560.863 5         0.00000     -4087.771          26.900  
R17  21067110.337 2   -361656.46101      3213.126          47.100  
R08  23169927.484 3    385663.36202     -3457.478          39.200  
E07  23509915.206 3     92777.57903      -830.346          41.000    23507796.279 3         0.00000      -619.323          25.900  
E08  27026865.384 4      4178.58106     -2649.383          36.000    27024751.849 3         0.00000     -1976.711          26.800  
E13  25813705.726 3     40119.07604     -2405.325          37.800    25811589.189 4         0.00000     -1788.200          20.400  
E19  28619031.348 4     -7032.85309      2790.030          29.800    28616916.608 3         0.00000      2085.550          23.300  
E26  23166491.257 4      9624.18306      -110.088          36.600    23164371.125 2      7049.13809       -81.002          30.000  
E33  25053059.721 2   -249087.17403      2154.810          43.600    25050951.578 4         0.00000      1607.400          21.800  
> 2023 09 07 19 34 29.4341741  0 23
G02  23415188.287 3   -329041.55209      2832.431          36.200           0.000 0         0.00000         0.000           0.000  
G08  22525273.565 4    105974.85609      -943.574          34.400    22522928.587 1     74450.82603      -704.735          36.000  
G10  21166118.283 2    112412.90401      -978.640          44.300    21163779.011 2     78879.01004      -730.703          34.300  
G18  24751531.755 5         0.00000     -3487.435          27.400           0.000 0         0.00000         0.000           0.000  
G21  22546918.885 2   -260975.14501      2240.184          44.200           0.000 0         0.00000         0.000           0.000  
G23  23273898.202 4    275425.26109     -2379.752          32.500           0.000 0         0.00000         0.000           0.000  
G24  24526306.978 3     62738.72109     -2375.165          36.600           0.000 0         0.00000         0.000           0.000  
G27  22769959.977 4    325858.32109     -2832.402          30.100    22767624.894 3         0.00000     -2115.575          28.500  
G28  23635786.681 4    -44721.34809      3336.673          32.400           0.000 0         0.00000         0.000           0.000  
G32  20556151.261 3    -37517.31701       294.337          41.300    20553805.079 3         0.00000       219.852          27.000  
R10  23919804.959 5         0.00000      1103.150          26.200  
R02  20726904.957 4   -212113.18709      1862.622          31.100  
R01  19715123.987 4    158846.87903     -1430.054          34.600  
R24  19261041.262 4     89841.93209      -858.760          30.100  
R23  22020362.508 6         0.00000     -4083.000          22.200  
R17  21066509.857 2   -364874.25601      3217.928          42.200  
R08  23170575.340 3    389115.60001     -3451.931          40.400  
E07  23510071.106 2     93602.20803      -824.471          43.500    23507952.772 2     66059.44609      -615.700          29.100  
E08  27027369.923 3      6822.26205     -2643.244          36.700    27025256.684 3    215785.13109     -1972.372          28.200  
E13  25814161.107 4     42518.38109     -2399.052          31.900           0.000 0         0.00000         0.000           0.000  
E19  28618498.907 5         0.00000      2798.800          26.000           0.000 0         0.00000         0.000           0.000  
E26  23166515.547 3      9728.57904      -104.188          38.500    23164389.116 3         0.00000       -77.715          27.200  
E33  25052654.091 2   -251247.87803      2160.996          43.400    25050535.460 3         0.00000      1615.950          25.600  
> 2023 09 07 19 34 30.4341741  0 23
G02  23414653.455 3   -331869.51902      2825.195          38.500           0.000 0         0.00000         0.000           0.000  
G08  22525452.238 3    106921.79402      -949.955          37.100    22523108.168 1     75158.03903      -709.352          35.300  
G10  21166308.664 2    113395.68801      -986.756          44.000    21163965.484 2     79612.94205      -736.904          31.200  
G18  24752211.982 4         0.00000     -3493.786          29.300           0.000 0         0.00000         0.000           0.000  
G21  22546492.873 2   -263211.71001      2233.331          45.400           0.000 0         0.00000         0.000           0.000  
G23  23274348.784 3    277809.62401     -2388.180          39.900           0.000 0         0.00000         0.000           0.000  
G24  24526766.564 3     65118.91302     -2384.373          37.200    24524433.574 3         0.00000     -1781.100          25.500  
G27  22770498.107 3    328694.24002     -2839.230          36.500    22768163.024 3         0.00000     -2119.400          24.000  
G28  23635149.311 4    -48053.64403      3328.982          34.400           0.000 0         0.00000         0.000           0.000  
G32  20556092.803 2    -37807.74701       286.725          43.500    20553749.326 3         0.00000       215.950          27.600  
R10  23919668.550 5         0.00000      1097.155          27.100  
R02  20726542.202 4   -213971.40903      1855.258          34.300  
R01  19715395.914 4    160281.10503     -1437.903          34.700  
R24  19261197.738 4     90705.09703      -866.544          33.400  
R23  22021091.613 4    452704.20603     -4088.455          33.300  
R17  21065914.159 3   -368087.96701      3210.244          40.700  
R08  23171217.788 3    392571.85702     -3460.387          39.600  
E07  23510229.991 2     94430.54302      -831.813          43.700    23508109.562 3         0.00000      -622.008          26.100  
E08  27027875.072 3      9469.81205     -2651.532          36.900    27025760.035 3         0.00000     -1980.660          26.900  
E13  25814622.787 4     44922.18809     -2407.688          30.000    25812505.657 3         0.00000     -1793.600          23.300  
E26  23166531.130 3      9836.53004      -111.328          39.500    23164408.905 2      7207.59609       -84.076          29.800  
E33  25052241.585 2   -253404.95402      2154.178          46.300    25050122.640 3         0.00000      1607.750          23.500  
E19         0.000 0         0.00000         0.000           0.000    28615850.243 4         0.00000      2087.350          21.900  
> 2023 09 07 19 34 31.4341741  0 22
G02  23414113.232 3   -334697.37502      2830.893          38.600           0.000 0         0.00000         0.000           0.000  
G08  22525629.410 3    107869.12802      -943.580          39.000    22523288.934 2     75865.35205      -704.549          33.400  
G10  21166495.120 2    114381.36201      -983.475          45.500    21164154.051 2         0.00000      -734.602          29.300  
G18  24752856.244 4    409161.00409     -3491.137          34.000           0.000 0         0.00000         0.000           0.000  
G21  22546065.377 2   -265447.34001      2238.982          43.100           0.000 0         0.00000         0.000           0.000  
G23  23274805.369 4    280196.98909     -2385.897          35.100           0.000 0         0.00000         0.000           0.000  
G24  24527223.149 3     67502.65909     -2382.747          37.700           0.000 0         0.00000         0.000           0.000  
G27  22771044.316 4    331531.37909     -2833.402          33.800    22768702.637 3         0.00000     -2115.335          27.700  
G28  23634517.055 4    -51384.88009      3333.972          33.400           0.000 0         0.00000         0.000           0.000  
G32  20556039.440 2    -38096.18301       291.234          42.400    20553693.869 3         0.00000       217.962          28.600  
R10  23919438.609 4         0.00000      1096.525          28.000  
R02  20726209.147 4   -215829.43903      1861.637          33.200  
R01  19715657.022 4    161717.59709     -1434.075          32.700  
R24  19261375.521 3     91569.98302      -862.001          36.300  
R23  22021856.683 4    456790.19809     -4083.225          29.900  
R17  21065306.490 2   -371300.48201      3215.190          43.600  
R08  23171866.848 3    396031.78502     -3457.892          39.200  
E07  23510387.985 3     95261.69504      -829.016          39.900    23508272.652 3     67298.75009      -618.541          28.700  
E08  27028380.220 3     12121.21405     -2649.779          37.600    27026264.294 3         0.00000     -1984.441          23.200  
E13  25815082.373 5         0.00000     -2403.500          28.800    25812962.853 3         0.00000     -1794.450          24.300  
E26  23166553.624 3      9946.66704      -107.647          38.900    23164430.194 2      7289.68509       -79.178          30.500  
E33  25051833.564 3   -255561.09203      2158.919          41.400    25049711.339 3         0.00000      1613.247          24.000  
> 2023 09 07 19 34 32.4341741  0 22
G02  23413571.507 2   -337526.12001      2825.637          43.400           0.000 0         0.00000         0.000           0.000  
G08  22525806.599 2    108814.07701      -947.335          45.000    22523467.014 2     76571.14605      -707.541          31.600  
G10  21166683.705 2    115367.60501      -988.998          45.000    21164339.617 2         0.00000      -738.715          28.800  
G18  24753531.376 4    412653.58009     -3493.583          32.800           0.000 0         0.00000         0.000           0.000  
G21  22545640.866 2   -267684.10701      2233.865          43.900           0.000 0         0.00000         0.000           0.000  
G23  23275256.265 3    282585.36609     -2390.814          37.800           0.000 0         0.00000         0.000           0.000  
G24  24527668.635 3     69888.17109     -2388.861          37.600    24525341.352 3         0.00000     -1780.650          22.100  
G27  22771579.445 3    334365.18109     -2834.373          39.000    22769240.173 1    235461.82603     -2116.447          35.400  
G28  23633881.797 4    -54718.16909      3333.092          31.800           0.000 0         0.00000         0.000           0.000  
G32  20555983.076 2    -38385.50801       287.116          44.700    20553641.100 2         0.00000       214.000          28.800  
R10  23919233.551 4   -109372.97209      1089.752          32.000  
R02  20725864.366 3   -217689.83302      1858.308          37.800  
R01  19715931.932 3    163154.02302     -1439.783          37.800  
R24  19261540.111 3     92433.85902      -866.093          37.600  
R23  22022640.041 4    460873.85809     -4084.717          31.200  
R17  21064708.995 2   -374513.05501      3209.136          47.600  
R08  23172518.893 3    399492.81401     -3464.205          40.200  
E07  23510546.573 3     96092.60703      -833.444          42.200    23508427.034 3         0.00000      -622.800          27.400  
E08  27028882.979 3     14773.81304     -2655.373          38.100    27026767.942 3         0.00000     -1984.800          23.700  
E13  25815535.660 4     49733.69508     -2405.808          34.300    25813417.029 3         0.00000     -1795.650          22.800  
E26  23166571.301 4     10055.79207      -111.297          35.100    23164450.279 3         0.00000       -83.384          26.300  
E33  25051421.355 2   -257718.39302      2154.408          44.000    25049297.926 3         0.00000      1608.569          24.500  
> 2023 09 07 19 34 33.4341741  0 22
G02  23413037.583 2   -340351.36501      2827.950          44.800           0.000 0         0.00000         0.000           0.000  
G08  22525988.867 2    109761.47501      -944.570          44.700    22523648.391 3         0.00000      -707.992          28.000  
G10  21166868.973 3    116355.57301      -984.214          40.700    21164529.091 2     81823.86205      -734.948          32.600  
G18  24754194.519 4    416143.12909     -3485.454          30.300           0.000 0         0.00000         0.000           0.000  
G21  22545216.965 2   -269917.44401      2236.060          44.200           0.000 0         0.00000         0.000           0.000  
G23  23275731.731 4    284974.68709     -2386.189          30.800           0.000 0         0.00000         0.000           0.000  
G24  24528124.313 4         0.00000     -2389.119          28.600    24525795.529 3         0.00000     -1780.900          23.600  
G27  22772125.672 3    337198.58409     -2830.717          36.300    22769779.490 1    237577.48303     -2113.006          35.500  
G28  23633237.832 4    -58054.42409      3339.821          35.000           0.000 0         0.00000         0.000           0.000  
G32  20555929.417 2    -38673.54201       291.527          44.000    20553586.236 3         0.00000       217.669          25.900  
R10  23919050.080 4   -110463.76609      1094.274          29.800  
R02  20725510.022 2   -219548.35901      1861.593          43.200  
R01  19716196.059 3    164593.60201     -1436.021          40.200  
R24  19261701.089 4     93299.14704      -861.815          31.000  
R23  22023393.716 5         0.00000     -4078.950          24.200  
R17  21064111.220 2   -377721.68101      3211.547          45.500  
R08  23173158.950 3    402956.07001     -3459.456          40.500  
E07  23510706.364 3     96925.17003      -829.323          41.900    23508586.233 3         0.00000      -619.180          27.200  
E08  27029387.238 4     17428.70608     -2652.121          33.500    27027274.295 3         0.00000     -1979.333          24.800  
E13  25815991.652 4     52137.26709     -2399.422          30.800           0.000 0         0.00000         0.000           0.000  
E26  23166592.887 4     10166.33409      -107.418          31.200    23164470.958 3         0.00000       -81.700          22.900  
E33  25051013.631 3   -259872.14903      2156.202          42.200    25048892.295 2   -183177.06805      1610.799          33.700  
> 2023 09 07 19 34 34.4341741  0 23
G02  23412498.546 2   -343184.67401      2835.755          44.900           0.000 0         0.00000         0.000           0.000  
G08  22526169.041 2    110700.60801      -936.203          44.800    22523827.064 3         0.00000      -699.117          27.800  
G10  21167057.541 2    117335.70301      -981.117          43.000    21164715.564 2     82555.81405      -732.563          32.700  
G18  24754854.050 4    419624.55509     -3482.819          31.300           0.000 0         0.00000         0.000           0.000  
G21  22544787.358 2   -272158.70301      2243.694          45.400           0.000 0         0.00000         0.000           0.000  
G23  23276165.229 3    287357.39309     -2383.920          37.100           0.000 0         0.00000         0.000           0.000  
G24  24528578.804 4         0.00000     -2386.050          34.000    24526248.223 4         0.00000     -1779.450          21.300  
G27  22772656.298 3    340023.63109     -2822.076          37.700    22770317.026 2    239686.56104     -2107.530          34.100  
G28  23632608.577 4    -61400.00809      3344.528          33.100           0.000 0         0.00000         0.000           0.000  
G32  20555873.052 2    -38969.58401       296.231          43.600    20553528.371 3         0.00000       220.650          27.000  
R10  23918857.307 5         0.00000      1097.500          24.200  
R02  20725158.958 2   -221415.44901      1869.694          43.800  
R01  19716468.265 3    166025.13101     -1431.271          40.300  
R24  19261871.979 4     94156.22003      -856.745          34.100  
R23  22024146.187 4    469030.52904     -4075.455          31.700  
R17  21063508.629 2   -380938.18701      3218.314          43.100  
R08  23173807.103 3    406411.43702     -3456.734          39.400  
E07  23510861.060 3     97749.90804      -825.019          40.600           0.000 0         0.00000         0.000           0.000  
E08  27029891.479 3     20075.60304     -2648.455          38.000           0.000 0         0.00000         0.000           0.000  
E13  25816456.927 5         0.00000     -2392.700          29.400           0.000 0         0.00000         0.000           0.000  
E19  28615840.349 6         0.00000      2811.950          21.400           0.000 0         0.00000         0.000           0.000  
E26  23166614.769 4     10268.79009      -102.407          34.300    23164491.636 3         0.00000       -75.694          23.600  
E33  25050599.921 2   -262034.04602      2163.926          46.000    25048479.493 3         0.00000      1616.504          26.700  
> 2023 09 07 19 34 35.4341741  0 23
G02  23411959.822 2   -346019.12801      2832.914          44.400           0.000 0         0.00000         0.000           0.000  
G08  22526345.916 2    111637.96301      -938.735          44.100    22524005.440 2     78681.81809      -700.972          30.200  
G10  21167245.514 2    118322.77701      -992.254          45.900    21164903.835 3         0.00000      -741.120          24.400  
G18  24755526.197 4         0.00000     -3498.515          29.100           0.000 0         0.00000         0.000           0.000  
G21  22544363.144 2   -274400.70501      2240.236          49.200           0.000 0         0.00000         0.000           0.000  
G23  23276626.613 3    289749.46209     -2398.874          36.800           0.000 0         0.00000         0.000           0.000  
G24  24529032.684 3     77065.82509     -2395.739          36.600           0.000 0         0.00000         0.000           0.000  
G27  22773191.426 3    342848.20309     -2827.034          39.800    22770854.859 2    241795.84005     -2111.069          32.600  
G28  23631971.819 4         0.00000      3325.789          29.100           0.000 0         0.00000         0.000           0.000  
G32  20555817.892 2    -39261.31901       287.543          42.300    20553474.712 3         0.00000       214.621          27.800  
R10  23918731.404 6         0.00000      1086.800          22.800  
R02  20724806.708 2   -223283.51201      1866.279          45.500  
R01  19716734.189 3    167460.79101     -1439.502          39.700  
R24  19262025.472 3     95017.54302      -865.341          35.400  
R23  22024903.177 4    473110.75609     -4086.298          29.900  
R17  21062905.445 2   -384154.11001      3213.680          42.400  
R08  23174457.944 3    409875.26702     -3469.573          37.600  
E07  23511021.445 3     98580.53604      -835.120          40.000    23508901.610 4         0.00000      -613.800          20.400  
E08  27030397.239 4     22731.13907     -2661.176          35.200           0.000 0         0.00000         0.000           0.000  
E13  25816909.010 4         0.00000     -2409.600          29.800    25814795.178 4         0.00000     -1793.900          20.600  
E19  28615296.827 5         0.00000      2804.550          26.300           0.000 0         0.00000         0.000           0.000  
E26  23166634.558 4     10375.54107      -110.721          35.300    23164512.332 3         0.00000       -83.317          27.500  
E33  25050191.900 2   -264196.40802      2160.523          46.100           0.000 0         0.00000         0.000           0.000  
> 2023 09 07 19 34 36.4341741  0 23
G02  23411415.707 3   -348854.17501      2837.377          41.200           0.000 0         0.00000         0.000           0.000  
G08  22526522.791 3    112574.06201      -932.784          39.900    22524184.410 2     79380.89005      -696.678          31.400  
G10  21167432.581 2    119315.87601      -991.978          46.500    21165092.402 2         0.00000      -739.850          29.400  
G18  24756184.838 4         0.00000     -3498.836          29.400           0.000 0         0.00000         0.000           0.000  
G21  22543935.352 2   -276642.87001      2244.489          46.900           0.000 0         0.00000         0.000           0.000  
G23  23277080.197 4    292151.15403     -2400.702          34.900           0.000 0         0.00000         0.000           0.000  
G24  24529490.473 4     79464.10304     -2397.542          32.800           0.000 0         0.00000         0.000           0.000  
G27  22773732.854 3    345673.56101     -2821.307          41.400    22771393.583 2    243905.21405     -2106.805          32.800  
G28  23631341.342 3    -68058.43809      3330.291          36.400           0.000 0         0.00000         0.000           0.000  
G32  20555760.324 2    -39549.24001       290.032          43.400    20553420.442 3         0.00000       216.400          27.300  
R10  23918464.276 5         0.00000      1078.077          27.000  
R02  20724455.645 2   -225152.24601      1872.061          44.600  
R01  19717004.301 3    168900.20501     -1437.921          39.000  
R24  19262184.356 3     95882.47002      -862.738          36.100  
R23  22025669.137 4    477197.77103     -4084.658          33.500  
R17  21062309.153 2   -387369.17201      3217.101          42.700  
R08  23175111.490 4    413346.45509     -3470.440          34.900  
E07  23511180.940 3     99416.49903      -834.729          41.000    23509061.402 3         0.00000      -622.300          24.900  
E08  27030905.372 4     25394.51609     -2663.105          30.500           0.000 0         0.00000         0.000           0.000  
E13  25817368.003 4         0.00000     -2408.300          33.200    25815250.559 3         0.00000     -1798.573          27.800  
E19  28614764.997 4     -1507.44509      2811.706          30.500           0.000 0         0.00000         0.000           0.000  
E26  23166653.142 4     10486.53106      -109.235          36.300    23164533.307 3         0.00000       -81.018          26.700  
E33  25049774.892 3   -266358.48903      2164.112          42.500    25047666.749 4         0.00000      1617.150          20.600  
> 2023 09 07 19 34 37.4341741  0 23
G02  23410879.671 2   -351690.73001      2833.875          43.200           0.000 0         0.00000         0.000           0.000  
G08  22526699.684 3    113506.89301      -935.067          41.300    22524359.505 3         0.00000      -698.209          27.000  
G10  21167620.554 3    120308.59801      -994.795          41.200    21165281.562 2         0.00000      -742.957          29.200  
G18  24756854.281 3    430114.30609     -3498.468          37.300           0.000 0         0.00000         0.000           0.000  
G21  22543506.635 2   -278886.59801      2241.071          42.700           0.000 0         0.00000         0.000           0.000  
G23  23277542.174 4    294551.84509     -2402.105          32.500           0.000 0         0.00000         0.000           0.000  
G24  24529956.656 4     81863.24803     -2401.293          34.600           0.000 0         0.00000         0.000           0.000  
G27  22774264.388 2    348493.79001     -2821.332          41.900    22771928.414 2    246011.32905     -2107.159          32.700  
G28  23630705.195 4    -71393.05109      3335.221          33.400           0.000 0         0.00000         0.000           0.000  
G32  20555706.071 2    -39839.08301       288.151          43.400    20553364.392 3         0.00000       215.284          27.500  
R10  23918221.753 6         0.00000      1080.100          22.800  
R02  20724107.583 2   -227024.48001      1870.261          43.000  
R01  19717275.303 3    170339.10102     -1441.223          38.700  
R24  19262345.351 3     96745.28802      -864.627          36.500  
R23  22026433.614 4    481281.19709     -4084.319          30.100  
R17  21061708.081 2   -390585.08001      3212.745          41.700  
R08  23175744.357 4    416818.50109     -3474.040          33.900  
E07  23511338.027 3    100251.36903      -836.446          41.700    23509219.100 3         0.00000      -624.951          27.300  
E08  27031412.335 4     28058.30609     -2666.158          32.600           0.000 0         0.00000         0.000           0.000  
E13  25817828.183 4     61750.51209     -2406.555          30.700           0.000 0         0.00000         0.000           0.000  
E19  28614229.275 4     -4320.70008      2812.729          34.500           0.000 0         0.00000         0.000           0.000  
E26  23166678.934 3     10595.46105      -110.286          36.800    23164552.206 3         0.00000       -82.524          26.000  
E33  25049365.371 3   -268522.25603      2161.327          40.900    25047247.944 3   -189631.50509      1613.879          28.100  
> 2023 09 07 19 34 38.4341741  0 23
G02  23410337.947 2   -354521.49001      2829.317          41.700           0.000 0         0.00000         0.000           0.000  
G08  22526880.154 2    114444.31701      -938.225          43.900    22524538.178 3         0.00000      -699.800          27.700  
G10  21167813.309 4    121305.79103      -998.525          34.400    21165471.333 3         0.00000      -746.200          28.500  
G18  24757540.197 4    433613.26609     -3498.635          32.700           0.000 0         0.00000         0.000           0.000  
G21  22543083.641 3   -281124.70301      2236.596          41.400           0.000 0         0.00000         0.000           0.000  
G23  23277995.757 3    296956.24409     -2406.208          36.500           0.000 0         0.00000         0.000           0.000  
G24  24530413.241 3     84267.94802     -2406.809          36.900    24528074.859 3         0.00000     -1791.350          23.000  
G27  22774801.313 2    351316.47601     -2822.618          44.300    22772464.433 2         0.00000     -2107.545          28.700  
G28  23630075.922 4         0.00000      3336.350          31.000           0.000 0         0.00000         0.000           0.000  
G32  20555653.005 2    -40125.19801       285.217          42.800    20553309.825 3         0.00000       213.150          27.600  
R10  23918046.971 5         0.00000      1069.531          26.300  
R02  20723751.738 2   -228892.72201      1867.700          41.300  
R01  19717536.724 3    171783.21502     -1445.745          37.500  
R24  19262512.629 3     97612.04202      -867.612          36.800  
R23  22027195.386 4    485367.48909     -4085.356          30.700  
R17  21061106.990 2   -393794.77701      3207.816          41.400  
R08  23176388.915 4    420296.04109     -3480.077          33.400  
E07  23511499.913 3    101090.52104      -840.383          38.900    23509379.781 2     71653.24809      -627.687          29.400  
E08  27031919.875 4     30726.98707     -2670.665          35.500           0.000 0         0.00000         0.000           0.000  
E13  25818288.659 4     64153.11009     -2407.087          32.300    25816171.215 3         0.00000     -1799.950          23.200  
E19  28613692.035 4     -7132.11309      2811.641          31.900           0.000 0         0.00000         0.000           0.000  
E26  23166698.408 3     10708.30305      -113.758          37.300    23164575.589 3         0.00000       -85.104          26.300  
E33  25048954.052 3   -270680.26203      2156.667          42.200    25046836.031 3         0.00000      1610.421          27.700  
> 2023 09 07 19 34 39.4341741  0 23
G02  23409798.613 3   -357353.43401      2835.746          41.200           0.000 0         0.00000         0.000           0.000  
G08  22527055.529 2    115379.34401      -930.939          44.800    22524716.554 2     81475.91605      -695.323          31.800  
G10  21168004.285 3    122301.22302      -990.473          36.500    21165661.401 3         0.00000      -739.471          23.500  
G18  24758188.053 4    437106.23909     -3485.668          31.900           0.000 0         0.00000         0.000           0.000  
G21  22542655.832 2   -283363.98001      2243.131          42.300           0.000 0         0.00000         0.000           0.000  
G23  23278452.046 4    299358.62909     -2396.759          32.300           0.000 0         0.00000         0.000           0.000  
G24  24530868.028 4     86672.08403     -2399.639          35.400           0.000 0         0.00000         0.000           0.000  
G27  22775340.647 2    354134.90101     -2813.373          44.700    22773002.562 2    250223.78109     -2100.900          31.400  
G28  23629435.866 4    -78061.70609      3345.002          33.200           0.000 0         0.00000         0.000           0.000  
G32  20555594.250 2    -40413.94301       293.759          42.500    20553253.461 3         0.00000       219.669          27.600  
R10  23917818.531 5         0.00000      1077.229          25.600  
R02  20723407.585 2   -230763.79601      1875.631          41.800  
R01  19717817.324 3    173226.10902     -1438.294          37.800  
R24  19262660.729 4     98476.16003      -859.266          33.200  
R23  22027976.038 5         0.00000     -4073.619          27.300  
R17  21060505.604 3   -397004.93101      3214.237          40.200  
R08  23177054.153 4    423772.67909     -3470.913          31.000  
E07  23511657.000 4    101927.70609      -832.781          30.900    23509537.775 2     72278.24509      -621.014          29.400  
E08  27032427.135 4     33394.82209     -2663.700          31.500           0.000 0         0.00000         0.000           0.000  
E13  25818737.444 4     66559.21307     -2400.704          34.700           0.000 0         0.00000         0.000           0.000  
E19  28613154.219 5         0.00000      2819.100          26.700    28611046.373 3         0.00000      2108.253          28.600  
E26  23166717.307 4     10818.44806      -105.651          36.400    23164595.971 3         0.00000       -78.143          25.500  
E33  25048545.141 3   -272839.60104      2162.729          38.300    25046422.304 3         0.00000      1615.958          26.400  
> 2023 09 07 19 34 40.4341741  0 23
G02  23409262.595 3   -360192.41501      2838.233          40.400           0.000 0         0.00000         0.000           0.000  
G08  22527234.202 2    116306.85701      -928.719          45.100    22524894.634 1     82168.60403      -693.509          36.400  
G10  21168191.351 3    123287.21402      -984.425          37.400    21165848.781 3         0.00000      -731.600          22.700  
G18  24758845.194 3    440586.91709     -3480.113          35.700           0.000 0         0.00000         0.000           0.000  
G21  22542227.726 3   -285610.54801      2245.946          40.100           0.000 0         0.00000         0.000           0.000  
G23  23278912.225 5         0.00000     -2383.750          25.400           0.000 0         0.00000         0.000           0.000  
G24  24531324.299 5         0.00000     -2393.184          27.500           0.000 0         0.00000         0.000           0.000  
G27  22775875.776 2    356943.80701     -2809.468          44.500    22773536.190 2    252321.41409     -2097.579          30.600  
G28  23628801.515 3    -81413.74809      3354.436          38.300           0.000 0         0.00000         0.000           0.000  
G32  20555539.683 2    -40712.12901       298.518          42.800    20553197.411 3         0.00000       225.300          28.200  
R10  23917622.477 5         0.00000      1086.650          23.400  
R02  20723051.722 3   -232643.05901      1877.981          40.700  
R01  19718085.342 3    174660.21002     -1433.663          38.600  
R24  19262801.936 4     99330.87403      -854.553          32.000  
R23  22028711.129 4    493514.11309     -4064.949          29.700  
R17  21059900.029 2   -400222.62901      3216.949          41.400  
R08  23177691.504 4    427238.63009     -3459.859          30.900  
E07  23511820.386 4    102755.15106      -826.034          36.200    23509697.270 2     72895.90209      -616.258          29.700  
E08  27032943.662 5         0.00000     -2659.000          26.200           0.000 0         0.00000         0.000           0.000  
E13  25819199.124 4     68953.22609     -2392.049          30.200           0.000 0         0.00000         0.000           0.000  
E26  23166739.486 3     10918.95804       -99.745          38.000    23164616.649 3         0.00000       -73.903          25.000  
E33  25048131.134 3   -275006.35104      2166.438          39.400    25046011.596 2   -194473.92609      1618.166          29.400  
E19         0.000 0         0.00000         0.000           0.000    28610506.149 3         0.00000      2110.249          27.500  
> 2023 09 07 19 34 41.4341741  0 23
G02  23408720.870 3   -363028.66609      2831.481          37.300           0.000 0         0.00000         0.000           0.000  
G08  22527411.985 2    117239.72901      -938.263          44.000    22525071.806 1     82865.20403      -700.444          36.500  
G10  21168375.433 4    124270.48009      -985.608          34.500    21166035.551 3         0.00000      -738.134          25.500  
G18  24759495.441 4    444065.98609     -3480.964          31.500           0.000 0         0.00000         0.000           0.000  
G21  22541803.825 3   -287854.03701      2239.461          40.200           0.000 0         0.00000         0.000           0.000  
G23  23279372.405 4    304132.66509     -2385.792          30.200           0.000 0         0.00000         0.000           0.000  
G24  24531785.979 5         0.00000     -2392.351          28.300           0.000 0         0.00000         0.000           0.000  
G27  22776409.700 2    359756.90401     -2818.346          43.400    22774070.428 2         0.00000     -2104.493          29.400  
G28  23628164.146 3    -84766.97709      3348.850          38.500           0.000 0         0.00000         0.000           0.000  
G32  20555484.820 2    -41009.27001       293.307          43.600    20553141.343 2         0.00000       218.507          28.700  
R10  23917403.320 5         0.00000      1082.500          24.700  
R02  20722707.255 3   -234517.49802      1868.646          38.200  
R01  19718356.658 3    176094.63002     -1437.479          36.800  
R24  19262988.113 4    100187.64609      -860.870          32.300  
R23  22029490.002 4    497580.34509     -4071.576          30.800  
R17  21059301.033 3   -403437.50202      3210.517          38.400  
R08  23178331.264 4         0.00000     -3462.950          31.300  
E07  23511974.786 3    103581.64305      -828.821          37.200    23509854.357 2     73513.14509      -617.970          30.500  
E08  27033446.717 5         0.00000     -2659.200          26.700           0.000 0         0.00000         0.000           0.000  
E13  25819652.708 4     71344.33709     -2395.500          31.000    25817542.470 4         0.00000     -1793.100          20.100  
E19  28612078.850 6         0.00000      2808.450          21.300    28609970.113 3         0.00000      2100.750          26.400  
E26  23166757.180 3     11019.99804      -104.217          38.300    23164633.751 3         0.00000       -73.641          25.500  
E33  25047719.204 3   -277170.40303      2160.224          41.400    25045600.870 2   -196089.90809      1613.798          30.000  
> 2023 09 07 19 34 42.4341741  0 23
G02  23408185.445 3   -365849.68101      2820.368          39.900           0.000 0         0.00000         0.000           0.000  
G08  22527593.362 2    118189.44401      -951.745          44.500    22525252.276 1     83574.43103      -710.732          37.200  
G10  21168573.895 4    125263.33104      -992.437          32.700    21166224.415 3         0.00000      -742.450          23.900  
G18  24760168.182 4    447556.17009     -3488.959          32.100           0.000 0         0.00000         0.000           0.000  
G21  22541381.111 2   -290083.23901      2228.294          41.600           0.000 0         0.00000         0.000           0.000  
G23  23279840.088 4         0.00000     -2392.015          28.700           0.000 0         0.00000         0.000           0.000  
G24  24532229.686 4         0.00000     -2398.883          29.200           0.000 0         0.00000         0.000           0.000  
G27  22776948.737 3    362586.56801     -2831.601          40.100    22774610.652 2    256535.17209     -2114.530          30.100  
G28  23627526.794 3    -88106.14902      3339.388          38.600           0.000 0         0.00000         0.000           0.000  
G32  20555428.752 2    -41293.50801       283.701          43.900    20553085.886 3         0.00000       207.000          27.000  
R10  23917215.957 4         0.00000      1079.394          28.900  
R02  20722351.707 3   -236375.26002      1855.830          38.200  
R01  19718624.082 3    177540.74602     -1446.009          37.000  
R24  19263156.298 4    101058.59803      -871.943          34.600  
R23  22030255.054 3    501661.59002     -4081.036          35.300  
R17  21058702.665 3   -406638.41601      3200.189          39.400  
R08  23178965.632 5         0.00000     -3468.100          24.800  
E07  23512132.780 3    104418.99805      -837.168          36.900    23510014.446 3     74138.45909      -623.815          28.100  
E08  27033947.067 4      1549.41008     -2660.140          32.800           0.000 0         0.00000         0.000           0.000  
E13  25820109.589 4     73747.10906     -2402.134          36.300           0.000 0         0.00000         0.000           0.000  
E19  28611553.022 5         0.00000      2804.100          26.700    28609436.485 3         0.00000      2088.700          26.200  
E26  23166778.156 3     11133.39704      -113.842          38.700    23164654.429 3         0.00000       -83.400          25.300  
E33  25047312.998 2   -279320.56103      2149.243          42.700    25045191.959 2   -197695.43609      1605.918          30.600  
> 2023 09 07 19 34 43.4341741  0 23
G02  23407649.706 3   -368675.00302      2829.416          37.600           0.000 0         0.00000         0.000           0.000  
G08  22527770.831 2    119137.40301      -944.586          44.700    22525432.746 1     84282.30003      -705.403          35.700  
G10  21168740.579 4    126250.68909      -983.191          31.200           0.000 0         0.00000         0.000           0.000  
G18  24760839.719 5         0.00000     -3476.856          27.800           0.000 0         0.00000         0.000           0.000  
G21  22540951.818 3   -292316.26201      2236.954          41.400           0.000 0         0.00000         0.000           0.000  
G23  23280281.683 4    308911.49409     -2380.469          32.400           0.000 0         0.00000         0.000           0.000  
G24  24532675.469 5         0.00000     -2387.550          23.900           0.000 0         0.00000         0.000           0.000  
G27  22777486.867 3    365414.23702     -2824.178          39.200    22775146.374 2    258646.75609     -2108.933          29.800  
G28  23626885.534 4    -91451.04303      3349.268          33.800           0.000 0         0.00000         0.000           0.000  
G32  20555374.203 2    -41582.23301       292.937          43.200    20553030.115 3         0.00000       219.102          27.600  
R10  23917009.102 4   -121291.38709      1091.551          29.300  
R02  20722004.552 3   -238235.07802      1863.578          37.000  
R01  19718897.789 3    178981.18802     -1435.815          35.000  
R24  19263303.787 4    101925.84203      -863.358          34.300  
R23  22030994.054 4    505737.56203     -4071.631          33.500  
R17  21058102.168 3   -409843.56602      3209.358          37.500  
R08  23179626.367 5         0.00000     -3446.800          25.400  
E07  23512291.664 3    105250.31904      -827.202          38.800    23510170.328 3         0.00000      -616.826          27.400  
E08  27034451.326 4      4202.16209     -2648.137          32.600           0.000 0         0.00000         0.000           0.000  
E13  25820565.581 4     76143.54509     -2392.480          32.500    25818450.248 4         0.00000     -1784.000          21.900  
E19  28611017.894 5         0.00000      2809.600          27.800    28608903.748 3         0.00000      2100.800          24.800  
E26  23166797.351 3     11241.94305      -104.691          36.800    23164676.923 3         0.00000       -78.050          22.500  
E33  25046900.772 3   -281474.77103      2157.971          41.100    25044781.251 2   -199304.07109      1613.236          29.600  
> 2023 09 07 19 34 44.4341741  0 23
G02  23407105.591 3   -371503.06402      2821.692          36.900           0.000 0         0.00000         0.000           0.000  
G08  22527952.208 2    120084.14301      -953.766          44.300    22525612.937 1     84989.28403      -712.297          35.500  
G10  21168954.624 5         0.00000      -984.149          27.400    21166602.456 3         0.00000      -735.550          22.600  
G18  24761508.551 4    454516.50609     -3484.206          30.000           0.000 0         0.00000         0.000           0.000  
G21  22540526.713 3   -294551.98201      2229.454          41.100           0.000 0         0.00000         0.000           0.000  
G23  23280732.580 4    311291.70509     -2385.026          29.900           0.000 0         0.00000         0.000           0.000  
G24  24533192.607 6         0.00000     -2389.900          22.400           0.000 0         0.00000         0.000           0.000  
G27  22778026.480 3    368240.42801     -2833.266          39.900    22775686.005 2    260757.22505     -2115.689          30.700  
G28  23626254.168 3    -94798.84802      3341.699          36.700           0.000 0         0.00000         0.000           0.000  
G32  20555320.230 2    -41873.73401       285.278          43.500    20552976.753 3         0.00000       209.850          28.400  
R10  23916832.506 4         0.00000      1086.377          28.900  
R02  20721647.800 3   -240096.30702      1853.998          36.900  
R01  19719156.209 4    180417.94103     -1442.597          34.700  
R24  19263461.171 4    102790.88903      -871.733          33.400  
R23  22031769.314 4    509810.77303     -4079.427          34.900  
R17  21057509.174 3   -413051.56402      3201.631          38.800  
R08  23180294.902 5         0.00000     -3459.118          28.300  
E07  23512449.362 3    106077.75304      -832.485          39.300    23510329.230 2     75377.05409      -622.084          29.900  
E08  27034960.366 4      6849.61509     -2651.795          32.000           0.000 0         0.00000         0.000           0.000  
E13  25821014.662 5         0.00000     -2396.450          28.600    25818907.426 3         0.00000     -1790.031          27.200  
E19  28610489.658 5         0.00000      2797.400          26.500    28608371.917 3         0.00000      2090.794          23.600  
E26  23166818.937 3     11347.36405      -110.960          36.800    23164697.898 3         0.00000       -83.254          25.600  
E33  25046492.454 3   -283631.80403      2151.287          40.700    25044369.932 2   -200914.84809      1606.495          30.600  
> 2023 09 07 19 34 45.4341741  0 22
G02  23406579.449 3   -374321.11202      2818.243          35.800           0.000 0         0.00000         0.000           0.000  
G08  22528136.587 2    121042.59601      -958.787          44.100    22525794.297 1     85705.01503      -715.895          35.300  
G18  24762161.503 5         0.00000     -3487.358          26.800           0.000 0         0.00000         0.000           0.000  
G21  22540102.498 3   -296777.57101      2225.757          41.300           0.000 0         0.00000         0.000           0.000  
G23  23281185.256 4         0.00000     -2386.079          28.900           0.000 0         0.00000         0.000           0.000  
G27  22778564.610 3    371078.34502     -2838.169          39.300    22776225.932 2    262876.45805     -2119.379          30.700  
G28  23625620.114 3    -98137.32502      3338.816          38.000           0.000 0         0.00000         0.000           0.000  
G32  20555263.865 2    -42155.42001       281.947          43.100    20552921.592 2         0.00000       210.726          29.000  
R10  23916597.783 4         0.00000      1085.076          28.700  
R02  20721303.926 3   -241945.91702      1849.462          36.900  
R01  19719429.916 3    181863.67202     -1445.233          36.100  
R24  19263635.062 4    103666.64503      -875.833          32.800  
R23  22032524.490 3    513893.92802     -4082.864          36.600  
R17  21056910.806 3   -416249.50901      3198.084          39.700  
R08  23180925.675 4         0.00000     -3460.344          29.800  
E07  23512609.153 3    106913.81604      -835.665          38.700    23510488.114 2     76001.57309      -623.275          30.500  
E08  27035459.529 4      9503.77309     -2653.192          31.400           0.000 0         0.00000         0.000           0.000  
E13  25821490.739 5         0.00000     -2403.650          26.600    25819364.011 3         0.00000     -1792.470          25.700  
E19  28609951.825 5         0.00000      2794.700          27.200    28607838.290 3         0.00000      2087.141          25.700  
E26  23166842.320 3     11462.17405      -114.692          37.200    23164719.780 3         0.00000       -85.382          27.200  
E33  25046078.151 3   -285779.02803      2147.132          41.700    25043960.707 2   -202518.26709      1603.616          30.200  
G10         0.000 0         0.00000         0.000           0.000    21166790.727 3         0.00000      -737.400          24.700  
> 2023 09 07 19 34 46.4341741  0 23
G02  23406044.617 3   -377139.13102      2818.109          37.700           0.000 0         0.00000         0.000           0.000  
G08  22528318.855 2    122002.06001      -959.737          45.200    22525977.472 1     86421.51803      -716.786          35.200  
G10  21169319.769 4         0.00000      -988.103          28.900    21166978.386 3         0.00000      -737.744          26.700  
G18  24762827.037 4    461491.99509     -3486.980          30.200           0.000 0         0.00000         0.000           0.000  
G21  22539681.896 2   -299003.05401      2225.344          41.800           0.000 0         0.00000         0.000           0.000  
G23  23281644.842 4    316064.29709     -2384.953          30.800           0.000 0         0.00000         0.000           0.000  
G24  24534088.693 5         0.00000     -2392.450          24.000           0.000 0         0.00000         0.000           0.000  
G27  22779102.443 3    373917.04501     -2838.815          39.700    22776764.655 2         0.00000     -2119.926          29.300  
G28  23624983.059 3   -101475.90302      3338.848          37.200           0.000 0         0.00000         0.000           0.000  
G32  20555214.115 2    -42436.85901       281.560          43.500    20552866.136 3         0.00000       208.900          28.600  
R10  23916391.522 4   -124551.55404      1085.499          30.700  
R02  20720963.664 3   -243794.60502      1848.477          38.500  
R01  19719694.339 3    183309.26902     -1445.223          36.700  
R24  19263794.836 4    104543.13203      -876.624          34.500  
R23  22033295.860 3    517977.24602     -4083.174          35.900  
R17  21056304.027 3   -419447.13401      3197.682          40.700  
R08  23181585.206 4    447988.31804     -3459.327          32.600  
E07  23512766.537 3    107749.49804      -835.275          38.000    23510647.313 2     76625.58609      -624.820          29.200  
E08  27035964.678 4     12156.53608     -2652.213          33.500           0.000 0         0.00000         0.000           0.000  
E13  25821929.629 5         0.00000     -2399.350          29.100    25819821.800 3         0.00000     -1793.017          24.100  
E19  28609420.606 5         0.00000      2794.500          27.300    28607307.663 3         0.00000      2086.046          25.600  
E26  23166863.609 3     11576.95005      -114.550          37.100    23164742.274 3         0.00000       -86.040          26.800  
E33  25045671.334 3   -287926.29503      2147.416          42.200    25043552.092 2   -204121.70809      1602.618          30.000  
> 2023 09 07 19 34 47.4341741  0 23
G02  23405506.784 3   -379960.23702      2824.251          36.600           0.000 0         0.00000         0.000           0.000  
G08  22528499.936 2    122959.16101      -954.157          44.000    22526159.757 1     87136.20703      -712.515          35.300  
G10  21169492.753 5         0.00000      -985.050          25.300           0.000 0         0.00000         0.000           0.000  
G18  24763495.572 4    464974.98909     -3479.829          32.900           0.000 0         0.00000         0.000           0.000  
G21  22539257.088 2   -301231.59301      2231.701          42.100           0.000 0         0.00000         0.000           0.000  
G23  23282089.125 4    318445.65409     -2377.978          31.200           0.000 0         0.00000         0.000           0.000  
G24  24534544.370 5         0.00000     -2387.045          27.300           0.000 0         0.00000         0.000           0.000  
G27  22779636.664 3    376753.13402     -2833.115          39.200    22777305.489 2    267114.07809     -2115.591          30.500  
G28  23624346.300 4   -104817.83403      3345.049          35.000           0.000 0         0.00000         0.000           0.000  
G32  20555160.752 2    -42721.41101       287.446          42.800    20552814.867 3         0.00000       217.250          27.500  
R10  23916166.972 4   -125640.85009      1092.674          29.900  
R02  20720615.306 3   -245645.96902      1854.152          38.500  
R01  19719951.852 3    184751.28302     -1438.942          35.000  
R24  19263963.929 3    105416.87602      -871.027          35.200  
R23  22034057.335 3    522057.26702     -4076.711          35.500  
R17  21055707.736 3   -422647.92901      3204.025          40.000  
R08  23182218.981 4    451443.82909     -3451.799          32.000  
E07  23512926.329 3    108581.68605      -829.098          37.400    23510804.103 3     77246.97309      -614.540          28.200  
E08  27036467.437 4     14804.95509     -2645.214          31.900           0.000 0         0.00000         0.000           0.000  
E13  25822384.714 5         0.00000     -2393.550          27.000    25820273.290 3         0.00000     -1785.974          25.600  
E19  28608884.273 5         0.00000      2799.650          28.200    28606773.425 3         0.00000      2092.423          24.600  
E26  23166886.085 3     11688.53905      -108.561          36.800    23164762.952 3         0.00000       -78.218          23.700  
E33  25045264.814 2   -290076.70103      2153.441          42.900    25043144.071 2   -205727.56209      1612.689          30.700  
> 2023 09 07 19 34 48.4341741  0 23
G02  23404971.656 3   -382779.46202      2815.598          36.900           0.000 0         0.00000         0.000           0.000  
G08  22528682.797 2    123918.63501      -963.308          44.600    22526342.025 1     87852.70803      -719.360          35.300  
G18  24764154.527 4    468460.33804     -3488.557          33.000           0.000 0         0.00000         0.000           0.000  
G21  22538830.482 2   -303458.21101      2222.923          42.500           0.000 0         0.00000         0.000           0.000  
G23  23282532.831 4    320828.54309     -2386.591          32.100           0.000 0         0.00000         0.000           0.000  
G24  24535000.955 5         0.00000     -2390.966          26.900           0.000 0         0.00000         0.000           0.000  
G27  22780177.499 3    379591.35602     -2841.947          39.100    22777844.806 2         0.00000     -2122.285          29.500  
G28  23623712.526 3   -108158.06102      3336.661          35.900           0.000 0         0.00000         0.000           0.000  
G32  20555102.887 2    -43003.58701       278.515          43.100    20552760.911 3         0.00000       209.100          27.600  
R10  23915980.203 4   -126728.11909      1082.768          29.700  
R02  20720272.653 3   -247494.81202      1845.201          38.300  
R01  19720239.065 3    186195.44902     -1447.837          35.000  
R24  19264139.007 4    106293.36403      -880.385          34.800  
R23  22034815.512 3    526139.57202     -4085.946          35.500  
R17  21055118.634 3   -425846.29401      3194.680          40.700  
R08  23182879.122 4    454900.68609     -3460.604          31.400  
E07  23513084.916 3    109415.72705      -837.442          37.000    23510963.580 3     77869.86609      -626.474          28.000  
E08  27036962.080 4     17455.00809     -2653.483          30.600           0.000 0         0.00000         0.000           0.000  
E13  25822843.707 5         0.00000     -2402.800          28.500    25820731.672 3         0.00000     -1792.850          24.100  
E19  28608359.929 5         0.00000      2790.750          28.400    28606240.705 3         0.00000      2085.400          26.100  
E26  23166907.968 3     11802.15805      -117.020          37.300    23164784.538 3         0.00000       -88.600          25.600  
E33  25044857.997 2   -292225.27703      2145.058          43.200    25042735.160 2   -207331.95709      1600.926          29.900  
G10         0.000 0         0.00000         0.000           0.000    21167349.832 4         0.00000      -741.250          20.900  
> 2023 09 07 19 34 49.4341741  0 23
G02  23404428.745 3   -385597.35602      2819.273          36.900           0.000 0         0.00000         0.000           0.000  
G08  22528865.972 2    124879.90201      -960.104          44.200    22526524.903 1     88570.54003      -717.078          35.700  
G10  21169855.194 5         0.00000      -986.749          28.300    21167537.509 3         0.00000      -734.820          23.100  
G18  24764814.058 4    471946.46604     -3484.890          33.100           0.000 0         0.00000         0.000           0.000  
G21  22538409.269 2   -305683.35101      2226.479          41.800           0.000 0         0.00000         0.000           0.000  
G23  23282995.698 4    323212.67504     -2382.814          31.800           0.000 0         0.00000         0.000           0.000  
G24  24535442.254 5         0.00000     -2391.086          27.500           0.000 0         0.00000         0.000           0.000  
G27  22780721.021 3    382431.11002     -2838.447          38.800    22778384.140 2         0.00000     -2119.484          29.100  
G28  23623074.581 3   -111497.03102      3340.343          35.700           0.000 0         0.00000         0.000           0.000  
G32  20555048.024 2    -43284.17801       281.754          42.400    20552707.548 3         0.00000       210.900          28.500  
R10  23915766.751 4   -127813.00007      1085.878          29.100  
R02  20719929.390 3   -249342.14502      1848.524          37.400  
R01  19720505.268 4    187641.09303     -1444.355          34.000  
R24  19264273.915 4    107171.91903      -877.514          34.300  
R23  22035570.984 4    530223.27803     -4082.420          34.700  
R17  21054510.669 3   -429043.06301      3197.952          39.200  
R08  23183512.879 4    458358.75109     -3456.566          30.900  
E07  23513242.300 4    110251.34206      -834.246          36.200    23511123.983 3     78493.83609      -622.480          28.800  
E08  27037478.921 4     20106.21309     -2649.982          31.500           0.000 0         0.00000         0.000           0.000  
E13  25823290.991 5         0.00000     -2397.600          29.300    25821185.849 3         0.00000     -1791.566          24.200  
E19  28607830.489 5         0.00000      2797.900          28.000    28605710.672 3         0.00000      2087.375          26.300  
E26  23166926.552 3     11917.34705      -113.854          37.300    23164806.717 3         0.00000       -85.019          25.800  
E33  25044446.678 2   -294372.39003      2148.593          42.800    25042327.139 2   -208935.35609      1605.378          30.200  
> 2023 09 07 19 34 50.4341741  0 23
G02  23403894.506 3   -388416.15402      2820.447          37.500           0.000 0         0.00000         0.000           0.000  
G08  22529050.351 2    125840.66301      -959.366          44.800    22526707.170 1     89287.94203      -716.336          35.600  
G10  21170044.965 5         0.00000      -985.577          27.800    21167725.779 3         0.00000      -732.800          23.500  
G18  24765493.395 4    475431.74004     -3483.719          31.100           0.000 0         0.00000         0.000           0.000  
G21  22537987.759 2   -307909.31801      2227.537          43.400           0.000 0         0.00000         0.000           0.000  
G23  23283440.888 4    325595.88504     -2381.590          32.700           0.000 0         0.00000         0.000           0.000  
G24  24535913.532 5         0.00000     -2391.357          26.200           0.000 0         0.00000         0.000           0.000  
G27  22781260.354 3    385270.12002     -2837.456          38.600    22778925.568 2    273474.11709     -2118.913          29.900  
G28  23622441.417 3   -114836.86502      3341.494          36.900           0.000 0         0.00000         0.000           0.000  
G32  20554994.364 2    -43565.20501       282.550          42.400    20552655.075 2         0.00000       209.700          29.100  
R10  23915589.579 4         0.00000      1086.594          28.500  
R02  20719571.730 3   -251190.08602      1849.498          38.000  
R01  19720790.073 3    189086.12402     -1443.473          35.000  
R24  19264438.191 3    108050.28102      -877.020          35.300  
R23  22036343.261 3    534306.36302     -4081.177          35.300  
R17  21053919.176 3   -432240.31402      3198.837          38.000  
R08  23184171.817 4    461815.66704     -3455.126          32.600  
E07  23513401.201 4    111086.26906      -833.394          35.700    23511281.663 2     79117.33809      -623.759          29.000  
E08  27037985.571 4     22756.43809     -2648.811          30.900           0.000 0         0.00000         0.000           0.000  
E13  25823755.673 5         0.00000     -2401.850          25.800    25821644.842 3         0.00000     -1791.260          25.500  
E19  28607291.173 5         0.00000      2793.400          26.500    28605178.528 3         0.00000      2087.895          26.700  
E26  23166949.639 3     12031.90905      -113.107          36.700    23164828.914 3         0.00000       -84.641          27.300  
E33  25044038.657 2   -296520.38003      2149.515          43.000    25041918.525 2   -210539.37909      1603.821          30.800  
> 2023 09 07 19 34 51.4341741  0 23
G02  23403357.877 3   -391240.64302      2823.790          37.000           0.000 0         0.00000         0.000           0.000  
G08  22529231.432 2    126796.10501      -956.333          45.300    22526890.049 1     90001.41403      -714.081          35.600  
G10  21170254.228 5         0.00000      -982.288          28.200           0.000 0         0.00000         0.000           0.000  
G18  24766144.236 4    478911.23104     -3480.404          31.500           0.000 0         0.00000         0.000           0.000  
G21  22537562.357 2   -310140.86301      2230.993          43.500           0.000 0         0.00000         0.000           0.000  
G23  23283913.667 4    327973.22404     -2378.043          32.800           0.000 0         0.00000         0.000           0.000  
G24  24536356.628 5         0.00000     -2386.131          26.600           0.000 0         0.00000         0.000           0.000  
G27  22781801.468 3    388103.51501     -2834.234          40.500    22779464.587 2         0.00000     -2116.436          28.700  
G28  23621803.751 3   -118182.53602      3344.915          36.200           0.000 0         0.00000         0.000           0.000  
G32  20554939.204 2    -43851.64701       285.329          43.500    20552599.618 3         0.00000       213.613          28.500  
R10  23915371.330 4   -129988.80509      1089.417          30.200  
R02  20719226.373 3   -253043.52802      1852.345          38.700  
R01  19721058.684 3    190525.53302     -1440.464          36.000  
R24  19264624.978 3    108923.44902      -874.330          36.100  
R23  22037116.410 3    538383.72902     -4078.553          35.400  
R17  21053317.492 2   -435443.12301      3201.622          41.100  
R08  23184795.994 4    465266.56103     -3451.521          34.200  
E07  23513558.881 3    111915.62004      -830.110          38.100    23511439.657 2     79736.50009      -618.672          29.600  
E08  27038485.624 4     25400.68708     -2644.828          33.200           0.000 0         0.00000         0.000           0.000  
E13  25824208.663 4      1480.91509     -2394.310          29.700    25822099.315 3         0.00000     -1788.108          26.100  
E19  28606756.638 5         0.00000      2798.400          27.700    28604645.511 3         0.00000      2091.301          25.200  
E26  23166970.928 3     12140.90004      -109.767          37.800    23164849.592 3         0.00000       -81.833          26.700  
E33  25043626.448 2   -298674.11303      2153.033          43.500    25041507.206 2   -212147.69809      1608.860          30.200  
> 2023 09 07 19 34 52.4341741  0 23
G02  23402814.059 3   -394058.54802      2816.427          37.600           0.000 0         0.00000         0.000           0.000  
G08  22529415.496 2    127758.48701      -964.188          45.200    22527072.613 1     90720.08303      -719.947          35.300  
G18  24766800.190 4    482397.35807     -3487.653          30.200           0.000 0         0.00000         0.000           0.000  
G21  22537136.049 2   -312365.84201      2223.282          43.100           0.000 0         0.00000         0.000           0.000  
G23  23284356.466 4    330357.21104     -2385.621          31.700           0.000 0         0.00000         0.000           0.000  
G24  24536803.912 5         0.00000     -2395.118          27.100           0.000 0         0.00000         0.000           0.000  
G27  22782344.397 3    390943.61501     -2841.746          40.100    22780005.125 2         0.00000     -2122.301          29.400  
G28  23621164.899 3   -121521.72502      3337.517          35.900           0.000 0         0.00000         0.000           0.000  
G32  20554888.232 2    -44131.14901       277.741          42.800    20552544.755 3         0.00000       207.350          28.500  
R10  23915178.260 4   -131072.02107      1081.344          29.800  
R02  20718880.405 3   -254889.93802      1844.699          38.300  
R01  19721324.905 4    191971.85303     -1447.993          33.800  
R24  19264796.444 3    109804.01602      -882.595          35.500  
R23  22037874.291 4    542468.02903     -4085.987          34.400  
R17  21052718.793 3   -438638.79901      3193.984          39.800  
R08  23185448.039 4    468723.95403     -3458.822          33.900  
E07  23513718.673 3    112751.68504      -837.835          38.000    23511599.152 2     80360.84809      -625.563          30.000  
E08  27038993.478 4     28051.45309     -2652.208          32.600           0.000 0         0.00000         0.000           0.000  
E13  25824666.434 4      3881.85509     -2402.253          31.400    25822556.197 3         0.00000     -1794.165          25.900  
E19  28606226.308 5         0.00000      2791.650          26.200    28604113.977 3         0.00000      2084.992          25.800  
E26  23166990.717 3     12256.61404      -117.461          38.000    23164870.288 3         0.00000       -87.948          26.800  
E33  25043219.334 2   -300821.28903      2145.468          42.700    25041098.592 2   -213751.07609      1602.134          29.600  
G10         0.000 0         0.00000         0.000           0.000    21168098.725 3         0.00000      -736.150          22.200  
> 2023 09 07 19 34 53.4341741  0 23
G02  23402277.726 3   -396877.50602      2819.008          37.700           0.000 0         0.00000         0.000           0.000  
G08  22529597.467 2    128720.26601      -961.887          44.800    22527255.788 1     91438.27903      -718.231          35.400  
G10  21170630.769 4         0.00000      -987.028          29.100    21168288.479 3         0.00000      -736.800          25.000  
G18  24767476.211 4    485882.35307     -3484.956          29.800           0.000 0         0.00000         0.000           0.000  
G21  22536716.947 2   -314591.74901      2225.959          43.200           0.000 0         0.00000         0.000           0.000  
G23  23284813.941 4    332739.99504     -2382.639          31.000           0.000 0         0.00000         0.000           0.000  
G24  24537241.912 5         0.00000     -2393.028          26.300    24534905.328 3         0.00000     -1781.700          22.500  
G27  22782886.121 3    393782.77601     -2839.159          39.900    22780545.035 2         0.00000     -2120.264          28.700  
G28  23620529.327 3   -124862.03702      3340.308          35.500           0.000 0         0.00000         0.000           0.000  
G32  20554833.368 2    -44411.32401       280.090          42.700    20552492.596 3         0.00000       208.942          27.400  
R10  23914957.306 4   -132155.93404      1083.696          30.000  
R02  20718538.346 3   -256737.10202      1847.118          38.900  
R01  19721587.827 4    193417.35803     -1445.478          34.600  
R24  19264950.843 3    110684.26402      -880.545          35.500  
R23  22038637.563 4    546551.44603     -4083.530          34.800  
R17  21052123.112 3   -441835.17301      3196.215          40.200  
R08  23186087.799 4    472179.97703     -3455.842          34.600  
E07  23513876.371 3    113586.86604      -835.212          37.900    23511758.036 3     80984.57509      -624.280          28.400  
E08  27039495.625 4     30701.24208     -2649.684          32.700           0.000 0         0.00000         0.000           0.000  
E13  25825126.632 4      6281.51909     -2399.531          32.400    25823011.595 3         0.00000     -1792.048          26.200  
E19  28605689.679 5         0.00000      2794.800          26.500    28603580.332 3         0.00000      2087.145          24.800  
E26  23167014.693 3     12371.53704      -114.889          38.300    23164890.670 3         0.00000       -85.940          26.400  
E33  25042811.313 3   -302969.48303      2148.351          42.200    25040689.681 2   -215355.21609      1603.961          30.300  
> 2023 09 07 19 34 54.4341741  0 23
G02  23401739.893 3   -399697.39402      2822.036          37.500           0.000 0         0.00000         0.000           0.000  
G08  22529780.939 2    129681.49201      -959.241          45.000    22527438.666 1     92156.08703      -716.228          35.000  
G10  21170831.918 5         0.00000      -984.034          28.400    21168475.859 3         0.00000      -734.621          26.000  
G18  24768133.665 4    489366.50804     -3481.855          33.400           0.000 0         0.00000         0.000           0.000  
G21  22536293.029 2   -316818.48801      2228.847          43.400           0.000 0         0.00000         0.000           0.000  
G23  23285260.632 4    335121.75704     -2379.486          31.800           0.000 0         0.00000         0.000           0.000  
G24  24537715.581 4         0.00000     -2389.835          29.100           0.000 0         0.00000         0.000           0.000  
G27  22783424.845 3    396621.15802     -2836.228          39.400    22781084.666 3         0.00000     -2118.081          28.600  
G28  23619894.366 4   -128203.35803      3343.536          35.400           0.000 0         0.00000         0.000           0.000  
G32  20554778.208 2    -44692.10401       282.788          42.400    20552439.827 3         0.00000       213.000          27.000  
R10  23914740.853 4         0.00000      1086.366          28.600  
R02  20718198.974 3   -258584.99801      1850.006          39.400  
R01  19721859.143 3    194862.12802     -1442.631          35.300  
R24  19265121.716 3    111564.22402      -878.023          35.500  
R23  22039393.332 3    550634.09702     -4080.485          35.000  
R17  21051525.634 3   -445032.19901      3199.107          40.400  
R08  23186737.750 4    475634.96303     -3452.591          33.400  
E07  23514033.458 3    114421.34204      -832.488          38.100    23511916.031 3         0.00000      -621.468          27.900  
E08  27039992.991 4     33349.89709     -2646.530          31.000           0.000 0         0.00000         0.000           0.000  
E13  25825580.215 4      8680.35209     -2396.922          31.400    25823470.274 3         0.00000     -1789.528          25.800  
E19  28605149.752 5         0.00000      2796.050          26.500    28603050.613 3         0.00000      2089.919          26.000  
E26  23167031.777 3     12485.78204      -112.231          38.600    23164914.943 3         0.00000       -83.565          27.100  
E33  25042400.902 3   -305118.55403      2151.140          42.300    25040280.752 2   -216960.12509      1606.767          30.700  
> 2023 09 07 19 34 55.4341741  0 23
G02  23401198.483 3   -402521.97402      2826.003          37.500           0.000 0         0.00000         0.000           0.000  
G08  22529962.317 2    130638.40301      -955.665          45.100    22527620.934 1     92870.65703      -713.606          35.900  
G18  24768803.701 4    492845.90704     -3477.846          31.600           0.000 0         0.00000         0.000           0.000  
G21  22535866.737 2   -319049.85801      2232.754          43.400           0.000 0         0.00000         0.000           0.000  
G23  23285702.838 4    337498.80109     -2375.409          30.500           0.000 0         0.00000         0.000           0.000  
G24  24538172.759 5         0.00000     -2386.214          28.300           0.000 0         0.00000         0.000           0.000  
G27  22783961.177 3    399454.97702     -2832.363          39.400    22781623.389 2    284066.71009     -2115.141          30.000  
G28  23619258.515 3   -131549.37802      3347.488          35.500           0.000 0         0.00000         0.000           0.000  
G32  20554723.345 2    -44977.17901       286.390          42.500    20552383.166 3         0.00000       213.869          28.400  
R10  23914575.076 4   -134328.76509      1089.689          29.300  
R02  20717847.928 3   -260437.37201      1853.795          39.200  
R01  19722138.539 3    196302.36102     -1438.802          35.000  
R24  19265276.116 3    112440.15702      -874.768          35.500  
R23  22040151.806 4    554712.18803     -4076.674          34.900  
R17  21050932.327 3   -448233.59701      3202.744          40.900  
R08  23187392.185 4    479084.79303     -3448.191          33.500  
E07  23514192.045 3    115251.17704      -828.546          38.200    23512074.618 3     82227.41809      -618.592          28.100  
E08  27040503.532 4     35993.64709     -2642.162          30.500           0.000 0         0.00000         0.000           0.000  
E13  25826035.596 4     11074.49409     -2392.979          31.500    25823924.748 3         0.00000     -1786.723          27.000  
E19  28604638.600 5         0.00000      2802.500          27.700    28602515.781 3         0.00000      2092.934          26.100  
E26  23167057.865 3     12595.47604      -108.417          38.800    23164935.029 3         0.00000       -80.846          27.000  
E33  25041992.584 3   -307272.36103      2155.169          42.500    25039871.248 2   -218568.49905      1609.977          31.100  
G10         0.000 0         0.00000         0.000           0.000    21168666.520 3         0.00000      -729.400          27.600  
> 2023 09 07 19 34 56.4341741  0 23
G02  23400670.247 3   -405348.96502      2824.881          39.000           0.000 0         0.00000         0.000           0.000  
G08  22530143.101 2    131593.34301      -957.268          45.500    22527802.311 1     93583.79203      -714.638          35.900  
G10  21171196.174 4       496.10909      -981.551          30.400    21168851.493 3         0.00000      -732.686          28.000  
G18  24769461.749 4    496322.94303     -3479.181          33.900           0.000 0         0.00000         0.000           0.000  
G21  22535438.928 2   -321283.50201      2231.696          44.100           0.000 0         0.00000         0.000           0.000  
G23  23286160.609 4    339873.37109     -2376.589          31.600           0.000 0         0.00000         0.000           0.000  
G24  24538618.263 4    127308.10609     -2387.885          29.900           0.000 0         0.00000         0.000           0.000  
G27  22784500.808 3    402286.58301     -2833.787          40.300    22782163.019 2    286181.20209     -2116.150          30.200  
G28  23618622.646 3   -134897.92202      3346.485          36.800           0.000 0         0.00000         0.000           0.000  
G32  20554667.888 2    -45264.26801       284.642          43.100    20552329.210 3         0.00000       212.450          27.300  
R10  23914382.321 4   -135419.23904      1088.211          30.800  
R02  20717495.067 3   -262291.86001      1852.029          40.100  
R01  19722385.861 3    197740.38002     -1440.365          36.300  
R24  19265443.393 3    113314.30102      -876.748          36.300  
R23  22040928.271 3    558788.05402     -4078.281          35.800  
R17  21050328.863 2   -451437.08701      3200.983          41.700  
R08  23188040.949 4    482532.00103     -3449.226          35.500  
E07  23514351.837 3    116078.87704      -829.804          38.700    23512233.206 3         0.00000      -619.684          27.800  
E08  27041004.493 4     38635.07309     -2643.281          32.000           0.000 0         0.00000         0.000           0.000  
E13  25826487.679 4     13466.28209     -2393.919          31.900    25824381.647 3         0.00000     -1787.615          27.700  
E19  28604094.485 5         0.00000      2801.500          27.600    28601984.248 3         0.00000      2092.369          25.900  
E26  23167076.746 3     12702.98504      -109.521          39.400    23164956.615 3         0.00000       -81.652          26.600  
E33  25041583.952 2   -309428.53703      2154.186          43.100    25039460.836 2   -220178.58405      1608.960          31.100  
> 2023 09 07 19 34 57.4341741  0 23
G02  23400131.210 3   -408167.14602      2813.291          38.600           0.000 0         0.00000         0.000           0.000  
G08  22530328.370 2    132557.47701      -969.255          46.200    22527985.486 1     94303.71803      -723.727          36.400  
G10  21171400.027 4      1484.14009      -993.211          30.300    21169037.669 3         0.00000      -742.300          28.000  
G18  24770128.487 4    499808.73004     -3490.691          32.300           0.000 0         0.00000         0.000           0.000  
G21  22535018.622 2   -323508.36001      2219.923          44.600           0.000 0         0.00000         0.000           0.000  
G23  23286613.600 4    342256.70209     -2388.301          31.700           0.000 0         0.00000         0.000           0.000  
G24  24539070.346 4    129702.87909     -2399.872          30.700           0.000 0         0.00000         0.000           0.000  
G27  22785040.438 3    405127.03001     -2845.462          40.600    22782703.557 2    288302.28809     -2124.849          30.100  
G28  23617987.999 3   -138237.76302      3334.941          36.800           0.000 0         0.00000         0.000           0.000  
G32  20554614.525 2    -45542.21301       272.816          42.900    20552275.550 3         0.00000       203.362          27.500  
R10  23914154.770 4   -136500.25009      1075.676          30.000  
R02  20717158.103 3   -264137.12201      1840.049          40.400  
R01  19722678.169 3    199187.54602     -1452.276          36.400  
R24  19265605.890 3    114198.03602      -889.170          36.300  
R23  22041686.448 3    562873.10402     -4090.246          36.100  
R17  21049737.668 2   -454631.29501      3188.957          42.100  
R08  23188685.194 4    485987.98803     -3460.933          35.400  
E07  23514508.330 3    116915.47004      -841.201          39.000    23512390.293 3         0.00000      -629.005          27.900  
E08  27041506.937 4     41285.07309     -2654.274          31.900           0.000 0         0.00000         0.000           0.000  
E13  25826939.762 4     15866.98309     -2405.245          32.400    25824839.122 3    244949.41209     -1796.752          28.600  
E19  28603566.843 5         0.00000      2790.000          28.900    28601450.323 3         0.00000      2083.081          25.600  
E26  23167100.740 3     12819.47704      -121.217          39.500    23164978.201 3         0.00000       -91.226          27.300  
E33  25041174.151 2   -311575.95803      2142.791          43.400    25039052.519 2   -221782.14409      1598.751          30.900  
> 2023 09 07 19 34 58.4341741  0 23
G02  23399593.691 3   -410981.73602      2818.130          38.900           0.000 0         0.00000         0.000           0.000  
G08  22530512.435 2    133525.63201      -964.832          46.100    22528170.162 1     95026.71203      -720.486          36.800  
G18  24770792.224 4    503298.11203     -3485.744          34.000           0.000 0         0.00000         0.000           0.000  
G21  22534594.110 2   -325729.46601      2224.620          44.600           0.000 0         0.00000         0.000           0.000  
G23  23287073.186 4    344643.50409     -2383.274          32.600           0.000 0         0.00000         0.000           0.000  
G24  24539540.123 4    132101.44009     -2395.202          30.300           0.000 0         0.00000         0.000           0.000  
G27  22785586.961 3    407971.25101     -2840.788          40.800    22783244.968 2    290426.25909     -2121.476          30.000  
G28  23617352.131 3   -141574.02602      3339.830          36.200           0.000 0         0.00000         0.000           0.000  
G32  20554561.459 2    -45816.23401       277.425          43.100    20552223.985 3         0.00000       209.250          28.100  
R10  23913948.805 4   -137577.07004      1080.130          30.100  
R02  20716808.855 3   -265978.43101      1844.962          40.200  
R01  19722928.492 3    200638.59402     -1447.492          36.100  
R24  19265774.668 3    115086.15502      -884.773          36.300  
R23  22042432.026 3    566961.95002     -4085.109          36.100  
R17  21049133.279 2   -457821.50201      3193.841          41.800  
R08  23189344.446 4    489447.43103     -3455.775          35.400  
E07  23514670.216 3    117755.90304      -837.240          38.900    23512549.788 3     84097.81509      -624.811          28.300  
E08  27042011.790 4     43938.57109     -2650.000          31.500           0.000 0         0.00000         0.000           0.000  
E13  25827402.943 4     18271.31209     -2401.241          31.900    25825295.113 3    246744.92809     -1792.587          28.900  
E19  28603034.123 5         0.00000      2793.450          29.100    28600920.884 3         0.00000      2087.103          25.100  
E26  23167120.529 3     12939.80704      -117.267          39.200    23165000.397 3         0.00000       -86.853          26.700  
E33  25040763.425 2   -313719.68103      2146.882          43.300    25038644.794 2   -223383.01405      1604.250          31.900  
G10         0.000 0         0.00000         0.000           0.000    21169230.128 3         0.00000      -737.398          27.500  
> 2023 09 07 19 34 59.4341741  0 23
G02  23399059.749 3   -413799.86302      2816.577          39.200           0.000 0         0.00000         0.000           0.000  
G08  22530694.109 2    134490.62101      -966.709          45.800    22528353.930 1     95747.32503      -721.927          36.700  
G10  21171759.188 4       500.75509      -989.488          29.800    21169411.505 3         0.00000      -740.850          25.300  
G18  24771455.367 4    506783.88904     -3487.414          33.400           0.000 0         0.00000         0.000           0.000  
G21  22534172.897 2   -327954.08601      2223.070          44.800           0.000 0         0.00000         0.000           0.000  
G23  23287524.972 4    347026.68009     -2384.692          33.800           0.000 0         0.00000         0.000           0.000  
G24  24539988.315 4    134496.92709     -2397.348          30.300           0.000 0         0.00000         0.000           0.000  
G27  22786122.386 3    410812.02301     -2842.391          40.800    22783785.802 2    292547.55609     -2122.583          30.500  
G28  23616716.577 3   -144913.93402      3338.280          36.500           0.000 0         0.00000         0.000           0.000  
G32  20554509.597 2    -46093.42101       275.483          43.400    20552171.512 3         0.00000       205.660          27.800  
R10  23913759.034 4   -138657.04309      1078.134          31.100  
R02  20716466.185 3   -267823.04401      1842.871          40.900  
R01  19723207.295 3    202086.22302     -1449.292          35.700  
R24  19265934.460 3    115971.39002      -887.104          36.600  
R23  22043206.100 3    571047.41102     -4087.083          37.000  
R17  21048540.897 2   -461014.90301      3191.694          42.200  
R08  23189983.891 4    492903.10203     -3457.267          35.600  
E07  23514828.804 3    118592.87404      -838.538          39.400    23512709.579 3     84722.84509      -626.454          28.500  
E08  27042516.642 4     46588.28508     -2650.706          32.700           0.000 0         0.00000         0.000           0.000  
E13  25827864.030 4     20672.18509     -2402.263          32.400    25825752.292 2    248537.75309     -1794.178          29.400  
E19  28602507.981 5         0.00000      2793.250          28.700    28600386.052 3         0.00000      2085.638          25.700  
E26  23167146.006 3     13056.72804      -118.503          39.800    23165022.576 3         0.00000       -88.651          26.700  
E33  25040352.717 2   -315867.04203      2145.789          43.500    25038236.774 2   -224986.55205      1602.422          31.300  
> 2023 09 07 19 35 00.4341741  0 23
G02  23398523.120 3   -416617.08702      2819.837          38.900           0.000 0         0.00000         0.000           0.000  
G08  22530879.692 2    135456.95601      -963.948          45.200    22528538.012 1     96468.94103      -719.772          36.200  
G18  24772111.617 4    510270.63704     -3484.102          33.100           0.000 0         0.00000         0.000           0.000  
G21  22533752.294 2   -330177.66501      2226.121          43.800           0.000 0         0.00000         0.000           0.000  
G23  23287982.447 4    349410.74209     -2381.519          32.700           0.000 0         0.00000         0.000           0.000  
G24  24540450.588 4    136893.56509     -2394.179          30.100           0.000 0         0.00000         0.000           0.000  
G27  22786667.112 3    413653.86701     -2839.343          39.900    22784325.729 2    294669.73009     -2120.299          29.800  
G28  23616086.711 3   -148253.02702      3341.761          35.800           0.000 0         0.00000         0.000           0.000  
G32  20554458.032 2    -46369.31501       278.365          42.800    20552118.446 3         0.00000       208.450          27.300  
R10  23913547.991 4   -139735.49809      1080.870          29.900  
R02  20716118.419 3   -269666.48001      1846.022          39.300  
R01  19723487.301 4    203535.04503     -1446.178          34.600  
R24  19266096.956 3    116858.26602      -884.518          35.400  
R23  22043981.361 3    575133.96702     -4083.819          35.700  
R17  21047941.604 2   -464207.05001      3194.802          41.100  
R08  23190641.939 4    496359.48203     -3453.590          34.800  
E07  23514987.095 3    119430.96804      -835.887          38.700    23512869.668 3     85348.71909      -623.808          28.600  
E08  27043022.698 4     49239.12609     -2648.598          31.400           0.000 0         0.00000         0.000           0.000  
E13  25828318.521 4     23074.06409     -2399.566          32.600    25826208.580 3         0.00000     -1791.491          27.900  
E19  28601975.243 5         0.00000      2794.200          27.300    28599856.612 3         0.00000      2088.396          25.200  
E26  23167164.591 3     13174.81104      -115.863          38.900    23165044.459 3         0.00000       -86.268          26.600  
E33  25039945.289 2   -318013.43903      2148.711          42.700    25037826.955 2   -226589.33909      1605.504          30.700  
G10         0.000 0         0.00000         0.000           0.000    21169600.980 3         0.00000      -736.339          24.500  
> 2023 09 07 19 35 01.4341741  0 23
G02  23397984.397 3   -419440.66902      2825.738          38.800           0.000 0         0.00000         0.000           0.000  
G08  22531061.366 2    136417.29801      -958.368          45.300    22528720.873 1     97186.11903      -715.674          36.200  
G18  24772785.841 4    513750.99204     -3478.234          33.400           0.000 0         0.00000         0.000           0.000  
G21  22533325.096 2   -332407.51301      2232.012          44.000           0.000 0         0.00000         0.000           0.000  
G23  23288441.737 4    351788.25604     -2375.385          33.000           0.000 0         0.00000         0.000           0.000  
G24  24540897.576 4         0.00000     -2388.427          28.900    24538544.798 3         0.00000     -1786.000          21.700  
G27  22787202.241 3    416489.44001     -2833.455          39.800    22784866.250 2    296787.18709     -2115.795          29.700  
G28  23615442.763 3   -151598.51302      3347.760          35.900           0.000 0         0.00000         0.000           0.000  
G32  20554406.763 2    -46651.24001       283.944          43.000    20552065.380 3         0.00000       212.413          26.700  
R10  23913324.646 4   -140819.92607      1086.430          29.600  
R02  20715765.262 3   -271516.08101      1851.668          39.400  
R01  19723769.104 4    204977.59403     -1440.514          34.700  
R24  19266254.933 3    117739.31502      -879.171          35.200  
R23  22044743.726 3    579214.26502     -4078.269          35.300  
R17  21047342.329 3   -467405.31301      3200.273          40.900  
R08  23191293.094 4    499809.13303     -3447.448          34.500  
E07  23515146.293 3    120262.86104      -829.916          38.200    23513027.051 3     85969.88209      -619.187          28.000  
E08  27043523.642 4     51883.28409     -2642.015          30.700           0.000 0         0.00000         0.000           0.000  
E13  25828771.493 4     25469.59709     -2393.624          31.800    25826664.257 3    252120.20009     -1786.900          28.300  
E19  28601446.118 5         0.00000      2803.550          27.500    28599322.391 3         0.00000      2093.238          25.700  
E26  23167189.178 3     13286.74304      -109.929          38.900    23165064.841 3         0.00000       -81.551          25.200  
E33  25039534.581 3   -320166.15903      2154.680          42.600    25037418.341 2   -228196.92805      1610.959          31.400  
G10         0.000 0         0.00000         0.000           0.000    21169787.156 3         0.00000      -734.600          23.900  
> 2023 09 07 19 35 02.4341741  0 23
G02  23397446.564 3   -422262.99501      2818.670          39.700           0.000 0         0.00000         0.000           0.000  
G08  22531243.337 2    137379.31701      -965.839          45.700    22528903.751 1     97904.46103      -721.251          36.600  
G18  24773440.294 4    517232.59404     -3485.347          32.700           0.000 0         0.00000         0.000           0.000  
G21  22532900.584 2   -334636.09901      2224.818          44.500           0.000 0         0.00000         0.000           0.000  
G23  23288901.620 4    354167.08803     -2382.463          33.700           0.000 0         0.00000         0.000           0.000  
G24  24541339.171 4         0.00000     -2396.203          28.800           0.000 0         0.00000         0.000           0.000  
G27  22787738.556 3    419326.43502     -2840.628          39.200    22785405.584 2    298905.69709     -2121.199          30.500  
G28  23614806.895 3   -154942.83002      3340.664          36.800           0.000 0         0.00000         0.000           0.000  
G32  20554355.494 2    -46931.51201       276.446          43.400    20552012.017 3         0.00000       207.050          28.100  
R10  23913123.480 4   -141902.54804      1078.563          30.000  
R02  20715423.796 3   -273364.02501      1844.028          40.200  
R01  19724029.025 3    206421.69402     -1447.995          36.100  
R24  19266433.920 3    118622.41702      -887.169          35.900  
R23  22045498.901 3    583296.07502     -4085.757          35.900  
R17  21046744.536 2   -470601.91501      3192.667          41.700  
R08  23191932.243 4    503259.83603     -3454.257          35.400  
E07  23515304.584 3    121096.20004      -836.896          39.000    23513186.546 3     86592.19509      -625.334          28.200  
E08  27044027.604 4     54528.65109     -2648.929          31.100           0.000 0         0.00000         0.000           0.000  
E13  25829231.376 4     27866.54908     -2400.465          33.600    25827119.935 3    253910.13109     -1792.912          28.500  
E19  28600906.784 5         0.00000      2793.700          28.700    28598792.062 3         0.00000      2087.355          26.300  
E26  23167210.153 3     13400.18204      -116.982          39.300    23165088.224 3         0.00000       -87.731          26.900  
E33  25039128.061 2   -322317.63803      2147.990          43.400    25037009.430 2   -229803.53905      1603.711          31.900  
G10         0.000 0         0.00000         0.000           0.000    21169976.910 3         0.00000      -737.930          27.200  
> 2023 09 07 19 35 03.4341741  0 23
G02  23396909.934 3   -425082.25901      2819.953          39.500           0.000 0         0.00000         0.000           0.000  
G08  22531427.995 2    138344.78001      -964.910          46.300    22529087.223 1     98625.41403      -720.529          36.500  
G18  24774107.329 4    520717.25504     -3483.947          32.600           0.000 0         0.00000         0.000           0.000  
G21  22532477.870 2   -336861.49001      2226.067          45.000           0.000 0         0.00000         0.000           0.000  
G23  23289352.202 4    356548.84603     -2381.035          33.800           0.000 0         0.00000         0.000           0.000  
G24  24541803.242 4    144072.15207     -2395.249          30.100    24539453.169 4         0.00000     -1781.850          21.000  
G27  22788279.984 3    422166.63902     -2839.577          38.900    22785946.401 2    301026.59909     -2120.470          30.500  
G28  23614169.543 3   -158284.16602      3342.055          36.800           0.000 0         0.00000         0.000           0.000  
G32  20554299.444 2    -47208.37301       277.423          44.000    20551959.265 3         0.00000       207.242          28.000  
R10  23912941.805 4   -142981.45904      1079.394          31.000  
R02  20715082.644 3   -275208.65101      1845.188          40.100  
R01  19724291.948 3    207869.07802     -1446.826          36.500  
R24  19266599.400 3    119509.26802      -886.453          36.300  
R23  22046265.490 3    587381.11902     -4084.425          36.800  
R17  21046155.138 2   -473795.04901      3193.677          42.700  
R08  23192578.599 3    506713.45102     -3452.826          36.000  
E07  23515461.077 3    121932.74004      -835.954          39.000    23513344.540 3     87216.81809      -623.810          28.600  
E08  27044533.346 4     57176.95109     -2647.403          30.800           0.000 0         0.00000         0.000           0.000  
E13  25829681.662 4     30266.57808     -2399.503          32.900    25827576.834 3    255702.29009     -1791.549          28.000  
E19  28600375.861 5         0.00000      2794.900          27.900    28598259.621 3         0.00000      2088.786          26.400  
E26  23167231.739 3     13516.80704      -116.136          39.900    23165109.513 3         0.00000       -86.471          27.300  
E33  25038718.539 2   -324466.03602      2149.087          44.000    25036599.612 2   -231407.88405      1605.696          31.800  
G10         0.000 0         0.00000         0.000           0.000    21170165.494 3         0.00000      -737.000          27.000  
> 2023 09 07 19 35 04.4341741  0 23
G02  23396376.307 3   -427900.82302      2818.159          39.000           0.000 0         0.00000         0.000           0.000  
G08  22531612.078 2    139311.01501      -966.194          46.300    22529270.991 1     99346.95103      -721.482          36.400  
G18  24774767.470 4    524202.13709     -3486.440          33.000           0.000 0         0.00000         0.000           0.000  
G21  22532050.375 2   -339086.16901      2224.234          44.400           0.000 0         0.00000         0.000           0.000  
G23  23289806.396 4    358932.39409     -2385.858          30.200           0.000 0         0.00000         0.000           0.000  
G24  24542251.137 4         0.00000     -2398.992          28.700    24539914.849 3         0.00000     -1790.200          22.600  
G27  22788823.820 3    425007.26201     -2840.418          40.500    22786487.829 2    303147.94209     -2121.087          30.600  
G28  23613533.971 3   -161624.81902      3340.010          37.500           0.000 0         0.00000         0.000           0.000  
G32  20554249.083 2    -47484.09701       274.959          43.700    20551907.403 3         0.00000       204.900          28.500  
R10  23912743.048 4   -144058.64303      1074.876          32.400  
R02  20714728.283 3   -277052.49401      1843.890          40.400  
R01  19724568.063 3    209317.61702     -1449.648          37.500  
R24  19266767.289 3    120397.48002      -889.032          36.600  
R23  22047023.667 3    591467.09902     -4086.610          36.600  
R17  21045560.661 2   -476987.06301      3191.256          42.800  
R08  23193203.073 4    510168.07003     -3456.770          33.400  
E07  23515626.558 3    122770.36504      -838.827          39.300    23513505.222 3     87842.35809      -626.573          28.700  
E08  27045036.994 4     59826.29309     -2651.078          32.300    27042925.256 4         0.00000     -1976.550          20.900  
E13  25830147.548 4     32667.48007     -2402.012          34.900    25828034.309 3         0.00000     -1793.881          27.200  
E19  28599839.529 5         0.00000      2795.900          28.500    28597725.993 3         0.00000      2087.910          25.800  
E26  23167256.937 3     13634.42604      -118.388          39.400    23165131.099 3         0.00000       -88.522          27.800  
E33  25038311.129 2   -326613.79002      2147.259          43.900    25036190.386 2   -233011.67709      1603.444          29.500  
G10         0.000 0         0.00000         0.000           0.000    21170353.747 3         0.00000      -739.163          25.900  
> 2023 09 07 19 35 05.4341741  0 23
G02  23395841.789 3   -430721.31801      2824.683          39.700           0.000 0         0.00000         0.000           0.000  
G08  22531795.846 2    140274.40501      -958.743          45.700    22529454.777 1    100066.39203      -715.943          36.600  
G18  24775426.111 4    527687.87409     -3482.283          32.600           0.000 0         0.00000         0.000           0.000  
G21  22531629.458 2   -341312.52501      2230.433          43.000           0.000 0         0.00000         0.000           0.000  
G23  23290253.680 5         0.00000     -2383.300          27.600           0.000 0         0.00000         0.000           0.000  
G24  24542734.996 5         0.00000     -2395.600          25.100           0.000 0         0.00000         0.000           0.000  
G27  22789361.932 3    427844.67702     -2832.568          39.300    22787027.163 2    305266.77509     -2115.277          30.400  
G28  23612897.527 3   -164966.76002      3345.796          36.700           0.000 0         0.00000         0.000           0.000  
G32  20554196.313 2    -47760.62401       280.302          43.700    20551854.634 2         0.00000       209.513          28.700  
R10  23912529.893 4   -145133.15104      1076.596          31.300  
R02  20714382.332 3   -278899.34102      1851.848          38.400  
R01  19724836.377 3    210766.10002     -1445.104          37.400  
R24  19266942.367 3    121284.78202      -883.413          36.000  
R23  22047803.115 3    595551.97302     -4080.640          35.000  
R17  21044960.164 2   -480180.04301      3197.011          42.000  
R08  23193836.533 4    513623.42509     -3452.495          32.000  
E07  23515785.442 3    123608.27104      -835.075          38.000    23513665.310 2     88468.07209      -623.172          29.700  
E08  27045541.846 4     62477.56808     -2649.321          33.100           0.000 0         0.00000         0.000           0.000  
E13  25830604.133 4     35068.58908     -2398.083          32.700    25828491.191 3         0.00000     -1790.124          26.500  
E19  28599309.496 5         0.00000      2806.000          25.900    28597194.163 3         0.00000      2094.503          24.200  
E26  23167276.412 3     13751.40104      -113.678          37.800    23165155.076 3         0.00000       -84.483          27.900  
E33  25037902.200 2   -328763.07303      2152.904          43.300    25035781.179 2   -234616.69109      1608.826          29.000  
G10         0.000 0         0.00000         0.000           0.000    21170542.925 3         0.00000      -736.950          25.300  
> 2023 09 07 19 35 06.4341741  0 23
G02  23395301.251 3   -433548.82901      2827.110          40.500           0.000 0         0.00000         0.000           0.000  
G08  22531977.223 2    141229.19001      -953.924          44.800    22529637.044 1    100779.35003      -712.330          37.200  
G10  21173065.685 4       499.36003      -988.206          34.100    21170729.695 3         0.00000      -737.776          28.500  
G18  24776082.362 3    531169.40102     -3483.248          38.900           0.000 0         0.00000         0.000           0.000  
G21  22531201.666 2   -343545.89101      2233.001          44.000           0.000 0         0.00000         0.000           0.000  
G23  23290698.573 4    363699.81009     -2384.526          29.600           0.000 0         0.00000         0.000           0.000  
G24  24543156.821 5         0.00000     -2399.200          25.500           0.000 0         0.00000         0.000           0.000  
G27  22789904.564 3    430673.00101     -2827.330          39.800    22787565.886 2    307378.81809     -2111.323          30.600  
G28  23612261.361 3   -168315.15902      3347.588          36.800           0.000 0         0.00000         0.000           0.000  
G32  20554146.249 2    -48043.01801       281.089          43.800    20551801.864 2         0.00000       209.350          29.000  
R10  23912337.435 4   -146209.23504      1071.586          31.100  
R02  20714038.772 3   -280754.77201      1856.204          39.100  
R01  19725115.476 3    212209.67402     -1445.634          38.400  
R24  19267092.561 3    122165.86702      -882.079          37.000  
R23  22048557.401 3    599630.37402     -4079.435          36.200  
R17  21044360.889 2   -483379.25801      3198.135          42.400  
R08  23194486.780 4    517075.07609     -3448.653          31.500  
E07  23515945.530 3    124441.42004      -835.434          39.700    23513823.008 3         0.00000      -623.603          25.600  
E08  27046048.793 4     65126.29409     -2652.240          32.000           0.000 0         0.00000         0.000           0.000  
E13  25831058.310 4     37464.38509     -2397.361          29.800    25828946.886 3         0.00000     -1790.766          26.300  
E19  28598783.965 5         0.00000      2810.550          27.300    28596656.626 3         0.00000      2096.300          22.800  
E26  23167298.294 3     13862.51904      -112.345          38.600    23165175.772 3         0.00000       -83.771          26.000  
E33  25037492.400 2   -330919.28503      2155.644          43.200    25035371.954 2   -236226.84309      1610.208          30.600  
> 2023 09 07 19 35 07.4341741  0 23
G02  23394760.434 2   -436373.24801      2822.837          41.500           0.000 0         0.00000         0.000           0.000  
G08  22532158.601 2    142184.63601      -955.771          45.400    22529818.719 1    101492.80803      -713.697          37.400  
G10  21173255.753 4      1492.76304      -997.567          33.300    21170917.965 3         0.00000      -744.350          27.700  
G18  24776745.208 3    534657.42701     -3491.421          41.000           0.000 0         0.00000         0.000           0.000  
G21  22530779.248 2   -345776.02901      2228.615          44.000           0.000 0         0.00000         0.000           0.000  
G23  23291170.741 4    366092.33809     -2397.730          31.300           0.000 0         0.00000         0.000           0.000  
G24  24543647.276 6         0.00000     -2400.050          22.900           0.000 0         0.00000         0.000           0.000  
G27  22790441.193 3    433501.46901     -2828.530          41.300    22788103.405 2    309491.01505     -2112.309          31.600  
G28  23611623.399 3   -171659.12202      3341.985          37.800           0.000 0         0.00000         0.000           0.000  
G32  20554094.090 2    -48320.48201       275.133          44.200    20551749.409 2         0.00000       205.336          28.800  
R10  23912125.764 4   -147273.57404      1058.861          31.600  
R02  20713691.007 3   -282609.37501      1854.217          40.500  
R01  19725383.197 3    213659.93001     -1453.364          39.100  
R24  19267268.232 3    123051.40702      -887.632          37.100  
R23  22049324.862 3    603713.33802     -4085.115          37.300  
R17  21043764.598 2   -486573.75101      3192.322          42.700  
R08  23195130.135 4         0.00000     -3464.850          30.300  
E07  23516105.322 3    125281.49004      -843.304          39.600    23513983.096 3         0.00000      -629.899          27.600  
E08  27046551.551 4     67785.41409     -2663.990          33.000           0.000 0         0.00000         0.000           0.000  
E13  25831515.802 4     39867.01609     -2405.754          33.700    25829405.565 3         0.00000     -1797.065          27.000  
E19  28598237.442 5         0.00000      2812.450          28.400    28596123.610 3         0.00000      2098.797          24.200  
E26  23167319.287 3     13978.94704      -118.818          38.800    23165197.654 3         0.00000       -88.960          26.700  
E33  25037082.267 2   -333071.92402      2151.049          43.700    25034961.245 2   -237834.32909      1606.198          30.500  
> 2023 09 07 19 35 08.4341741  0 23
G02  23394225.899 2   -439196.85901      2824.273          41.900           0.000 0         0.00000         0.000           0.000  
G08  22532338.774 2    143138.22601      -951.962          46.000    22530000.096 1    102204.92003      -710.820          37.400  
G10  21173446.118 4      2491.70109     -1000.775          35.000    21171109.237 3         0.00000      -747.458          27.100  
G18  24777408.945 3    538150.15701     -3493.473          40.600           0.000 0         0.00000         0.000           0.000  
G21  22530355.941 2   -348005.18501      2229.837          44.000           0.000 0         0.00000         0.000           0.000  
G23  23291613.541 4    368493.48409     -2403.315          32.500           0.000 0         0.00000         0.000           0.000  
G24  24544090.966 5         0.00000     -2411.400          24.900           0.000 0         0.00000         0.000           0.000  
G27  22790982.324 3    436327.63601     -2824.294          40.400    22788642.442 2    311601.39005     -2108.922          32.200  
G28  23610987.548 3   -175001.18902      3342.495          38.400           0.000 0         0.00000         0.000           0.000  
G32  20554039.227 2    -48595.38901       274.862          44.200    20551694.842 2         0.00000       205.850          29.300  
R10  23911936.900 4   -148328.43603      1052.288          32.400  
R02  20713342.945 2   -284465.61601      1857.934          41.300  
R01  19725648.214 3    215114.45702     -1455.139          38.900  
R24  19267427.431 3    123938.95602      -887.438          37.500  
R23  22050085.726 3    607798.35002     -4084.914          37.500  
R17  21043171.011 2   -489766.08001      3192.443          42.500  
R08  23195796.576 5         0.00000     -3471.193          26.600  
E07  23516264.224 3    126126.41104      -845.617          39.800    23514142.888 3     90348.55609      -631.653          28.400  
E08  27047061.795 4     70452.97209     -2669.196          30.600           0.000 0         0.00000         0.000           0.000  
E13  25831977.779 4     42274.01109     -2407.806          35.200    25829863.650 3         0.00000     -1798.081          26.200  
E19  28597705.611 5         0.00000      2815.100          28.500    28595590.872 3         0.00000      2103.272          26.000  
E26  23167342.967 3     14098.20504      -119.333          39.100    23165221.038 3         0.00000       -89.279          26.900  
E33  25036674.264 2   -335223.30402      2151.880          43.900    25034553.818 2   -239440.94805      1607.048          31.300  
> 2023 09 07 19 35 09.4341741  0 23
G02  23393689.270 2   -442023.30601      2830.557          42.300           0.000 0         0.00000         0.000           0.000  
G08  22532523.450 2    144087.38601      -944.300          44.500    22530180.270 1    102913.70903      -705.110          36.700  
G10  21173642.782 3      3492.03209      -998.356          35.700    21171296.896 3         0.00000      -745.050          26.400  
G18  24778073.885 3    541643.10401     -3490.630          40.100           0.000 0         0.00000         0.000           0.000  
G21  22529933.541 2   -350237.03601      2235.919          43.300           0.000 0         0.00000         0.000           0.000  
G23  23292092.602 5         0.00000     -2400.597          28.300           0.000 0         0.00000         0.000           0.000  
G24  24544606.602 6         0.00000     -2395.050          22.600           0.000 0         0.00000         0.000           0.000  
G27  22791518.343 3    439148.89301     -2816.237          40.000    22789179.368 2    313708.21105     -2103.013          31.100  
G28  23610354.681 3   -178344.81702      3346.904          35.700           0.000 0         0.00000         0.000           0.000  
G32  20553987.661 2    -48871.66101       279.602          43.300    20551642.980 3         0.00000       208.729          27.800  
R10  23911733.640 4   -149379.80504      1051.858          31.400  
R02  20712990.677 3   -286326.29001      1865.818          40.000  
R01  19725925.515 3    216568.70502     -1451.479          37.800  
R24  19267598.007 3    124824.82702      -882.328          37.100  
R23  22050855.595 3    611881.68202     -4079.839          36.600  
R17  21042571.718 2   -492960.08901      3197.815          41.900  
R08  23196416.548 5         0.00000     -3474.153          27.000  
E07  23516427.296 3    126971.34404      -842.588          38.700    23514304.774 3         0.00000      -629.182          26.800  
E08  27047565.740 4     73122.86509     -2668.912          32.600           0.000 0         0.00000         0.000           0.000  
E13  25832433.771 4     44680.66909     -2404.070          35.100    25830319.328 3         0.00000     -1795.611          23.500  
E19  28597164.777 5         0.00000      2825.350          28.100    28595051.241 3         0.00000      2109.715          23.700  
E26  23167364.256 3     14216.26105      -115.140          37.600    23165241.716 3         0.00000       -85.818          25.800  
E33  25036261.147 3   -337377.29903      2157.567          42.600    25034143.406 2   -241049.33409      1611.444          29.400  
> 2023 09 07 19 35 10.4341741  0 22
G02  23393147.842 2   -444859.74401      2839.171          42.000           0.000 0         0.00000         0.000           0.000  
G08  22532700.325 2    145024.48401      -933.510          43.900    22530358.646 1    103613.45503      -697.031          36.800  
G10  21173829.848 3      4487.50309      -995.571          36.700    21171485.778 3         0.00000      -743.406          25.200  
G18  24778743.625 3    545130.08609     -3487.795          35.800           0.000 0         0.00000         0.000           0.000  
G21  22529504.842 2   -352478.78001      2244.250          42.900           0.000 0         0.00000         0.000           0.000  
G23  23292512.018 5         0.00000     -2402.451          28.000           0.000 0         0.00000         0.000           0.000  
G27  22792053.471 3    441957.94501     -2805.599          39.700    22789713.589 2    315805.84209     -2094.961          31.000  
G28  23609721.517 3   -181697.70909      3354.463          35.600           0.000 0         0.00000         0.000           0.000  
G32  20553930.704 2    -49155.93901       285.652          42.200    20551589.914 3         0.00000       214.600          27.900  
R10  23911533.381 4   -150433.13709      1051.576          29.200  
R02  20712639.631 3   -288199.08201      1876.237          39.900  
R01  19726185.436 3    218016.06202     -1446.418          37.300  
R24  19267758.706 3    125702.05702      -875.567          35.200  
R23  22051619.478 4    615956.77903     -4074.046          34.700  
R17  21041975.130 3   -496162.99601      3204.874          39.200  
R08  23197069.203 5         0.00000     -3468.950          25.900  
E07  23516584.086 3    127810.17405      -838.133          37.400    23514463.065 3         0.00000      -625.791          27.400  
E08  27048071.203 4     75790.01609     -2668.482          29.700           0.000 0         0.00000         0.000           0.000  
E13  25832889.151 4     47081.51407     -2400.629          35.000           0.000 0         0.00000         0.000           0.000  
E19  28596635.041 6         0.00000      2832.800          24.400    28594516.113 3         0.00000      2118.765          23.200  
E26  23167384.638 3     14326.54504      -108.967          37.800    23165264.210 3         0.00000       -81.288          24.700  
E33  25035851.329 2   -339540.81503      2165.905          42.700    25033731.494 2   -242665.13109      1617.310          30.400  
> 2023 09 07 19 35 11.4341741  0 22
G02  23392612.120 2   -447700.26901      2840.926          44.400           0.000 0         0.00000         0.000           0.000  
G08  22532878.108 2    145955.79601      -930.686          45.400    22530536.725 1    104308.98703      -694.893          36.100  
G10  21174024.714 3      5484.63509      -998.971          37.300    21171675.845 3         0.00000      -743.800          23.900  
G18  24779411.253 4    548619.12109     -3489.325          31.000           0.000 0         0.00000         0.000           0.000  
G21  22529077.625 3   -354724.25901      2245.925          39.700           0.000 0         0.00000         0.000           0.000  
G23  23292970.400 4         0.00000     -2407.782          29.400           0.000 0         0.00000         0.000           0.000  
G24  24545459.516 5         0.00000     -2421.300          25.800           0.000 0         0.00000         0.000           0.000  
G27  22792585.301 2    444761.60501     -2803.370          43.500    22790248.421 2         0.00000     -2093.519          29.600  
G28  23609078.459 3   -185050.87809      3352.895          36.800           0.000 0         0.00000         0.000           0.000  
G32  20553880.936 2    -49441.30701       284.247          43.600    20551535.347 3         0.00000       212.546          26.000  
R10  23911352.300 5         0.00000      1048.037          26.100  
R02  20712285.880 2   -290077.31601      1878.720          41.500  
R01  19726460.940 3    219463.18902     -1448.284          37.900  
R24  19267923.279 4    126577.67403      -876.630          32.500  
R23  22052365.667 4    620029.12709     -4069.747          30.800  
R17  21041373.761 2   -499368.48701      3205.311          42.700  
R08  23197677.483 6         0.00000     -3476.000          23.400  
E07  23516746.286 3    128649.55404      -840.776          38.500    23514622.560 3         0.00000      -627.741          27.700  
E08  27048575.148 6         0.00000     -2676.200          23.800    27046465.801 3         0.00000     -1995.700          24.100  
E13  25833348.127 5         0.00000     -2404.450          28.200           0.000 0         0.00000         0.000           0.000  
E26  23167407.428 3     14435.95704      -110.309          39.300    23165285.796 3         0.00000       -82.441          25.100  
E33  25035438.509 3   -341707.88303      2167.190          41.700    25033317.487 2   -244283.31209      1619.629          29.200  
> 2023 09 07 19 35 12.4341741  0 22
G02  23392069.192 2   -450539.47701      2839.595          41.800           0.000 0         0.00000         0.000           0.000  
G08  22533054.670 2    146888.11401      -931.360          44.600    22530714.491 1    105005.15603      -695.529          35.900  
G10  21174210.891 3      6487.06402     -1002.855          37.600    21171867.100 3         0.00000      -748.738          24.700  
G18  24780079.491 4    552112.07109     -3496.119          30.000           0.000 0         0.00000         0.000           0.000  
G21  22528647.128 3   -356968.46801      2244.485          39.900           0.000 0         0.00000         0.000           0.000  
G23  23293465.061 5         0.00000     -2409.895          26.400           0.000 0         0.00000         0.000           0.000  
G24  24545931.091 4         0.00000     -2429.144          29.300           0.000 0         0.00000         0.000           0.000  
G27  22793118.336 2    447566.86501     -2804.290          44.400    22790780.565 2    319994.28109     -2094.051          29.700  
G28  23608435.715 3   -188400.54002      3347.520          36.500           0.000 0         0.00000         0.000           0.000  
G32  20553825.461 3    -49722.97501       281.660          41.300    20551479.000 3         0.00000       209.950          25.800  
R02  20711934.520 2   -291954.16901      1877.921          42.100  
R01  19726733.757 3    220913.96802     -1451.227          37.700  
R24  19268088.183 4    127457.11604      -879.477          30.700  
R23  22053133.424 5         0.00000     -4078.450          26.600  
R17  21040780.174 2   -502571.84801      3203.574          43.100  
R08  23198318.429 6         0.00000     -3477.300          23.700  
E07  23516904.873 3    129493.30104      -844.423          38.300    23514783.834 3         0.00000      -630.617          25.900  
E08  27049088.394 5         0.00000     -2676.600          29.500    27046976.656 3         0.00000     -2002.600          26.100  
E13  25833803.211 5         0.00000     -2408.100          26.800    25831692.084 4         0.00000     -1795.550          20.800  
E19  28595565.080 6         0.00000      2834.100          21.000    28593432.070 3         0.00000      2121.700          22.100  
E26  23167429.014 3     14549.05304      -113.328          39.000    23165306.771 3         0.00000       -81.950          22.800  
E33  25035024.799 3   -343873.53604      2165.829          38.900    25032904.964 2   -245900.52509      1617.235          29.200  
> 2023 09 07 19 35 13.4341741  0 23
G02  23391529.875 2   -453382.05101      2843.206          42.600           0.000 0         0.00000         0.000           0.000  
G08  22533228.264 2    147815.55501      -925.658          44.000    22530889.883 1    105697.68903      -691.148          35.300  
G10  21174403.349 3      7489.15202     -1003.546          38.700    21172059.576 3         0.00000      -740.500          22.700  
G18  24780739.040 4    555607.08909     -3495.140          32.600           0.000 0         0.00000         0.000           0.000  
G21  22528219.930 2   -359215.61901      2247.809          41.800           0.000 0         0.00000         0.000           0.000  
G23  23293900.357 4    380521.19309     -2413.210          30.600           0.000 0         0.00000         0.000           0.000  
G24  24546396.663 5         0.00000     -2427.100          23.500           0.000 0         0.00000         0.000           0.000  
G27  22793651.963 2    450366.89601     -2797.656          43.600    22791314.193 2    322085.16109     -2089.124          29.800  
G28  23607800.440 3   -191750.60702      3351.069          36.700           0.000 0         0.00000         0.000           0.000  
G32  20553772.413 2    -50006.74201       284.015          42.800    20551427.138 3         0.00000       212.144          28.500  
R10  23911027.935 6         0.00000      1123.050          20.700  
R02  20711582.567 3   -293835.96201      1883.642          40.600  
R01  19727004.776 3    222363.74601     -1450.447          39.600  
R24  19268245.863 3    128333.97802      -876.358          35.300  
R23  22053889.210 4    628174.90109     -4076.191          29.900  
R17  21040175.786 2   -505777.47101      3205.541          42.700  
R08  23199018.742 5         0.00000     -3484.350          27.100  
E07  23517071.855 4    130336.23309      -843.192          30.600    23514943.626 3         0.00000      -629.803          27.600  
E08  27049599.232 4      4239.20109     -2679.836          30.000    27047486.900 3         0.00000     -2001.216          24.200  
E13  25834254.701 5         0.00000     -2408.500          26.100           0.000 0         0.00000         0.000           0.000  
E26  23167450.600 3     14660.23304      -111.126          37.800    23165328.671 3     10780.44909       -82.624          28.000  
E33  25034615.277 3   -346042.00903      2168.943          41.600    25032494.553 2   -247519.85409      1619.738          30.000  
E19         0.000 0         0.00000         0.000           0.000    28592891.236 3         0.00000      2126.000          22.800  
> 2023 09 07 19 35 14.4341741  0 24
G02  23390988.447 2   -456222.46801      2838.141          42.400           0.000 0         0.00000         0.000           0.000  
G08  22533406.030 2    148742.32901      -927.308          45.300    22531066.147 1    106389.76503      -692.414          36.700  
G10  21174590.730 3      8496.97502     -1011.800          37.800    21172249.347 3         0.00000      -755.812          26.300  
G18  24781396.791 3    559104.72809     -3499.766          38.700           0.000 0         0.00000         0.000           0.000  
G21  22527794.825 2   -361460.62201      2242.776          42.000           0.000 0         0.00000         0.000           0.000  
G23  23294355.441 4    382941.26409     -2424.448          30.600           0.000 0         0.00000         0.000           0.000  
G24  24546841.259 5         0.00000     -2439.250          24.400           0.000 0         0.00000         0.000           0.000  
G27  22794183.794 2    453164.59901     -2797.423          41.500    22791846.913 2    324174.39805     -2088.925          31.300  
G28  23607159.790 3   -195100.33202      3348.744          37.900           0.000 0         0.00000         0.000           0.000  
G32  20553718.142 2    -50288.15901       279.338          42.300    20551372.868 3         0.00000       206.500          27.100  
R10  23910739.239 5         0.00000      1025.039          26.800  
R02  20711234.801 3   -295718.59201      1882.146          39.200  
R11  24371178.171 6         0.00000      3170.450          21.300  
R01  19727276.075 3    223818.18002     -1457.860          38.700  
R24  19268415.253 3    129212.76902      -880.536          37.800  
R23  22054662.063 3    632252.45802     -4078.591          35.400  
R17  21039579.198 3   -508979.60501      3199.170          40.700  
R08  23199754.739 5         0.00000     -3413.600          28.900  
E07  23517228.348 3    131183.77005      -850.323          37.300    23515106.122 2     94125.08809      -635.335          29.400  
E08  27050115.479 4      6924.15109     -2690.076          32.000    27047997.441 3         0.00000     -2009.847          23.400  
E13  25834722.384 4      1469.94208     -2411.461          34.600    25832610.943 3         0.00000     -1800.700          22.800  
E19  28594472.348 6         0.00000      2840.550          24.500    28592349.511 3         0.00000      2126.753          25.400  
E26  23167471.872 3     14773.93904      -115.872          38.200    23165346.348 3         0.00000       -86.919          26.000  
E33  25034201.568 3   -348208.27203      2164.107          41.700    25032082.343 2   -249137.46809      1615.823          29.800  
> 2023 09 07 19 35 15.4341741  0 24
G02  23390446.112 3   -459062.44801      2842.048          41.400           0.000 0         0.00000         0.000           0.000  
G08  22533582.608 2    149666.03901      -920.349          45.200    22531242.430 1    107079.56603      -687.342          36.800  
G10  21174783.485 4      9509.04603     -1012.974          35.200    21172442.713 3         0.00000      -755.000          27.000  
G18  24782065.919 3    562603.15809     -3498.924          38.000           0.000 0         0.00000         0.000           0.000  
G21  22527369.109 2   -363705.27301      2246.562          43.200           0.000 0         0.00000         0.000           0.000  
G23  23294832.705 5         0.00000     -2425.566          26.400           0.000 0         0.00000         0.000           0.000  
G24  24547327.527 5         0.00000     -2445.200          27.100           0.000 0         0.00000         0.000           0.000  
G27  22794713.827 3    455957.51701     -2789.381          39.500    22792378.447 2    326260.04705     -2082.884          32.700  
G28  23606523.922 3   -198451.81102      3352.497          36.900           0.000 0         0.00000         0.000           0.000  
G32  20553663.279 2    -50569.11001       282.030          42.400    20551320.395 2         0.00000       210.819          29.300  
R10  23910553.063 4   -155639.92409      1019.947          31.900  
R02  20710872.657 3   -297604.43701      1889.137          39.300  
R11  24370474.265 6         0.00000      3085.050          22.800  
R01  19727554.598 3    225275.70502     -1457.521          38.400  
R24  19268581.030 3    130091.34702      -877.271          38.700  
R23  22055423.835 3    636328.35802     -4074.847          36.400  
R17  21038976.014 3   -512179.93601      3201.572          40.800  
R08  23200410.379 5         0.00000     -3401.932          27.500  
E07  23517389.030 3    132033.87705      -850.124          36.900    23515266.804 3         0.00000      -634.423          26.700  
E08  27050623.036 4      9616.06109     -2693.835          33.700    27048506.796 3         0.00000     -2011.700          22.900  
E13  25835181.656 4      3880.16108     -2410.027          34.200    25833067.528 3         0.00000     -1799.429          27.800  
E19  28593915.930 5         0.00000      2857.150          27.400    28591808.083 3         0.00000      2133.871          25.200  
E26  23167492.864 3     14888.53604      -113.711          38.200    23165370.342 3         0.00000       -84.537          27.700  
E33  25033790.859 3   -350373.79203      2167.329          42.500    25031670.117 2   -250754.66009      1618.898          30.300  
> 2023 09 07 19 35 16.4341741  0 24
G02  23389903.498 3   -461901.95301      2836.739          41.300           0.000 0         0.00000         0.000           0.000  
G08  22533757.983 2    150587.44101      -922.831          44.300    22531417.508 1    107767.63503      -689.150          35.900  
G10  21174978.648 3     10528.29402     -1025.665          37.700    21172634.281 3         0.00000      -766.132          23.700  
G18  24782730.267 4    566108.74909     -3511.872          35.200           0.000 0         0.00000         0.000           0.000  
G21  22526941.614 2   -365949.36601      2241.275          41.500           0.000 0         0.00000         0.000           0.000  
G23  23295307.577 5         0.00000     -2442.819          27.500           0.000 0         0.00000         0.000           0.000  
G24  24547855.466 4    175374.81309     -2355.942          29.500           0.000 0         0.00000         0.000           0.000  
G27  22795245.064 3    458748.32802     -2792.356          38.900    22792909.387 2    328344.07005     -2085.190          32.100  
G28  23605888.978 3   -201799.39002      3343.052          37.500           0.000 0         0.00000         0.000           0.000  
G32  20553607.822 3    -50846.91901       273.667          40.000    20551267.940 2         0.00000       207.200          29.000  
R10  23910354.601 4   -156650.97807      1002.529          29.600  
R02  20710525.485 3   -299492.26901      1886.258          39.400  
R11  24369975.712 4         0.00000      3069.338          28.600  
R01  19727824.709 3    226737.96602     -1467.373          38.400  
R24  19268744.119 3    130972.42002      -884.953          37.100  
R23  22056190.109 3    640408.05202     -4084.439          35.600  
R17  21038380.315 2   -515378.21901      3194.622          41.200  
R08  23200986.585 5         0.00000     -3514.150          28.800  
E07  23517554.231 4    132889.70409      -861.261          30.500    23515429.597 3         0.00000      -643.266          26.000  
E08  27051134.781 4     12318.42009     -2709.264          31.100           0.000 0         0.00000         0.000           0.000  
E13  25835638.538 4      6296.70207     -2421.959          35.300    25833528.301 3         0.00000     -1809.206          25.300  
E19  28593381.395 5         0.00000      2855.100          25.500    28591263.968 3         0.00000      2131.989          25.100  
E26  23167513.543 3     15006.53505      -122.162          37.300    23165394.318 3     11039.10009       -91.551          28.300  
E33  25033377.132 3   -352538.38203      2161.679          41.500    25031257.611 2   -252371.07009      1613.810          30.200  
> 2023 09 07 19 35 17.4341741  0 24
G02  23389362.663 3   -464741.57101      2845.182          40.900           0.000 0         0.00000         0.000           0.000  
G08  22533930.967 2    151505.72601      -910.730          44.500    22531591.992 1    108453.33403      -680.012          35.300  
G10  21175173.218 3     11554.08002     -1022.099          37.300    21172831.242 3         0.00000      -759.900          24.100  
G18  24783393.096 3    569620.44609     -3506.163          36.100           0.000 0         0.00000         0.000           0.000  
G21  22526512.304 2   -368193.39701      2249.650          41.900           0.000 0         0.00000         0.000           0.000  
G23  23295748.876 4         0.00000     -2444.561          29.200           0.000 0         0.00000         0.000           0.000  
G24  24548316.832 5         0.00000     -2350.374          27.100           0.000 0         0.00000         0.000           0.000  
G27  22795777.801 3    461535.71102     -2778.804          37.700    22793439.716 2    330425.61605     -2075.147          32.600  
G28  23605254.017 3   -205144.42502      3351.815          36.500           0.000 0         0.00000         0.000           0.000  
G32  20553556.850 3    -51122.62901       281.492          39.800    20551214.577 3         0.00000       210.838          28.300  
R10  23910184.915 4   -157650.95209      1001.529          32.000  
R02  20710171.438 3   -301383.09201      1899.000          39.200  
R11  24369393.503 4    -14025.72309      3069.344          31.900  
R01  19728101.714 3    228204.42102     -1462.153          38.200  
R24  19268912.305 3    131854.89802      -876.208          37.300  
R23  22056953.678 4    644490.17803     -4074.829          34.200  
R17  21037786.729 2   -518574.98201      3201.994          41.600  
R08  23201620.046 5         0.00000     -3518.524          27.100  
E08  27051652.511 4     15030.37409     -2710.109          32.800           0.000 0         0.00000         0.000           0.000  
E13  25836099.032 4      8718.49609     -2417.768          31.600    25833991.185 3         0.00000     -1803.503          26.200  
E19  28592837.873 5         0.00000      2862.000          24.700    28590718.038 3         0.00000      2144.174          23.800  
E26  23167535.739 3     15127.08905      -115.507          37.500    23165417.108 3         0.00000       -85.124          27.400  
E33  25032964.626 3   -354702.69403      2169.399          41.500    25030845.996 2   -253987.27009      1624.240          30.100  
E07         0.000 0         0.00000         0.000           0.000    23515592.373 3         0.00000      -637.700          26.000  
> 2023 09 07 19 35 18.4341741  0 23
G02  23388824.533 3   -467585.56402      2842.467          38.200           0.000 0         0.00000         0.000           0.000  
G08  22534104.248 2    152415.12001      -908.979          46.400    22531764.069 2    109132.42404      -678.774          34.600  
G10  21175373.773 3     12579.60902     -1028.834          37.300    21173028.202 3         0.00000      -768.332          26.500  
G18  24784061.631 4    573127.31009     -3507.921          33.700           0.000 0         0.00000         0.000           0.000  
G21  22526087.199 2   -370442.00001      2247.018          43.200           0.000 0         0.00000         0.000           0.000  
G23  23296222.841 4         0.00000     -2450.074          29.300           0.000 0         0.00000         0.000           0.000  
G27  22796303.035 3    464311.66701     -2774.462          40.200    22793967.359 2    332498.58105     -2071.774          32.500  
G28  23604614.554 3   -208497.71202      3353.608          37.800           0.000 0         0.00000         0.000           0.000  
G32  20553503.191 3    -51403.33301       279.403          40.000    20551161.214 2    -36783.09309       208.550          29.700  
R10  23909994.551 4   -158647.23103       991.287          33.400  
R02  20709813.481 3   -303282.94701      1900.500          40.500  
R11  24368803.825 4         0.00000      3063.050          28.100  
R01  19728374.828 3    229669.25202     -1467.620          38.200  
R24  19269078.378 3    132731.23201      -877.169          39.000  
R23  22057693.567 4    648564.20104     -4073.340          31.700  
R17  21037182.951 2   -521774.60301      3197.462          43.200  
R08  23202291.286 4         0.00000     -3523.117          29.600  
E07  23517884.599 5         0.00000      -862.400          26.100    23515758.167 3         0.00000      -643.250          27.000  
E08  27052173.261 4     17745.10907     -2718.961          35.500    27050056.131 4         0.00000     -2025.450          20.900  
E13  25836568.198 4     11135.70908     -2417.226          34.300    25834449.271 3    282667.91509     -1805.406          28.000  
E19  28592288.662 5         0.00000      2872.750          26.600    28590170.031 3         0.00000      2148.950          22.600  
E26  23167562.421 3     15242.96904      -117.279          38.000    23165438.084 3     11215.70009       -87.787          28.400  
E33  25032552.417 3   -356871.19903      2166.869          41.900    25030432.286 2   -255606.52109      1618.240          30.200  
> 2023 09 07 19 35 19.4341741  0 24
G02  23388277.120 4   -470429.34603      2842.140          33.600           0.000 0         0.00000         0.000           0.000  
G08  22534277.825 2    153320.86301      -906.071          46.300    22531936.756 2    109808.83704      -676.654          34.300  
G10  21175562.044 4     13608.66003     -1031.879          34.700    21173222.476 3         0.00000      -769.500          27.500  
G18  24784733.778 4    576630.86209     -3503.931          30.600           0.000 0         0.00000         0.000           0.000  
G21  22525660.297 3   -372690.39901      2246.849          40.900           0.000 0         0.00000         0.000           0.000  
G23  23296680.037 5         0.00000     -2454.602          26.300           0.000 0         0.00000         0.000           0.000  
G24  24549204.525 6         0.00000     -2481.100          20.900           0.000 0         0.00000         0.000           0.000  
G27  22796837.571 3    467081.71301     -2769.495          40.800    22794494.390 2    334567.11605     -2068.093          31.800  
G28  23603970.606 3   -211854.42101      3356.434          39.500           0.000 0         0.00000         0.000           0.000  
G32  20553445.326 3    -51684.36602       279.655          39.400    20551108.445 2         0.00000       208.868          29.400  
R10  23909821.864 4   -159636.79403       985.530          32.400  
R02  20709458.230 3   -305186.67801      1903.466          40.100  
R11  24368254.004 5         0.00000      3062.050          24.700  
R01  19728644.643 3    231136.68602     -1469.972          36.500  
R24  19269236.687 3    133606.41602      -876.354          38.700  
R23  22058473.627 4    652634.76004     -4071.001          31.600  
R17  21036596.258 2   -524972.84201      3196.006          43.700  
R08  23202947.222 4    562207.91309     -3530.266          33.000  
E07  23518042.889 4       597.40208      -862.523          34.000    23515920.646 3         0.00000      -642.750          28.800  
E08  27052688.304 4     20465.69409     -2724.043          32.300    27050570.563 3         0.00000     -2032.650          23.900  
E13  25837022.393 4     13551.16507     -2416.415          35.200    25834908.857 3         0.00000     -1804.728          26.300  
E19  28591737.637 5         0.00000      2883.450          28.100           0.000 0         0.00000         0.000           0.000  
E26  23167580.412 3     15358.81704      -117.190          37.800    23165457.575 3         0.00000       -87.650          27.900  
E33  25032137.504 3   -359039.36704      2166.662          38.800    25030020.670 2   -257225.57809      1618.509          30.300  
> 2023 09 07 19 35 20.4341741  0 24
G02  23387735.692 4   -473269.80209      2837.760          30.800           0.000 0         0.00000         0.000           0.000  
G08  22534450.809 2    154228.12001      -908.688          46.600    22532109.426 2    110486.31005      -678.551          33.500  
G10  21175750.314 4     14643.48004     -1037.189          30.700    21173422.124 3         0.00000      -774.314          28.300  
G18  24785389.715 4    580137.63509     -3509.361          33.400           0.000 0         0.00000         0.000           0.000  
G21  22525229.189 3   -374935.08501      2242.620          40.500           0.000 0         0.00000         0.000           0.000  
G23  23297145.015 5         0.00000     -2460.024          28.200           0.000 0         0.00000         0.000           0.000  
G24  24549670.411 5         0.00000     -2486.722          27.700           0.000 0         0.00000         0.000           0.000  
G27  22797358.006 2    469851.57001     -2770.597          41.800    22795021.718 2    336635.45105     -2068.997          31.200  
G28  23603334.441 3   -215210.17801      3355.060          39.500           0.000 0         0.00000         0.000           0.000  
G32  20553392.574 3    -51962.03701       275.897          40.000    20551055.693 2         0.00000       206.066          29.600  
R10  23909629.998 4   -160618.50104       978.904          30.300  
R02  20709101.774 3   -307089.15101      1901.066          40.700  
R11  24367630.123 5         0.00000      3058.175          27.100  
R01  19728914.144 3    232609.50702     -1475.251          35.400  
R24  19269400.370 3    134484.64501      -880.084          40.400  
R23  22059216.221 4         0.00000     -4073.250          30.300  
R17  21035988.885 2   -528166.28301      3190.927          44.400  
R08  23203621.167 4    565741.99803     -3536.386          34.300  
E07  23518208.370 3      1462.18705      -867.269          37.300    23516085.848 3         0.00000      -646.150          27.600  
E08  27053218.634 5         0.00000     -2727.700          25.700    27051094.000 3         0.00000     -2038.400          23.300  
E13  25837481.368 4     15969.39808     -2419.637          34.400    25835369.037 3         0.00000     -1806.351          24.500  
E19  28591185.425 4     -4458.61609      2881.317          30.600    28589075.187 3         0.00000      2150.750          22.000  
E26  23167605.296 3     15478.18704      -121.159          37.900    23165482.163 3         0.00000       -90.203          27.500  
E33  25031727.685 3   -361203.50805      2162.295          37.000    25029609.351 2   -258841.69605      1615.134          31.500  
> 2023 09 07 19 35 21.4341741  0 24
G02  23387195.765 4   -476101.78709      2825.058          29.800           0.000 0         0.00000         0.000           0.000  
G08  22534624.090 2    155143.41801      -922.720          46.400    22532284.208 2    111169.84305      -689.145          32.500  
G10  21175963.172 4     15686.83403     -1049.061          34.500    21173620.602 2         0.00000      -784.850          29.100  
G18  24786067.551 4    583651.94509     -3519.453          34.100           0.000 0         0.00000         0.000           0.000  
G21  22524804.381 3   -377170.92701      2228.812          40.200           0.000 0         0.00000         0.000           0.000  
G23  23297611.181 5         0.00000     -2470.100          25.900           0.000 0         0.00000         0.000           0.000  
G24  24550144.376 4    187557.13709     -2499.186          32.900           0.000 0         0.00000         0.000           0.000  
G27  22797886.835 2    472627.93601     -2783.295          42.800    22795550.861 2    338708.73105     -2078.544          32.800  
G28  23602696.182 3   -218560.18702      3344.375          38.400           0.000 0         0.00000         0.000           0.000  
G32  20553342.509 3    -52231.81601       263.316          40.600    20551004.128 2    -37401.77705       196.638          30.700  
R10  23909437.540 4   -161590.87707       966.943          29.300  
R02  20708745.022 2   -308983.76601      1887.136          41.900  
R11  24367079.115 4    -26269.64309      3047.302          33.500  
R01  19729203.155 3    234091.34002     -1488.256          35.000  
R24  19269562.552 3    135370.95001      -893.142          40.200  
R23  22059996.874 5         0.00000     -4084.020          27.800  
R17  21035403.081 2   -531350.16201      3176.640          43.700  
R08  23204279.808 3    569284.52702     -3548.013          36.700  
E07  23518375.054 3      2335.61704      -878.896          38.200    23516252.532 3         0.00000      -657.650          28.700  
E08  27053739.976 6         0.00000     -2741.050          23.100    27051611.451 3         0.00000     -2045.100          22.800  
E13  25837934.952 5         0.00000     -2429.650          28.700    25835828.309 3         0.00000     -1817.850          22.500  
E19  28590643.700 4     -7334.58409      2869.425          32.700    28588531.055 3         0.00000      2150.300          22.100  
E26  23167628.068 3     15605.38604      -133.100          37.800    23165506.139 3     11486.29809       -99.970          28.100  
E33  25031318.460 3   -363358.88604      2148.893          39.300    25029198.625 2   -260451.18005      1603.719          31.600  
> 2023 09 07 19 35 22.4341741  0 24
G02  23386666.028 4   -478923.31409      2822.781          35.300           0.000 0         0.00000         0.000           0.000  
G08  22534800.372 2    156069.21401      -924.955          46.400    22532460.193 2    111861.13605      -690.747          33.600  
G10  21176158.039 3     16736.18902     -1046.247          35.500    21173820.564 2    118276.01905      -780.999          31.300  
G18  24786744.776 3    587171.33409     -3515.356          36.100           0.000 0         0.00000         0.000           0.000  
G21  22524374.792 3   -379397.28502      2227.439          36.700           0.000 0         0.00000         0.000           0.000  
G23  23298092.056 5         0.00000     -2468.872          27.700           0.000 0         0.00000         0.000           0.000  
G24  24550613.857 4    190056.49909     -2496.109          35.400           0.000 0         0.00000         0.000           0.000  
G27  22798417.478 2    475413.63801     -2784.026          42.900    22796081.487 2    340788.92504     -2079.037          34.600  
G28  23602062.425 3   -221904.04202      3347.288          37.600           0.000 0         0.00000         0.000           0.000  
G32  20553299.931 3    -52493.84301       264.434          40.700    20550953.749 2    -37597.42805       197.541          30.700  
R10  23909269.948 4         0.00000       970.127          28.000  
R02  20708392.475 2   -310868.25901      1885.665          42.700  
R11  24366512.803 4    -29317.36409      3052.074          34.800  
R01  19729477.158 3    235580.97502     -1487.354          35.500  
R24  19269734.629 2    136265.78301      -892.651          41.200  
R23  22060765.539 4    664878.75609     -4080.919          29.300  
R17  21034806.197 2   -534524.57701      3175.830          43.500  
R08  23204939.653 3    572832.35002     -3544.207          37.700  
E07  23518541.146 3      3215.87504      -877.669          38.900    23516418.309 3     99235.71909      -654.868          28.500  
E08  27054256.520 5         0.00000     -2736.450          29.100           0.000 0         0.00000         0.000           0.000  
E13  25838421.813 6         0.00000     -2427.600          23.200           0.000 0         0.00000         0.000           0.000  
E19  28590095.083 4    -10200.88308      2867.808          34.100    28587985.735 3         0.00000      2141.896          25.000  
E26  23167656.844 3     15740.07504      -132.607          38.200    23165532.227 3     11586.78509       -98.324          28.400  
E33  25030909.549 3   -365505.06103      2147.263          41.200    25028789.714 2   -262053.89005      1603.905          31.600  
> 2023 09 07 19 35 23.4341741  0 23
G02  23386133.605 3   -481745.82509      2822.505          38.600           0.000 0         0.00000         0.000           0.000  
G08  22534975.747 2    156994.23401      -925.008          45.900    22532635.271 2    112551.81805      -690.674          31.900  
G10  21176356.203 4     17781.26303     -1045.541          34.800    21174019.026 2    119056.38505      -780.704          31.900  
G18  24787414.516 4    590684.46609     -3513.118          34.900           0.000 0         0.00000         0.000           0.000  
G21  22523952.985 3   -381624.69102      2227.440          35.900           0.000 0         0.00000         0.000           0.000  
G23  23298556.127 4    405005.31209     -2464.450          29.500           0.000 0         0.00000         0.000           0.000  
G24  24551089.026 3    192551.72709     -2495.869          38.400    24548753.036 3         0.00000     -1867.136          22.700  
G27  22798948.995 2    478196.92201     -2783.036          42.700    22796611.224 1    342867.30603     -2078.163          35.000  
G28  23601423.555 3   -225253.42502      3349.550          35.500           0.000 0         0.00000         0.000           0.000  
G32  20553245.067 3    -52759.12401       264.803          40.600    20550904.295 2    -37795.50605       197.799          30.900  
R10  23909080.177 5         0.00000       971.650          24.900  
R02  20708042.005 2   -312754.01501      1885.882          43.300  
R11  24365941.710 4    -32371.75809      3054.089          33.100  
R01  19729760.759 3    237067.81502     -1487.313          35.800  
R24  19269900.109 2    137157.78501      -892.482          41.400  
R23  22061522.808 4    668957.57709     -4079.234          32.700  
R17  21034211.703 2   -537700.05501      3175.256          42.700  
R08  23205605.187 3    576375.29802     -3543.209          38.500  
E07  23518707.830 3      4092.20804      -876.828          39.300    23516586.494 3     99890.08509      -654.665          28.400  
E08  27054767.654 4      4382.00509     -2737.745          32.300           0.000 0         0.00000         0.000           0.000  
E19  28589547.949 4    -13069.48608      2869.017          33.800    28587435.914 3         0.00000      2142.445          23.000  
E26  23167679.634 3     15871.11604      -131.392          38.600    23165557.705 3     11684.72109       -98.191          28.600  
E33  25030500.638 3   -367652.57103      2147.332          42.200    25028381.100 2   -263657.51209      1603.499          30.000  
> 2023 09 07 19 35 24.4341741  0 23
G02  23385591.584 3   -484567.37302      2820.448          38.600           0.000 0         0.00000         0.000           0.000  
G08  22535150.825 2    157919.23401      -926.052          45.100    22532812.443 2    113242.53605      -691.400          32.100  
G10  21176561.261 3     18828.03302     -1049.010          37.500    21174217.173 2    119838.03705      -783.218          32.000  
G18  24788076.158 4    594198.40009     -3514.196          34.400           0.000 0         0.00000         0.000           0.000  
G21  22523531.475 3   -383851.56302      2225.165          38.600           0.000 0         0.00000         0.000           0.000  
G23  23299028.609 4    407471.43604     -2468.027          31.000           0.000 0         0.00000         0.000           0.000  
G24  24551560.601 3    195049.51201     -2499.933          39.700    24549230.910 3         0.00000     -1867.200          22.800  
G27  22799475.433 2    480979.59801     -2783.138          42.700    22797140.349 1    344945.28103     -2078.360          35.600  
G28  23600784.702 3   -228602.92702      3348.836          36.700           0.000 0         0.00000         0.000           0.000  
G32  20553195.613 3    -53023.23301       262.462          40.400    20550853.619 2    -37992.72305       195.997          30.900  
R10  23908904.506 5         0.00000       968.200          25.300  
R02  20707687.661 2   -314639.74401      1884.658          44.200  
R11  24365379.290 4    -35427.47009      3058.812          29.400  
R01  19730052.457 3    238556.11102     -1490.445          36.700  
R24  19270060.808 2    138050.97601      -894.819          41.700  
R23  22062290.583 4    673037.53103     -4080.196          34.000  
R17  21033617.226 2   -540874.50501      3172.338          43.300  
R08  23206257.825 3    579919.85402     -3546.850          38.100  
E07  23518874.514 3      4969.90704      -879.447          39.300    23516753.772 2    100545.61409      -656.577          30.000  
E08  27055293.203 4      7120.54908     -2740.932          33.200           0.000 0         0.00000         0.000           0.000  
E19  28589005.037 4    -15939.44509      2869.846          32.400    28586892.985 3         0.00000      2143.315          26.300  
E26  23167703.925 3     16003.25204      -133.745          38.600    23165581.681 3     11783.40309       -99.869          28.800  
E33  25030092.321 3   -369799.54403      2145.435          42.100    25027974.283 2   -265260.74309      1602.086          30.300  
> 2023 09 07 19 35 25.4341741  0 22
G02  23385054.344 3   -487385.33809      2817.555          38.400           0.000 0         0.00000         0.000           0.000  
G08  22535326.810 2    158845.52201      -925.482          45.800    22532988.725 2    113934.24105      -691.106          31.500  
G10  21176756.424 3     19878.46602     -1051.330          39.400    21174417.135 2    120622.50405      -785.105          32.400  
G18  24788759.387 4    597711.94909     -3515.271          30.800           0.000 0         0.00000         0.000           0.000  
G21  22523108.464 3   -386075.38409      2223.789          40.500           0.000 0         0.00000         0.000           0.000  
G23  23299498.683 4    409941.08909     -2470.589          30.800           0.000 0         0.00000         0.000           0.000  
G24  24552039.069 3    197551.35801     -2503.132          40.100           0.000 0         0.00000         0.000           0.000  
G27  22800006.670 2    483762.17901     -2781.435          43.000    22797670.085 1    347023.15103     -2077.031          34.800  
G28  23600151.242 3   -231952.19902      3349.934          36.600           0.000 0         0.00000         0.000           0.000  
G32  20553145.548 2    -53284.73701       261.262          41.500    20550803.869 2    -38187.98005       195.146          30.900  
R02  20707335.707 2   -316524.28501      1885.249          44.300  
R11  24364810.884 4         0.00000      3050.950          31.000  
R01  19730316.286 3    240048.14702     -1492.663          36.600  
R24  19270235.293 2    138946.61701      -895.832          41.500  
R23  22063043.071 4    677117.48403     -4079.461          34.300  
R17  21033026.030 2   -544045.67909      3170.932          42.000  
R08  23206929.379 3    583468.61502     -3549.904          36.800  
E07  23519041.199 3      5851.03305      -881.889          37.600    23516921.067 3    101203.53809      -657.463          28.600  
E08  27055815.139 4      9863.30607     -2743.852          34.900           0.000 0         0.00000         0.000           0.000  
E19  28588455.513 4    -18810.46908      2872.543          32.800    28586344.665 3         0.00000      2145.442          27.600  
E26  23167731.199 3     16137.97704      -135.021          37.700    23165609.567 3     11883.98809      -100.534          28.600  
E33  25029687.598 3   -371943.90609      2144.461          40.600    25027563.871 3   -266862.97909      1602.429          28.800  
> 2023 09 07 19 35 26.4341741  0 22
G02  23384524.311 3   -490202.69709      2813.745          38.600           0.000 0         0.00000         0.000           0.000  
G08  22535503.982 2    159772.81101      -929.316          45.900    22533165.304 2    114626.66405      -693.927          32.100  
G10  21176960.574 3     20933.23201     -1058.055          40.200    21174618.301 2    121410.15605      -790.136          33.500  
G18  24789403.631 6         0.00000     -3523.100          22.700           0.000 0         0.00000         0.000           0.000  
G21  22522686.064 3   -388297.13709      2218.936          40.900           0.000 0         0.00000         0.000           0.000  
G23  23299970.258 4    412415.38209     -2477.636          31.600           0.000 0         0.00000         0.000           0.000  
G24  24552518.740 3    200058.66802     -2511.267          38.600    24550183.657 4         0.00000     -1873.950          21.600  
G27  22800535.498 2    486544.89301     -2784.171          42.900    22798199.228 1    349101.18003     -2079.131          35.000  
G28  23599510.278 3   -235299.95902      3346.145          36.400           0.000 0         0.00000         0.000           0.000  
G32  20553098.468 2    -53543.35801       256.041          42.400    20550754.694 2    -38381.15305       191.178          31.100  
R02  20706981.642 2   -318407.73901      1881.516          44.400  
R11  24364203.808 4    -41538.13609      3043.626          30.800  
R01  19730590.883 3    241544.08102     -1499.196          36.000  
R24  19270404.071 2    139845.02801      -900.957          41.300  
R23  22063805.436 4    681199.18903     -4083.654          34.900  
R17  21032431.536 2   -547213.55809      3164.498          42.700  
R08  23207589.207 3    587022.29102     -3557.451          36.600  
E07  23519209.977 3      6735.96505      -887.760          36.700    23517088.642 3    101864.40709      -663.963          28.600  
E08  27056338.575 4     12611.14107     -2751.297          35.000           0.000 0         0.00000         0.000           0.000  
E19  28587910.490 4    -21682.03509      2870.516          32.700    28585797.845 2   -112731.90409      2143.299          29.000  
E26  23167758.177 3     16275.65305      -140.025          37.600    23165634.154 3     11986.83109      -105.008          28.000  
E33  25029277.779 3   -374085.61409      2139.805          40.700    25027155.850 3   -268462.21309      1593.109          28.400  
> 2023 09 07 19 35 27.4341741  0 22
G02  23383983.197 3   -493016.90309      2816.354          37.300           0.000 0         0.00000         0.000           0.000  
G08  22535683.859 2    160701.41801      -926.535          46.100    22533342.179 2    115320.08705      -691.723          32.500  
G10  21177163.834 3     21991.64201     -1057.200          40.900    21174819.171 2    122200.57905      -789.474          32.100  
G18  24790085.673 6         0.00000     -3513.500          22.500           0.000 0         0.00000         0.000           0.000  
G21  22522265.741 2   -390516.69609      2220.948          42.700           0.000 0         0.00000         0.000           0.000  
G23  23300434.626 4    414893.46309     -2476.842          31.200           0.000 0         0.00000         0.000           0.000  
G24  24552994.503 4    202570.92404     -2511.842          32.800           0.000 0         0.00000         0.000           0.000  
G27  22801065.531 2    489327.63801     -2780.168          41.800    22798728.947 1    351179.17603     -2075.986          35.000  
G28  23598873.834 3   -238647.26402      3349.715          36.700           0.000 0         0.00000         0.000           0.000  
G32  20553043.604 2    -53799.57301       257.968          41.600    20550706.130 2    -38572.47905       192.704          31.200  
R02  20706631.783 2   -320290.07601      1884.660          43.100  
R11  24363649.484 5         0.00000      3044.188          26.000  
R01  19730885.879 4    243043.64703     -1498.228          34.200  
R24  19270565.957 2    140745.77701      -898.918          41.200  
R23  22064564.207 4    685281.61403     -4079.979          33.400  
R17  21031843.359 2   -550377.55009      3165.941          42.500  
R08  23208254.444 4    590580.44803     -3557.329          33.500  
E07  23519379.053 4      7624.12206      -886.916          36.000    23517258.328 3         0.00000      -662.149          27.100  
E08  27056865.607 4     15363.33508     -2751.533          34.600           0.000 0         0.00000         0.000           0.000  
E19  28587363.670 4    -24554.36508      2874.935          33.200    28585252.822 3         0.00000      2147.045          26.300  
E26  23167782.468 3     16415.80905      -138.595          36.700    23165660.539 3         0.00000      -103.460          27.700  
E33  25028872.463 3   -376224.67304      2140.578          40.600    25026748.423 3         0.00000      1598.618          27.400  
> 2023 09 07 19 35 28.4341741  0 21
G02  23383453.461 3   -495835.70709      2820.216          35.800           0.000 0         0.00000         0.000           0.000  
G08  22535858.344 2    161624.94801      -921.335          46.200    22533517.851 2    116009.73909      -688.137          30.600  
G10  21177357.811 3     23047.04701     -1054.329          41.300    21175019.133 2    122988.66305      -787.281          32.400  
G18  24790761.101 4         0.00000     -3514.296          29.400           0.000 0         0.00000         0.000           0.000  
G21  22521842.137 2   -392740.13509      2225.333          42.600           0.000 0         0.00000         0.000           0.000  
G23  23300906.200 4    417368.77809     -2474.204          31.900           0.000 0         0.00000         0.000           0.000  
G24  24553469.376 4         0.00000     -2509.522          29.200           0.000 0         0.00000         0.000           0.000  
G27  22801596.472 2    492104.48201     -2774.385          42.100    22799257.183 2    353252.79504     -2071.791          34.100  
G28  23598237.668 3   -241999.79802      3354.694          37.000           0.000 0         0.00000         0.000           0.000  
G32  20552996.541 2    -54059.84101       261.766          42.200    20550657.270 2    -38766.82809       195.526          30.600  
R02  20706272.343 2   -322177.66501      1889.771          43.200  
R01  19731160.790 4    244539.92103     -1495.058          34.300  
R24  19270732.642 2    141642.33201      -895.029          41.400  
R23  22065338.281 4    689359.00603     -4075.333          33.200  
R17  21031248.865 2   -553545.14001      3169.141          42.400  
R08  23208918.791 4    594136.23803     -3554.890          34.600  
E07  23519545.440 4      8508.79206      -883.582          35.900    23517427.717 3         0.00000      -659.542          25.900  
E08  27057385.152 4     18113.29207     -2749.186          34.900           0.000 0         0.00000         0.000           0.000  
E19  28586813.849 4    -27433.02608      2881.348          33.400    28584704.501 3         0.00000      2151.883          27.900  
E26  23167809.743 3     16551.81705      -134.674          37.100    23165687.220 3         0.00000      -100.459          27.000  
E33  25028461.144 3   -378367.81809      2143.971          40.300    25026341.309 3         0.00000      1601.437          27.800  
> 2023 09 07 19 35 29.4341741  0 21
G02  23382909.642 3   -498657.31809      2824.753          36.800           0.000 0         0.00000         0.000           0.000  
G08  22536034.922 2    162544.36501      -916.680          47.200    22533691.445 2    116696.39409      -684.608          30.000  
G10  21177561.071 3     24100.72801     -1052.365          41.100    21175219.391 2    123775.50905      -785.876          32.200  
G18  24791418.538 5         0.00000     -3512.801          26.000           0.000 0         0.00000         0.000           0.000  
G21  22521412.530 2   -394967.28109      2229.026          42.300           0.000 0         0.00000         0.000           0.000  
G23  23301392.172 4    419842.51909     -2472.533          32.500           0.000 0         0.00000         0.000           0.000  
G24  24553948.140 4    207591.02304     -2508.295          31.000           0.000 0         0.00000         0.000           0.000  
G27  22802122.002 2    494876.51301     -2769.209          42.400    22799784.528 2    355322.85705     -2067.920          32.400  
G28  23597604.801 3   -245356.21702      3358.675          37.000           0.000 0         0.00000         0.000           0.000  
G32  20552947.680 2    -54322.62901       264.477          42.300    20550605.704 2    -38963.03305       197.491          30.900  
R02  20705923.985 2   -324069.34101      1894.415          42.800  
R01  19731441.703 4    246034.26404     -1492.895          31.900  
R24  19270905.032 3    142536.23301      -892.149          40.600  
R23  22066091.956 4    693432.49603     -4071.211          34.100  
R17  21030652.870 2   -556716.34109      3173.177          41.300  
R08  23209579.544 4    597690.36303     -3552.820          35.300  
E07  23519711.828 4      9391.54708      -881.560          34.600    23517597.089 3         0.00000      -658.067          26.300  
E08  27057909.182 4     20861.64709     -2747.684          32.500    27055789.661 4         0.00000     -2050.250          21.100  
E19  28586265.824 4    -30317.42608      2887.702          32.700    28584155.290 3   -119180.43509      2156.566          28.900  
E26  23167835.831 3     16685.26305      -131.858          37.000    23165710.900 3         0.00000       -98.459          26.500  
E33  25028053.123 3   -380514.28304      2149.645          39.300    25025932.101 3         0.00000      1604.547          26.000  
> 2023 09 07 19 35 30.4341741  0 21
G02  23382373.606 3   -501484.50802      2829.583          37.800           0.000 0         0.00000         0.000           0.000  
G08  22536209.686 2    163457.77001      -911.607          46.800    22533865.616 2    117378.43805      -680.670          30.700  
G10  21177763.720 3     25151.90601     -1050.654          39.800    21175420.854 2    124560.52005      -784.684          32.700  
G18  24792086.183 5         0.00000     -3507.227          26.200           0.000 0         0.00000         0.000           0.000  
G21  22520993.428 2   -397199.03501      2233.397          42.600           0.000 0         0.00000         0.000           0.000  
G23  23301859.837 4    422314.10104     -2471.384          32.400           0.000 0         0.00000         0.000           0.000  
G24  24554426.311 4    210096.92009     -2506.974          30.600           0.000 0         0.00000         0.000           0.000  
G27  22802649.941 2    497642.44601     -2764.232          43.700    22800310.356 2         0.00000     -2064.256          29.600  
G28  23596958.445 3   -248717.04202      3361.600          37.300           0.000 0         0.00000         0.000           0.000  
G32  20552895.522 2    -54588.78801       266.893          42.200    20550556.233 2    -39161.77709       199.422          29.800  
R02  20705562.137 2   -325966.79701      1899.150          41.400  
R01  19731716.003 4    247525.31804     -1490.096          31.200  
R24  19271072.310 3    143426.66201      -889.688          39.200  
R23  22066870.218 4    697501.82904     -4068.730          31.300  
R17  21030070.976 2   -559891.31501      3176.896          41.400  
R08  23210249.876 3    601241.69302     -3550.680          39.000  
E07  23519882.404 4     10271.55307      -879.419          35.000    23517764.977 3         0.00000      -656.622          27.900  
E08  27058431.118 4     23607.47909     -2745.857          30.000           0.000 0         0.00000         0.000           0.000  
E19  28585716.910 4    -33209.05808      2893.504          33.800    28583605.172 3   -121339.67809      2161.041          28.900  
E26  23167859.511 4     16815.34406      -129.307          36.500    23165739.082 3         0.00000       -96.500          27.200  
E33  25027644.212 3   -382665.59004      2153.044          39.900    25025524.080 3         0.00000      1608.051          26.700  
> 2023 09 07 19 35 31.4341741  0 23
G02  23381832.179 3   -504314.37101      2829.265          39.700           0.000 0         0.00000         0.000           0.000  
G08  22536379.983 2    164369.36401      -912.618          47.300    22534040.991 2         0.00000      -679.098          29.200  
G10  21177962.496 3     26203.12802     -1052.637          39.000    21175620.205 2    125345.52905      -786.031          32.600  
G18  24792756.219 4    618793.07809     -3509.847          30.200           0.000 0         0.00000         0.000           0.000  
G21  22520572.215 2   -399432.75401      2232.936          43.600           0.000 0         0.00000         0.000           0.000  
G23  23302329.021 4    424786.16204     -2473.244          33.300           0.000 0         0.00000         0.000           0.000  
G24  24554891.586 5         0.00000     -2503.800          23.800           0.000 0         0.00000         0.000           0.000  
G27  22803172.785 2    500407.00801     -2765.853          45.700    22800835.293 3         0.00000     -2065.215          26.000  
G28  23596318.092 3   -252077.84202      3359.410          38.000           0.000 0         0.00000         0.000           0.000  
G32  20552849.942 2    -54854.98501       264.429          42.500    20550506.168 2         0.00000       197.569          29.500  
R10  23907684.945 6         0.00000       954.200          22.200  
R02  20705209.276 3   -327865.83501      1897.731          40.500  
R01  19731999.011 4    249015.99203     -1491.940          32.600  
R24  19271241.089 3    144317.18401      -892.519          39.900  
R23  22067615.796 4    701571.55309     -4071.967          29.400  
R17  21029474.684 2   -563068.16001      3175.930          42.200  
R08  23210898.623 3    604792.68402     -3551.675          37.500  
E07  23520049.403 4     11151.49907      -881.705          35.500    23517932.569 3         0.00000      -658.187          27.900  
E08  27058951.257 5         0.00000     -2746.050          27.700           0.000 0         0.00000         0.000           0.000  
E13  25842564.355 6         0.00000     -2420.000          20.000           0.000 0         0.00000         0.000           0.000  
E19  28585166.182 4    -36102.74707      2892.629          35.200    28583055.054 3   -123500.62009      2160.340          28.500  
E26  23167886.192 3     16945.31705      -131.646          36.700    23165763.059 3         0.00000       -98.121          27.600  
E33  25027234.097 3   -384818.85404      2152.463          40.600    25025115.152 3         0.00000      1607.511          27.300  
> 2023 09 07 19 35 32.4341741  0 23
G02  23381298.848 3   -507142.49509      2826.461          38.200           0.000 0         0.00000         0.000           0.000  
G08  22536555.061 2    165284.08601      -916.546          48.500    22534213.678 3         0.00000      -684.279          26.300  
G10  21178162.144 3     27257.79901     -1057.204          39.600    21175822.261 2    126133.01805      -789.351          31.100  
G18  24793423.254 4    622304.00009     -3513.791          34.100           0.000 0         0.00000         0.000           0.000  
G21  22520145.016 2   -401663.89909      2229.870          41.900           0.000 0         0.00000         0.000           0.000  
G23  23302787.700 4    427261.20704     -2477.583          33.000           0.000 0         0.00000         0.000           0.000  
G24  24555390.749 4    215113.00209     -2511.273          30.800           0.000 0         0.00000         0.000           0.000  
G27  22803702.818 2    503175.01801     -2770.173          46.900    22801362.935 3         0.00000     -2067.800          24.600  
G28  23595682.241 3   -255434.99302      3354.638          38.900           0.000 0         0.00000         0.000           0.000  
G32  20552801.971 2    -55116.96001       259.171          42.400    20550456.697 2         0.00000       193.508          29.200  
R10  23907488.281 6         0.00000       956.800          20.900  
R02  20704861.511 3   -329761.41301      1893.444          40.500  
R01  19732273.922 4    250510.08903     -1496.394          34.300  
R24  19271405.679 3    145212.36301      -898.108          40.500  
R23  22068389.574 4    705645.15104     -4076.606          31.900  
R17  21028880.504 3   -566242.50009      3172.878          40.600  
R08  23211563.860 3    608345.70702     -3554.981          37.200  
E07  23520220.275 4     12035.34308      -886.396          33.500    23518098.940 3         0.00000      -661.607          25.700  
E08  27059472.896 5         0.00000     -2750.800          27.700           0.000 0         0.00000         0.000           0.000  
E13  25843019.439 4      1494.17509     -2426.404          31.200           0.000 0         0.00000         0.000           0.000  
E19  28584616.971 4    -38993.74607      2889.257          35.000    28582506.733 3   -125659.48209      2157.804          28.200  
E26  23167908.982 4     17079.28006      -136.602          35.900    23165786.739 3         0.00000      -101.923          24.400  
E33  25026824.872 3   -386969.24009      2148.182          39.200    25024703.240 3         0.00000      1605.118          26.100  
> 2023 09 07 19 35 33.4341741  0 22
G02  23380762.515 3   -509968.44309      2826.772          36.200           0.000 0         0.00000         0.000           0.000  
G08  22536730.436 2    166201.26901      -915.861          48.000    22534387.552 2         0.00000      -685.350          29.400  
G10  21178363.013 3     28316.87202     -1059.354          37.000    21176022.223 2    126924.01309      -791.353          30.000  
G18  24794094.494 3    625820.52609     -3517.734          36.900           0.000 0         0.00000         0.000           0.000  
G21  22519719.615 2   -403892.81209      2229.809          42.000           0.000 0         0.00000         0.000           0.000  
G23  23303270.373 4    429741.32509     -2481.793          32.200           0.000 0         0.00000         0.000           0.000  
G24  24555852.726 4    217626.77809     -2515.468          35.200           0.000 0         0.00000         0.000           0.000  
G27  22804230.146 2    505946.20701     -2770.063          46.800    22801887.873 3         0.00000     -2068.363          23.300  
G28  23595046.076 3   -258787.23402      3351.965          39.400           0.000 0         0.00000         0.000           0.000  
G32  20552746.811 2    -55374.31201       257.711          41.900    20550406.335 2    -39748.29509       192.277          29.900  
R02  20704501.164 3   -331654.18301      1894.145          40.700  
R01  19732551.834 4    252007.98003     -1497.577          34.500  
R24  19271573.271 3    146112.28501      -899.488          39.900  
R23  22069151.642 4    709723.94303     -4079.165          32.900  
R17  21028284.509 2   -569414.57309      3172.037          42.500  
R08  23212230.301 3    611902.88902     -3558.276          36.200  
E07  23520387.553 4     12923.77707      -888.508          34.900    23518267.125 3         0.00000      -663.178          27.800  
E08  27059996.333 4     31853.29409     -2753.714          31.900           0.000 0         0.00000         0.000           0.000  
E13  25843482.917 4      3923.79008     -2430.812          33.300    25841367.584 3         0.00000     -1814.000          25.400  
E19  28584066.556 4    -41882.37807      2889.481          35.000    28581953.614 2   -127816.45809      2158.149          29.400  
E26  23167936.553 4     17217.62006      -137.993          36.500    23165813.734 3         0.00000      -102.790          25.900  
E33  25026415.054 3   -389117.98803      2149.222          41.200    25024297.034 3         0.00000      1605.302          27.900  
> 2023 09 07 19 35 34.4341741  0 23
G02  23380221.105 4   -512795.26209      2826.579          34.200           0.000 0         0.00000         0.000           0.000  
G08  22536902.512 2    167116.79301      -915.890          46.700    22534562.630 2    120109.95905      -684.198          32.600  
G10  21178569.275 3     29378.42002     -1063.980          37.400    21176224.594 3         0.00000      -794.215          28.500  
G18  24794766.327 4    629341.70109     -3525.676          32.100           0.000 0         0.00000         0.000           0.000  
G21  22519293.602 3   -406122.77309      2229.660          39.300           0.000 0         0.00000         0.000           0.000  
G23  23303737.743 4    432226.48609     -2488.863          34.200           0.000 0         0.00000         0.000           0.000  
G24  24556343.182 5         0.00000     -2518.850          25.200           0.000 0         0.00000         0.000           0.000  
G27  22804756.584 2    508716.49701     -2771.471          45.300    22802413.404 3         0.00000     -2067.500          24.200  
G28  23594408.114 3   -262136.65701      3346.252          39.600           0.000 0         0.00000         0.000           0.000  
G32  20552700.952 2    -55630.83001       254.720          42.600    20550358.365 2    -39939.92605       190.304          30.800  
R10  23907139.626 6         0.00000       945.550          21.300  
R02  20704145.616 2   -333548.39001      1893.647          41.800  
R01  19732829.746 4    253507.09103     -1500.744          34.800  
R24  19271743.236 3    147012.88602      -902.405          38.100  
R23  22069902.926 4    713805.46703     -4084.921          33.800  
R17  21027697.816 2   -572586.16501      3170.914          42.400  
R08  23212906.323 4    615464.59403     -3565.067          34.900  
E07  23520555.738 3     13814.10105      -892.582          37.200    23518436.514 3    107149.95309      -666.391          28.300  
E08  27060524.272 5         0.00000     -2758.750          26.600           0.000 0         0.00000         0.000           0.000  
E13  25843947.302 4      6357.11309     -2436.530          32.700    25841833.749 3         0.00000     -1819.885          27.100  
E19  28583514.326 4    -44771.69709      2888.278          31.700    28581404.700 2   -129974.31409      2156.795          29.800  
E26  23167964.142 3     17356.92605      -140.983          37.000    23165840.416 3     12794.28909      -105.257          28.900  
E33  25026007.940 3   -391267.27404      2148.971          40.100    25023887.808 2   -281291.88409      1604.426          31.200  
> 2023 09 07 19 35 35.4341741  0 23
G02  23379682.975 3   -515623.58009      2834.846          37.000           0.000 0         0.00000         0.000           0.000  
G08  22537077.294 2    168031.48201      -909.468          45.400    22534737.115 1    120793.00403      -679.249          36.700  
G10  21178771.034 3     30442.94302     -1060.197          37.700    21176426.353 3         0.00000      -790.350          26.400  
G18  24795436.660 4    632870.46309     -3528.307          34.900           0.000 0         0.00000         0.000           0.000  
G21  22518871.499 2   -408353.82109      2237.359          43.000           0.000 0         0.00000         0.000           0.000  
G23  23304217.711 4    434717.94709     -2489.047          32.300           0.000 0         0.00000         0.000           0.000  
G24  24556812.663 5         0.00000     -2523.000          24.900           0.000 0         0.00000         0.000           0.000  
G27  22805279.427 3    511488.01301     -2768.193          41.400    22802944.344 3         0.00000     -2067.024          28.100  
G28  23593768.964 3   -265480.16702      3343.934          36.900           0.000 0         0.00000         0.000           0.000  
G32  20552652.685 2    -55885.49701       258.903          43.200    20550308.300 2         0.00000       193.348          29.500  
R10  23906935.475 6         0.00000       943.600          22.700  
R02  20703789.457 3   -335443.04801      1899.895          40.800  
R01  19733116.942 4    255007.07809     -1494.563          33.800  
R24  19271915.016 4    147915.48303      -898.679          34.900  
R23  22070665.588 4    717892.71603     -4086.119          32.900  
R17  21027099.430 2   -575758.37901      3178.736          42.400  
R08  23213554.180 5         0.00000     -3562.292          28.700  
E07  23520725.424 4     14706.68106      -888.802          35.900    23518606.497 3         0.00000      -663.238          27.400  
E08  27061050.117 5         0.00000     -2759.900          28.600           0.000 0         0.00000         0.000           0.000  
E13  25844401.479 5         0.00000     -2439.600          28.800    25842296.634 3         0.00000     -1820.808          26.700  
E19  28582977.697 4    -47659.51809      2890.729          30.900    28580854.878 3         0.00000      2158.792          25.100  
E26  23167990.213 3     17497.95604      -137.106          37.900    23165867.987 3     12899.70509      -102.356          28.300  
E33  25025595.731 3   -393417.71604      2156.248          40.600    25023479.194 2   -282897.72905      1611.076          32.000  
> 2023 09 07 19 35 36.4341741  0 24
G02  23379142.437 2   -518466.03601      2845.504          41.900           0.000 0         0.00000         0.000           0.000  
G08  22537250.574 2    168935.34001      -904.188          45.000    22534908.895 1    121467.97003      -675.193          36.700  
G10  21178969.792 4     31498.29509     -1055.847          31.200    21176629.613 2         0.00000      -789.100          28.700  
G18  24796102.805 3    636400.20002     -3533.963          37.300           0.000 0         0.00000         0.000           0.000  
G21  22518439.501 3   -410599.12701      2247.395          40.900           0.000 0         0.00000         0.000           0.000  
G23  23304694.974 4         0.00000     -2485.313          29.100           0.000 0         0.00000         0.000           0.000  
G24  24557299.821 5         0.00000     -2514.614          26.900           0.000 0         0.00000         0.000           0.000  
G27  22805810.944 2    514253.84601     -2769.072          42.900    22803472.265 2    369792.81009     -2067.562          31.100  
G28  23593136.394 3   -268823.85902      3338.520          36.600           0.000 0         0.00000         0.000           0.000  
G32  20552603.213 2    -56148.32501       261.201          42.500    20550258.235 3         0.00000       195.016          26.800  
R10  23906756.192 6         0.00000       947.850          22.100  
R02  20703436.892 2   -337347.85901      1903.838          42.900  
R11  24358529.329 4    -71968.22809      3027.079          34.700  
R01  19733399.042 3    256495.25402     -1487.058          38.100  
R24  19272073.010 4    148810.60904      -897.344          30.800  
R23  22071426.156 4    721979.48609     -4091.776          32.300  
R17  21026505.844 2   -578944.97101      3189.010          42.600  
R08  23214203.834 5         0.00000     -3554.196          27.000  
E07  23520896.017 4     15590.02907      -883.928          35.500    23518774.071 3         0.00000      -659.843          26.200  
E08  27061570.552 4      4418.93909     -2749.849          30.200           0.000 0         0.00000         0.000           0.000  
E13  25844874.851 4     11235.25409     -2443.586          30.400           0.000 0         0.00000         0.000           0.000  
E19  28582414.998 5         0.00000      2889.750          26.300    28580302.352 3         0.00000      2157.792          24.900  
E26  23168014.207 3     17630.42604      -133.863          38.300    23165893.779 3         0.00000      -100.087          26.700  
E33  25025187.413 2   -395582.36903      2166.623          42.700    25023066.374 2   -284514.25805      1617.840          31.700  
> 2023 09 07 19 35 37.4341741  0 24
G02  23378602.510 3   -521314.81301      2853.605          41.400           0.000 0         0.00000         0.000           0.000  
G08  22537420.854 2    169839.34801      -901.597          45.700    22535080.378 2    122142.94605      -673.138          32.100  
G10  21179169.457 3     32551.44209     -1050.512          36.100    21176828.371 3         0.00000      -784.292          27.700  
G18  24796780.030 4    639937.21309     -3539.227          34.600           0.000 0         0.00000         0.000           0.000  
G21  22518015.583 3   -412849.36001      2254.508          39.900           0.000 0         0.00000         0.000           0.000  
G23  23305162.954 4    439688.27009     -2484.268          30.000           0.000 0         0.00000         0.000           0.000  
G24  24557762.094 5         0.00000     -2506.264          28.400           0.000 0         0.00000         0.000           0.000  
G27  22806337.993 2    517025.32501     -2771.400          44.500    22803997.203 2    371862.48205     -2069.448          31.400  
G28  23592499.339 3   -272158.14402      3332.661          36.700           0.000 0         0.00000         0.000           0.000  
G32  20552552.555 3    -56408.73301       261.659          41.300    20550209.968 3         0.00000       196.550          22.800  
R10  23906636.867 6         0.00000       947.650          22.500  
R02  20703072.357 2   -339251.40901      1905.544          42.700  
R11  24357973.819 5         0.00000      3025.159          26.400  
R01  19733666.763 3    257980.43302     -1481.712          36.700  
R24  19272243.289 4    149709.55209      -898.061          30.100  
R23  22072215.220 4         0.00000     -4100.250          28.300  
R17  21025910.460 2   -582136.92001      3196.750          42.500  
R08  23214907.741 4         0.00000     -3547.725          29.500  
E07  23521061.498 4     16473.66606      -881.660          36.300    23518942.867 3         0.00000      -658.143          24.300  
E08  27062095.786 4      7165.99409     -2743.888          30.000    27059978.045 3         0.00000     -2052.000          24.700  
E13  25845331.436 5         0.00000     -2446.800          26.100    25843224.497 3         0.00000     -1826.250          22.700  
E26  23168040.277 3     17764.93505      -133.222          37.000    23165919.553 3     13099.10609       -99.067          28.100  
E33  25024772.796 3   -397752.14004      2173.953          37.800    25022652.368 2   -286134.49909      1624.486          30.200  
E19         0.000 0         0.00000         0.000           0.000    28579754.031 3         0.00000      2156.123          26.300  
> 2023 09 07 19 35 38.4341741  0 24
G02  23378056.004 2   -524170.73701      2856.466          45.700           0.000 0         0.00000         0.000           0.000  
G08  22537589.632 2    170740.73101      -902.811          44.700    22535253.362 2    122815.88509      -673.991          29.900  
G10  21179372.107 3     33602.20009     -1052.244          38.200    21177028.927 3         0.00000      -787.150          25.000  
G18  24797453.364 3    643480.64009     -3548.471          36.800           0.000 0         0.00000         0.000           0.000  
G21  22517587.477 2   -415106.00001      2256.720          44.500           0.000 0         0.00000         0.000           0.000  
G23  23305627.636 5         0.00000     -2485.951          27.200           0.000 0         0.00000         0.000           0.000  
G24  24558252.568 4    230205.60709     -2505.746          32.800           0.000 0         0.00000         0.000           0.000  
G27  22806866.228 2    519798.96901     -2777.118          45.800    22804526.939 2    373933.67905     -2073.856          32.700  
G28  23591863.785 4   -275486.40003      3322.929          34.900           0.000 0         0.00000         0.000           0.000  
G32  20552504.585 2    -56669.09401       257.649          41.700    20550159.903 3         0.00000       187.200          22.200  
R10  23906402.127 5         0.00000       954.150          23.800  
R02  20702723.702 2   -341156.52501      1903.196          42.300  
R11  24357403.319 5         0.00000      3022.150          23.700  
R01  19733944.065 3    259461.33901     -1481.712          39.000  
R24  19272435.469 5         0.00000      -902.519          27.300  
R23  22072965.893 5         0.00000     -4105.846          27.200  
R17  21025309.980 2   -585335.55701      3199.088          41.000  
R08  23215560.990 4    629684.76703     -3547.365          35.600  
E07  23521231.480 3     17355.67004      -883.965          37.700    23519109.848 3         0.00000      -660.295          25.200  
E08  27062618.333 5         0.00000     -2742.050          28.300           0.000 0         0.00000         0.000           0.000  
E13  25845804.808 4      1531.16407     -2455.579          34.900    25843692.162 3    318998.61109     -1834.720          28.600  
E19  28581318.060 6         0.00000      2881.800          22.200    28579206.007 3         0.00000      2151.497          27.600  
E26  23168065.161 4     17898.90106      -136.352          36.000    23165944.733 3     13199.25309      -102.087          28.400  
E33  25024362.088 3   -399928.32804      2176.373          40.300    25022239.845 2   -287759.51005      1624.847          32.400  
